name,date,time,time_since_start,vicon_sequence,vicon_time_stamp,vicon_frame_id,vicon_child_frame_id,vicon_translation_x,vicon_translation_y,vicon_translation_z,vicon_rotation_x,vicon_rotation_y,vicon_rotation_z,vicon_rotation_w,int_imu_time_stamp,int_imu_acc_x,int_imu_acc_y,int_imu_acc_z,int_imu_gyro_x,int_imu_gyro_y,int_imu_gyro_z,int_imu_mag_x,int_imu_mag_y,int_imu_mag_z,ext_imu_time_stamp,ext_imu_acc_x,ext_imu_acc_y,ext_imu_acc_z,ext_imu_gyro_x,ext_imu_gyro_y,ext_imu_gyro_z,ext_imu_mag_x,ext_imu_mag_y,ext_imu_mag_z,dji_imu_sequence,dji_imu_time_stamp,dji_imu_frame_id,dji_imu_orientation_x,dji_imu_orientation_y,dji_imu_orientation_z,dji_imu_orientation_w,dji_imu_ang_vel_x,dji_imu_ang_vel_y,dji_imu_ang_vel_z,dji_imu_lin_acc_x,dji_imu_lin_acc_y,dji_imu_lin_acc_z,rc_sequence,rc_time_stamp,rc_frame_id,rc_roll,rc_pitch,rc_yaw,rc_throttle,rc_mode,rc_landing_gear
/root/Desktop/devel/VibrationTest/28102020/T000_3.csv,20201020,221012.081517,0.00027179718017578125,139356,1603884858.593174,/world,vicon/test_obj/test_obj,-0.5149821196805651,-0.08711343535386139,1.3851157899123936,-0.003478149764725289,0.00281206845758537,0.026105330543564644,0.9996491916979753,1801450.0,0.01,0.11,-1.0,-0.06,-0.12,0.0,-24.01,6.9,-54.46,1801575.0,0.15,-0.06,0.99,0.0,0.0,0.0,13.65,182.75,85.22,111074,1603231812.6922307,body_FLU,-0.017110054868393492,-0.0155291606318324,0.7059927694447594,0.7078420026278394,-0.00137904507573694,0.00650382973253727,0.0023765999358147383,0.005501344330608845,-0.5083698337040842,9.842766899585724,4932,1603231811.944389,rc,0.0,0.0,0.0,0.0,0.0,-10000.0
,,221012.091789,0.010602951049804688,139357,1603884858.6031709,/world,vicon/test_obj/test_obj,-0.5149917878756718,-0.0871120416103607,1.3851236205194377,-0.003451181838766316,0.002810947055568222,0.026084735008857027,0.9996498259491091,1806151.0,0.01,0.11,-0.99,0.0,-0.06,0.0,-22.66,6.15,-54.91,1802175.0,0.15,-0.06,0.99,-0.06,-0.06,-0.06,13.05,182.6,86.12,111075,1603231812.8307679,body_FLU,-0.017114851233019788,-0.015538308980654867,0.7059954527575666,0.7078390095967669,-0.0014320820337161422,0.005432303994894028,0.003638674970716238,-0.08407831447385251,-0.49020178589969876,9.837218309283257,4932,1603231811.944389,rc,0.0,0.0,0.0,0.0,0.0,-10000.0
,,221012.199415,0.11815857887268066,139368,1603884858.7132592,/world,vicon/test_obj/test_obj,-0.5149869986693808,-0.08710923705043778,1.385118490450579,-0.0034861655536110045,0.002826487361779317,0.026113826591582626,0.9996489012046536,1806251.0,0.02,0.12,-0.99,-0.06,-0.06,-0.06,-23.11,5.25,-56.41,1806376.0,0.15,-0.06,1.0,-0.06,-0.06,-0.06,14.25,181.7,85.67,111081,1603231812.182875,body_FLU,-0.017109857830857503,-0.015570791936429731,0.7059959461510096,0.7078379244020633,0.0023896326310932636,0.0052755908109247684,0.004901714622974396,-0.008883242213632911,-0.43581101091206076,9.832017893314362,4932,1603231811.944389,rc,0.0,0.0,0.0,0.0,0.0,-10000.0
,,221012.292723,0.21146297454833984,139377,1603884858.80324,/world,vicon/test_obj/test_obj,-0.51498213525213,-0.08711187257491639,1.385118092590963,-0.0035344375667759214,0.002824754002057731,0.026106465894941512,0.9996489288517197,1806351.0,0.01,0.11,-0.99,-0.06,-0.18,-0.06,-22.21,6.6,-56.26,1806476.0,0.14,-0.07,0.99,0.0,-0.18,-0.06,13.95,181.7,85.22,111087,1603231812.2827196,body_FLU,-0.017108347394701785,-0.015579926032504016,0.7060001761085885,0.7078335409465181,3.475561970844865e-05,0.0052704354748129845,0.0025308493059128523,-0.05301597745064646,-0.500251011416316,9.884974274754525,4932,1603231811.944389,rc,0.0,0.0,0.0,0.0,0.0,-10000.0
,,221012.392569,0.3113079071044922,139387,1603884858.9032645,/world,vicon/test_obj/test_obj,-0.5149859384360791,-0.08711874489685836,1.3851336255980982,-0.003537697324408671,0.002827315477080234,0.02608810618371484,0.9996493893863894,1806451.0,0.01,0.11,-0.99,-0.06,-0.06,0.12,-22.21,5.85,-54.91,1806575.0,0.13,-0.06,1.0,-0.06,-0.06,-0.06,14.4,183.35,84.47,111093,1603231812.3826103,body_FLU,-0.017119098480287583,-0.01559830478134307,0.7060033085815992,0.7078297518662279,0.004933136515319347,0.004563376307487488,-0.0011140734422951937,-0.04637863950803876,-0.39757335621491074,9.83981793308258,4932,1603231811.944389,rc,0.0,0.0,0.0,0.0,0.0,-10000.0
,,221012.491853,0.4106736183166504,139397,1603884859.3582795,/world,vicon/test_obj/test_obj,-0.5149873439413896,-0.08711549809135065,1.3851283169189985,-0.0034348521279457416,0.002823777300431247,0.026094989527000945,0.9996495783994521,1806551.0,0.01,0.11,-1.0,0.12,0.06,0.12,-22.81,5.7,-55.36,1806675.0,0.15,-0.07,1.0,-0.06,-0.06,-0.06,13.35,182.6,85.82,111100,1603231812.479662,body_FLU,-0.017154012292323776,-0.015622337081784897,0.705999568093781,0.7078321074222139,-0.0005191961536183953,0.002370404778048396,-0.0010197614319622517,-0.08336929629184306,-0.516383940808475,9.87313751578331,4933,1603231812.4657958,rc,0.0,0.0,0.0,0.0,0.0,-10000.0
,,221012.59178,0.5105793476104736,139407,1603884859.1030731,/world,vicon/test_obj/test_obj,-0.5149855641476484,-0.08712308372563397,1.3851231126269488,-0.0035538127164641588,0.0028343693234471204,0.02608910284254886,0.9996492862392218,1806651.0,0.02,0.11,-1.0,0.0,0.06,0.0,-22.96,7.2,-55.51,1806776.0,0.14,-0.06,0.99,-0.06,0.0,-0.18,13.95,183.5,85.22,111109,1603231812.5794966,body_FLU,-0.01720204124872518,-0.015603118423878662,0.7059979139031959,0.7078330156446951,-0.004444446414709091,0.0026631057262420654,-0.00018174920114688575,-0.04991800722945482,-0.48111153677478435,9.807935445785523,4934,1603231812.546206,rc,0.0,0.0,0.0,0.0,0.0,-10000.0
,,221012.692716,0.6114530563354492,139417,1603884859.2032738,/world,vicon/test_obj/test_obj,-0.5149948213517934,-0.08710989710772504,1.3851140102686614,-0.003537688948481621,0.0028547998593769818,0.02609768930889885,0.9996490611646683,1806751.0,0.02,0.11,-1.0,0.0,0.06,-0.06,-23.71,6.6,-56.26,1806875.0,0.14,-0.06,1.0,-0.06,-0.06,0.0,13.35,182.9,85.07,111118,1603231812.6793704,body_FLU,-0.017175280696326633,-0.015602358265765214,0.7060093091751083,0.7078223163390905,0.004726187326014042,0.002043851651251316,-0.0016030542319640517,0.00041642358619719747,-0.40114287336543203,10.02032178926468,4935,1603231812.6461103,rc,0.0,0.0,0.0,0.0,0.0,-10000.0
,,221012.79197,0.7107107639312744,139427,1603884859.303329,/world,vicon/test_obj/test_obj,-0.5149808536366722,-0.08711750590824678,1.3851276943026734,-0.003516164655577459,0.002821381765608181,0.026102335168393234,0.9996491106832459,1806851.0,0.02,0.11,-1.0,0.06,0.0,0.0,-23.56,6.75,-54.61,1806975.0,0.13,-0.06,1.0,-0.06,-0.06,-0.06,13.2,180.65,85.67,111126,1603231812.7819898,body_FLU,-0.01715008055085822,-0.015586096225866979,0.7060220697808178,0.7078105575109396,-0.001702867797575891,0.006766650825738907,0.0045476616360247135,0.09278268194105477,-0.45279031501337885,9.86135917532444,4935,1603231812.6461103,rc,0.0,0.0,0.0,0.0,0.0,-10000.0
,,221012.891465,0.8102047443389893,139437,1603884859.4031126,/world,vicon/test_obj/test_obj,-0.5149874066259558,-0.08711373152299834,1.3851210791763204,-0.0034657022764560553,0.0028324000003613677,0.026109692628418973,0.999649063606233,1806951.0,0.01,0.11,-1.0,0.06,-0.06,-0.06,-21.76,4.95,-55.06,1807076.0,0.15,-0.06,1.0,-0.06,-0.06,-0.12,13.8,180.8,87.17,111134,1603231812.8818023,body_FLU,-0.01713979780314993,-0.015544620036771664,0.706030004109904,0.7078038043241562,0.0016734217060729861,0.007936571724712849,0.006632842123508453,-0.03535553631512448,-0.4828585058748722,9.815696929335594,4936,1603231812.8457456,rc,0.0,0.0,0.0,0.0,0.0,-10000.0
,,221012.990875,0.9096174240112305,139447,1603884859.5034177,/world,vicon/test_obj/test_obj,-0.5149829688312023,-0.0871142683649458,1.3851202747646782,-0.003421730903139202,0.0027815979734147488,0.026116727823790663,0.9996491739596041,1807051.0,0.0,0.12,-1.0,0.0,0.0,-0.06,-24.16,6.75,-54.61,1807175.0,0.15,-0.06,0.99,-0.06,-0.12,-0.06,13.8,181.55,84.47,111140,1603231812.9816427,body_FLU,-0.017137367581158552,-0.015522613126559393,0.7060298303704936,0.7078045194410131,-0.0018911657389253378,0.0047275894321501255,0.0010097104823216796,-0.05674170935433358,-0.3753995510190725,9.909293901443482,4936,1603231812.8457456,rc,0.0,0.0,0.0,0.0,0.0,-10000.0
,,221013.092274,1.011064052581787,139457,1603884859.603483,/world,vicon/test_obj/test_obj,-0.5149825554369692,-0.08710748594951082,1.3851120965676078,-0.0035610101661895243,0.0028462994596593965,0.026117618267356296,0.9996484821186009,1807151.0,0.01,0.11,-1.0,-0.06,-0.12,0.0,-22.81,6.3,-55.36,1807275.0,0.14,-0.05,0.99,0.0,-0.12,-0.12,14.85,181.85,85.07,111145,1603231813.8145614,body_FLU,-0.017152868449645444,-0.015531288521439205,0.7060164004641183,0.7078173496436088,0.002465069992467761,0.00013639754615724087,-0.0027709752321243286,0.027875022989697754,-0.47587800481170417,9.934313381910325,4936,1603231812.8457456,rc,0.0,0.0,0.0,0.0,0.0,-10000.0
,,221013.191949,1.1106946468353271,139467,1603884859.7031965,/world,vicon/test_obj/test_obj,-0.5149851561182689,-0.0871099731013257,1.3851267062082855,-0.0035388149080551913,0.002803776039003354,0.026107118689856514,0.9996489553751774,1807250.0,0.02,0.11,-0.99,-0.06,-0.12,0.0,-23.41,5.85,-55.81,1807376.0,0.14,-0.06,1.0,0.0,0.0,0.06,13.8,179.74,85.82,111153,1603231813.178556,body_FLU,-0.017184242362200747,-0.015515521541892674,0.7060042961669752,0.7078290077409192,0.00029783661011606455,0.0021335615310817957,-0.003757065162062645,-0.016314994337037207,-0.5553428450636566,9.829179921984673,4937,1603231813.1452668,rc,0.0,0.0,0.0,0.0,0.0,-10000.0
,,221013.291476,1.2102148532867432,139477,1603884859.8030815,/world,vicon/test_obj/test_obj,-0.5150315323922285,-0.08708806472803021,1.3851981492002767,-0.0038314538657363783,0.0035877636055513225,0.026009929991525713,0.9996479037418232,1807351.0,0.01,0.11,-0.99,-0.12,-0.12,0.0,-24.01,6.9,-54.46,1807476.0,0.15,-0.08,1.0,-0.06,-0.12,0.0,12.9,183.2,86.72,111159,1603231813.2811542,body_FLU,-0.0171532914251716,-0.0155096302307817,0.706012054760457,0.7078221489161701,0.0006479962612502277,0.004230299964547157,0.0013430271064862609,0.04844243775866926,-0.5042791138887406,9.79987018597126,4937,1603231813.1452668,rc,0.0,0.0,0.0,0.0,0.0,-10000.0
,,221013.391694,1.3105008602142334,139487,1603884859.903035,/world,vicon/test_obj/test_obj,-0.5149864108137716,-0.08712562611457011,1.385135185150323,-0.003481233952026765,0.0028302559430728644,0.026096205623084064,0.9996493678853329,1807450.0,0.01,0.11,-1.0,-0.06,-0.12,0.06,-22.21,6.15,-54.61,1807576.0,0.15,-0.07,1.0,-0.12,-0.06,-0.06,14.85,182.3,84.77,111165,1603231813.3809793,body_FLU,-0.017108569418143458,-0.015514126135741876,0.7060184974990418,0.7078167064515392,0.0021102470345795155,0.007195143960416317,0.0013613486662507057,0.04804804890509695,-0.5559348801746965,9.925422084331512,4937,1603231813.1452668,rc,0.0,0.0,0.0,0.0,0.0,-10000.0
,,221013.491514,1.4102518558502197,139497,1603884860.3182716,/world,vicon/test_obj/test_obj,-0.5149871933278872,-0.08711664924883829,1.3851216183889818,-0.0034685424134770445,0.0028388946339760737,0.026110176479064568,0.9996490226949732,1807551.0,0.01,0.11,-0.99,0.0,0.0,0.06,-22.06,8.1,-54.61,1807675.0,0.14,-0.07,0.99,-0.06,-0.18,0.0,14.1,181.85,86.42,111171,1603231813.4808533,body_FLU,-0.017066715997745636,-0.01552750047942544,0.7059969763555384,0.7078388893743767,-0.0025580106303095818,0.006070638075470924,0.0007682392606511712,0.0008421484949067235,-0.48056769693642853,9.844941236615181,4937,1603231813.1452668,rc,0.0,0.0,0.0,0.0,0.0,-10000.0
,,221013.591567,1.5103073120117188,139507,1603884860.1032383,/world,vicon/test_obj/test_obj,-0.5149918921481655,-0.08711175742978904,1.3851207450734597,-0.0034923081989795515,0.002816438815995639,0.0261373787576768,0.999648292594709,1807651.0,0.01,0.11,-1.0,0.0,0.0,0.06,-21.16,5.4,-54.46,1807775.0,0.15,-0.07,1.0,0.0,0.06,-0.06,14.7,182.15,85.22,111177,1603231813.5806675,body_FLU,-0.01703747346699373,-0.015511758786280428,0.7060086673428545,0.7078282782384329,0.004293162375688553,0.005416662432253361,0.0021935736294835806,-0.02409438681229949,-0.3373109365515411,9.895649673700333,4937,1603231813.1452668,rc,0.0,0.0,0.0,0.0,0.0,-10000.0
,,221013.691776,1.610579013824463,139517,1603884860.2032022,/world,vicon/test_obj/test_obj,-0.5149854419364319,-0.08711013271416718,1.3851198727645853,-0.0035083529947545736,0.0027356249727943024,0.026125409239690547,0.999648773723717,1807751.0,0.02,0.11,-0.99,-0.06,-0.12,-0.06,-23.11,6.0,-54.61,1807876.0,0.15,-0.06,1.0,-0.06,-0.06,-0.06,12.9,182.15,84.32,111187,1603231813.6832693,body_FLU,-0.017028507667377436,-0.015553514114409132,0.7060067363292053,0.7078295037529158,-0.0018129176460206509,0.00029560644179582596,-0.0037277161609381437,0.045249601350165904,-0.45253959006071093,9.773727901697159,4937,1603231813.1452668,rc,0.0,0.0,0.0,0.0,0.0,-10000.0
,,221013.791994,1.710771083831787,139527,1603884860.3032556,/world,vicon/test_obj/test_obj,-0.5149852307910281,-0.08710428637151428,1.3851073707812225,-0.003491676257771345,0.002795188095627218,0.026106719728218233,0.9996491556068324,1807851.0,0.01,0.11,-0.99,0.0,-0.06,0.0,-23.41,6.6,-55.81,1807976.0,0.15,-0.06,1.0,-0.12,-0.12,-0.18,13.8,181.25,85.52,111193,1603231813.7803378,body_FLU,-0.017031137373327548,-0.015589326491065328,0.7060028548754311,0.70783252409526,0.0002452645858284086,0.0027850442565977573,-6.494956323876977e-05,-0.011492053236812353,-0.5438764229491353,9.842206081867218,4938,1603231813.7443323,rc,0.0,0.0,0.0,0.0,0.0,-10000.0
,,221013.891831,1.8106329441070557,139537,1603884860.4030778,/world,vicon/test_obj/test_obj,-0.514990432953998,-0.08710362246706384,1.385116203465104,-0.003490236524686102,0.0028203578188480457,0.02607505035094788,0.9996499165107607,1807951.0,0.01,0.1,-0.99,-0.06,-0.06,-0.06,-22.81,5.25,-55.06,1808075.0,0.14,-0.06,1.0,-0.06,-0.18,0.06,13.65,182.15,84.32,111203,1603231813.8829606,body_FLU,-0.017021520130924252,-0.015623808168061719,0.7060191533311748,0.7078157384519584,0.0013814200647175312,0.0024120062589645386,0.0025026595685631037,-0.055335685296915474,-0.48312547847628595,9.942988530993462,4938,1603231813.7443323,rc,0.0,0.0,0.0,0.0,0.0,-10000.0
,,221013.990939,1.909684658050537,139547,1603884860.503434,/world,vicon/test_obj/test_obj,-0.5149793020604758,-0.087113733858784,1.3851145751111247,-0.0034723755906909443,0.002839256589245457,0.02612939865310614,0.9996485061039229,1808051.0,0.02,0.11,-1.0,-0.06,-0.06,0.0,-23.86,7.05,-55.66,1808176.0,0.14,-0.06,1.01,0.06,0.0,-0.12,14.25,182.75,85.22,111209,1603231813.9828053,body_FLU,-0.017011819186074653,-0.01570641015323734,0.7060077462382514,0.7078255215373797,-0.0036102812737226486,0.004200724884867668,0.003413731697946787,-0.19630865609273315,-0.478593808427453,9.783401423156262,4938,1603231813.7443323,rc,0.0,0.0,0.0,0.0,0.0,-10000.0
,,221014.09209,2.010833263397217,139557,1603884860.603252,/world,vicon/test_obj/test_obj,-0.5149861217038785,-0.08711302355966523,1.3851208926005152,-0.0034607318870825033,0.0028199352179822646,0.026111118442473675,0.9996490788240917,1808151.0,0.01,0.11,-1.0,0.0,0.12,-0.06,-22.66,5.85,-55.21,1808276.0,0.14,-0.05,1.0,0.06,-0.12,-0.06,14.7,181.7,86.72,111215,1603231814.826389,body_FLU,-0.017004306143038085,-0.015708771519889343,0.7059827561944944,0.7078505746454932,0.0015426037134602666,0.007000852841883898,0.0008544943993911147,0.08175084791891277,-0.559780278749764,9.843581253647804,4938,1603231813.7443323,rc,0.0,0.0,0.0,0.0,0.0,-10000.0
,,221014.193024,2.111762523651123,139567,1603884860.7032063,/world,vicon/test_obj/test_obj,-0.5149863845157986,-0.08711681427793135,1.3851218002244903,-0.0034865400580828586,0.0027932728202181654,0.026094452243434256,0.9996494991883357,1808250.0,0.02,0.12,-0.99,-0.12,-0.06,0.06,-22.66,5.4,-55.81,1808375.0,0.14,-0.06,0.99,-0.06,-0.06,-0.06,14.25,183.2,85.22,111222,1603231814.190846,body_FLU,-0.016991477695859323,-0.015692834188389036,0.7059785288799888,0.7078554523356402,0.0005793545278720558,0.009083188138902187,0.006862914655357599,-0.0017921247845515608,-0.3694466315880418,9.832103184342385,4939,1603231814.1658502,rc,0.0,0.0,0.0,0.0,0.0,-10000.0
,,221014.291715,2.210524320602417,139577,1603884860.803461,/world,vicon/test_obj/test_obj,-0.5149801689745007,-0.08710865493697008,1.3851254991861577,-0.0035144980757494428,0.0028146729684044294,0.026107634111718535,0.9996489970786971,1808351.0,0.01,0.11,-0.99,0.06,0.0,-0.06,-23.11,7.05,-55.66,1808476.0,0.13,-0.06,0.99,-0.12,-0.12,-0.12,13.2,182.45,85.97,111230,1603231814.2823427,body_FLU,-0.01698986697524375,-0.015643275283566266,0.7059835950182873,0.7078515352272826,0.002879204461351037,0.007560328580439091,0.0022865752689540386,-0.031897297302726654,-0.5017344034910202,9.750937671661378,4939,1603231814.1658502,rc,0.0,0.0,0.0,0.0,0.0,-10000.0
,,221014.391769,2.3105738162994385,139587,1603884860.9031327,/world,vicon/test_obj/test_obj,-0.5149866257514963,-0.08710697152904075,1.3851235464652107,-0.003519557248859378,0.002867441579276188,0.02607917908079223,0.9996495720571451,1808450.0,0.0,0.11,-0.99,-0.06,-0.18,0.0,-22.21,4.8,-55.21,1808575.0,0.14,-0.06,0.99,0.0,0.0,-0.12,13.65,182.45,84.92,111237,1603231814.379404,body_FLU,-0.01697377541279444,-0.015612926314148635,0.7059991889185682,0.7078370382556065,-0.000614608870819211,0.0011323669459670782,-0.0028386027552187443,-0.018801801948342474,-0.41284085185825825,9.73507120370865,4940,1603231814.3461282,rc,0.0,0.0,0.0,0.0,0.0,-10000.0
,,221014.491853,2.4106593132019043,139597,1603884861.314815,/world,vicon/test_obj/test_obj,-0.5149866411312722,-0.08711310127289155,1.3851329907747911,-0.0035113188147757467,0.002847943582353991,0.026104525368170758,0.9996489952042343,1808551.0,0.01,0.11,-1.0,0.0,-0.06,0.06,-22.21,5.85,-55.21,1808675.0,0.15,-0.06,1.01,-0.12,-0.12,0.0,14.85,181.55,85.07,111245,1603231814.4820123,body_FLU,-0.016985588454736706,-0.015580369730085267,0.7060045708302972,0.7078321042667166,0.0038059214130043983,0.00040438829455524683,0.002649555914103985,-0.006731346108019352,-0.463356580875814,9.81401330780983,4940,1603231814.3461282,rc,0.0,0.0,0.0,0.0,0.0,-10000.0
,,221014.59186,2.5106654167175293,139607,1603884861.103137,/world,vicon/test_obj/test_obj,-0.5150303611869461,-0.08708920503900247,1.3851857910660497,-0.0037402161835475255,0.003504607190770315,0.026037175887422454,0.9996478349814729,1808651.0,0.02,0.11,-0.99,0.0,0.06,0.0,-23.41,5.85,-55.21,1808775.0,0.15,-0.06,0.99,0.0,0.06,-0.06,12.75,182.6,85.52,111254,1603231814.581847,body_FLU,-0.01699753828456489,-0.015583174966023211,0.705993803576157,0.7078424949537246,-0.0008714650757610798,-0.001073528896085918,0.0016927581746131182,-0.09498017643392086,-0.4239803493730724,9.857390221595765,4941,1603231814.5458105,rc,0.0,0.0,0.0,0.0,0.0,-10000.0
,,221014.692146,2.6108901500701904,139617,1603884861.2034607,/world,vicon/test_obj/test_obj,-0.5149882244191957,-0.08711507193045866,1.3851235349720723,-0.0034865799952463155,0.0027773025283161553,0.026103552022987742,0.999649305968041,1808750.0,0.01,0.11,-1.0,-0.12,-0.24,0.0,-23.11,6.0,-55.36,1808876.0,0.15,-0.06,0.99,-0.06,-0.18,0.06,15.3,182.75,84.62,111259,1603231814.681722,body_FLU,-0.016987412816813412,-0.015543888128590403,0.706003800451783,0.7078336309439359,0.0011398183414712548,0.003425300121307373,0.0031215110793709755,0.024155543692409992,-0.450827562533319,9.83707109463215,4941,1603231814.5458105,rc,0.0,0.0,0.0,0.0,0.0,-10000.0
,,221014.79174,2.7105493545532227,139627,1603884861.303422,/world,vicon/test_obj/test_obj,-0.5149891356318922,-0.08711114920371353,1.3851088624562407,-0.003517532992653178,0.0028222567482804836,0.02611725565514157,0.999648713691733,1808851.0,0.01,0.11,-0.99,-0.06,-0.12,0.0,-21.76,5.7,-54.61,1808976.0,0.14,-0.06,0.99,-0.12,-0.18,0.0,13.65,181.4,85.22,111264,1603231814.7815597,body_FLU,-0.017008451956813223,-0.01553933859697536,0.7060034216422363,0.7078336034319479,-0.0006755494396202266,0.004162283148616552,0.0026118482928723097,0.01229950661212206,-0.60205647822842,9.733584452569485,4941,1603231814.5458105,rc,0.0,0.0,0.0,0.0,0.0,-10000.0
,,221014.892158,2.810903310775757,139637,1603884861.4033384,/world,vicon/test_obj/test_obj,-0.5149881090909234,-0.08711509298451289,1.3851204636521028,-0.0034562136228321353,0.002838697671078507,0.026102664911806687,0.9996492621251853,1808951.0,0.01,0.11,-0.98,0.0,0.0,-0.06,-22.81,5.7,-54.61,1809075.0,0.14,-0.06,1.01,0.0,0.06,0.0,13.95,183.8,86.27,111269,1603231814.8813975,body_FLU,-0.017040298016457345,-0.015515726308652082,0.7060112737767309,0.7078255235443147,0.006330392323434353,0.005332843400537968,0.0016649537719786167,-0.07925614011660219,-0.3500645740740001,9.878011956453323,4941,1603231814.5458105,rc,0.0,0.0,0.0,0.0,0.0,-10000.0
,,221014.99275,2.9114928245544434,139647,1603884861.5035436,/world,vicon/test_obj/test_obj,-0.5149883646502398,-0.08711388168890752,1.3851113919408835,-0.0035217873766812753,0.0028295471862096475,0.02609671905395898,0.9996492144402521,1809050.0,0.02,0.11,-1.0,-0.06,0.0,-0.12,-24.16,6.75,-54.61,1809175.0,0.13,-0.06,0.99,-0.12,-0.18,-0.06,14.1,182.3,85.82,111275,1603231814.9812067,body_FLU,-0.017105466035036418,-0.015497641506620051,0.7060199681050496,0.70781567570689,-0.001963172573596239,0.003932409454137087,-0.0023781289346516132,-0.21006743888743223,-0.5495206370539963,9.541572149455547,4941,1603231814.5458105,rc,0.0,0.0,0.0,0.0,0.0,-10000.0
,,221015.091807,3.010608673095703,139657,1603884861.603221,/world,vicon/test_obj/test_obj,-0.5149889973949564,-0.08711646518400289,1.3851160273414111,-0.0035436594862356414,0.002779692676997644,0.026098897038501226,0.9996492201564711,1809151.0,0.0,0.11,-1.0,-0.06,-0.06,0.06,-21.46,5.7,-56.41,1809276.0,0.14,-0.07,1.0,-0.12,-0.12,-0.12,13.65,181.7,86.27,111281,1603231815.8107839,body_FLU,-0.017110197467674008,-0.015462461211831563,0.7060207539098808,0.7078155469360738,0.004047668073326349,0.007839763537049294,-0.0010881200432777405,-0.08068275669962167,-0.49174615229666235,9.94207369709015,4941,1603231814.5458105,rc,0.0,0.0,0.0,0.0,0.0,-10000.0
,,221015.191999,3.1107687950134277,139667,1603884861.7034693,/world,vicon/test_obj/test_obj,-0.514985206673266,-0.08710925773765271,1.3851210106472944,-0.003500168785405959,0.0028276794105557826,0.026117493018064337,0.9996487531158512,1809251.0,0.01,0.11,-1.0,-0.12,-0.18,0.0,-22.21,6.15,-56.26,1809375.0,0.15,-0.06,0.99,0.06,0.0,0.06,14.85,181.85,85.07,111286,1603231815.1809132,body_FLU,-0.017104520653894128,-0.015446587795091437,0.7060171945152903,0.7078195810709448,-0.000819771783426404,0.005085044540464878,0.00041472644079476595,-0.08738197262585164,-0.48039934208616614,9.817178422808647,4941,1603231814.5458105,rc,0.0,0.0,0.0,0.0,0.0,-10000.0
,,221015.292102,3.2108798027038574,139677,1603884861.8035161,/world,vicon/test_obj/test_obj,-0.5149931877895731,-0.08711894788472926,1.3851155564083548,-0.0035035941037390612,0.002829530611190559,0.02611073783250605,0.999648912346089,1809351.0,0.01,0.11,-0.99,-0.12,-0.12,-0.12,-23.41,6.6,-54.16,1809476.0,0.15,-0.06,1.01,-0.12,-0.06,0.06,13.65,181.1,86.72,111292,1603231815.2807674,body_FLU,-0.017096401581046635,-0.01541634030029515,0.706016171460864,0.7078214571065706,0.0010326489573344588,0.0049662101082503796,0.004916899837553501,-0.048134517431259155,-0.5745801707133651,9.850621852755546,4941,1603231814.5458105,rc,0.0,0.0,0.0,0.0,0.0,-10000.0
,,221015.391672,3.3104805946350098,139687,1603884861.9033618,/world,vicon/test_obj/test_obj,-0.5149852101164124,-0.0871123404777456,1.3851111297070668,-0.0035430316000210176,0.0028230671578812613,0.026095185179981193,0.9996491977335479,1809451.0,0.02,0.1,-1.0,-0.06,-0.06,0.06,-22.06,5.7,-55.06,1809576.0,0.14,-0.06,1.0,0.0,-0.06,-0.06,13.8,181.25,83.72,111300,1603231815.3805926,body_FLU,-0.017093941300208387,-0.015364984899961642,0.70600643765479,0.707832342013165,-0.0023777836468070745,0.006424784194678068,7.36099318601191e-05,-0.07060476919356734,-0.45459789332002404,9.88912315750122,4943,1603231815.3667436,rc,0.0,0.0,0.0,0.0,0.0,-10000.0
,,221015.492211,3.4109554290771484,139697,1603884862.3480844,/world,vicon/test_obj/test_obj,-0.5149918493255079,-0.0871143240851677,1.3851133500380963,-0.0034437782469721066,0.002783959313738082,0.02610840114239597,0.9996493091838321,1809551.0,0.01,0.1,-0.99,0.0,-0.06,0.0,-22.51,5.7,-56.11,1809675.0,0.15,-0.06,1.0,-0.06,-0.12,0.06,13.35,181.55,85.52,111306,1603231815.4804525,body_FLU,-0.017072410931399586,-0.015317771911529285,0.7060098138631278,0.7078305174104939,0.0011611878871917725,0.006340251304209232,-0.00024543440667912364,0.04979039016366005,-0.4421174353659153,9.89460748744011,4943,1603231815.3667436,rc,0.0,0.0,0.0,0.0,0.0,-10000.0
,,221015.591856,3.51069712638855,139707,1603884862.103131,/world,vicon/test_obj/test_obj,-0.5149787537943187,-0.08710934465768502,1.3851023865111518,-0.003452482638584846,0.002779280894561498,0.026085509569911652,0.9996498897873282,1809650.0,0.0,0.11,-1.0,0.06,0.12,0.06,-23.56,6.75,-54.31,1809776.0,0.15,-0.06,0.99,-0.12,-0.06,0.06,14.1,183.35,85.07,111313,1603231815.5802772,body_FLU,-0.0170332788770412,-0.01528116664019289,0.7060214797382259,0.7078206153433633,0.0022841370664536953,0.001511413138359785,0.0012436227407306433,0.08817902020365,-0.5108030742779375,9.878236283540726,4944,1603231815.5442429,rc,0.0,0.0,0.0,0.0,0.0,-10000.0
,,221015.692585,3.611337184906006,139717,1603884862.2032607,/world,vicon/test_obj/test_obj,-0.5149908433228064,-0.08711138562704732,1.3851193724866804,-0.003477606642900789,0.002794418329408726,0.026106965722818266,0.9996492003793056,1809751.0,0.01,0.11,-0.99,0.0,-0.12,0.0,-22.21,5.4,-54.91,1809876.0,0.15,-0.06,0.99,0.06,0.0,0.06,13.95,181.7,85.97,111321,1603231815.691249,body_FLU,-0.01703460978366665,-0.015285975511388236,0.7060004024249782,0.7078415025964161,-0.001496900338679552,0.004973548464477062,-0.002910059876739979,0.033873271535150705,-0.3082323552891612,9.87552800130844,4944,1603231815.5442429,rc,0.0,0.0,0.0,0.0,0.0,-10000.0
,,221015.792216,3.7109553813934326,139727,1603884862.3034954,/world,vicon/test_obj/test_obj,-0.5149798500372841,-0.08710833756768833,1.3851079773880712,-0.003537391053177297,0.0028261991765438773,0.026086269091058968,0.9996494415682231,1809851.0,0.02,0.11,-0.99,0.0,0.0,0.0,-21.46,5.7,-54.31,1809975.0,0.15,-0.07,0.99,-0.06,-0.06,0.06,14.7,182.15,85.22,111329,1603231815.7827077,body_FLU,-0.017035055551607888,-0.015277844179008895,0.7059858178498445,0.7078562137570608,-0.0024106965865939856,0.003710720222443342,0.0032974884379655123,-0.09595783762168139,-0.4099607826881111,9.969820153713226,4944,1603231815.5442429,rc,0.0,0.0,0.0,0.0,0.0,-10000.0
,,221015.891622,3.810361862182617,139737,1603884862.4031646,/world,vicon/test_obj/test_obj,-0.5149889231823277,-0.0871135300280283,1.38512025402098,-0.0034051536045664526,0.0027754344973207547,0.02611403290332291,0.9996493181000048,1809951.0,0.01,0.11,-1.0,-0.06,-0.06,0.0,-23.56,5.7,-54.01,1810076.0,0.14,-0.06,1.0,-0.06,-0.24,-0.06,12.15,181.7,85.22,111335,1603231815.8825643,body_FLU,-0.017035503985850152,-0.01527724166798912,0.7059753230032343,0.707866682929381,0.004091497510671616,0.003959622234106064,-0.00042435055365785956,0.07620268662739545,-0.3891557232365012,9.728825680553912,4944,1603231815.5442429,rc,0.0,0.0,0.0,0.0,0.0,-10000.0
,,221015.992701,3.91144061088562,139747,1603884862.5035183,/world,vicon/test_obj/test_obj,-0.5149804217485651,-0.08710339612310065,1.3851119869003348,-0.003540649175346028,0.002775065291758839,0.026106935199731417,0.9996490337866188,1810051.0,0.02,0.11,-1.01,0.0,0.0,-0.12,-23.11,6.0,-54.61,1810176.0,0.15,-0.06,0.99,-0.06,-0.18,-0.06,14.1,180.5,85.52,111341,1603231815.982413,body_FLU,-0.017018494310791662,-0.015291121851202419,0.7059645233306431,0.7078775630308275,-0.0019097281619906425,0.009845685213804245,0.0005627837963402271,-0.006175142539199442,-0.5295140856429934,9.809669307231903,4944,1603231815.5442429,rc,0.0,0.0,0.0,0.0,0.0,-10000.0
,,221016.09187,4.01067328453064,139757,1603884862.6034937,/world,vicon/test_obj/test_obj,-0.5149932853030146,-0.0871134821123919,1.3851231397431054,-0.0034620318008534196,0.0027646931472198153,0.026137585042838227,0.9996485369647374,1810151.0,0.02,0.12,-0.99,0.0,-0.06,-0.12,-21.91,6.15,-55.51,1810275.0,0.14,-0.06,1.0,-0.06,0.0,-0.06,13.8,182.3,85.82,111348,1603231816.7950823,body_FLU,-0.016967191974533953,-0.015282852582600743,0.7059473460348982,0.7078961035630311,0.001971056219190359,0.008238928392529488,-0.0028547109104692936,-0.03489195803599432,-0.5412320359647275,9.936692183732987,4945,1603231816.4619482,rc,0.0,0.0,0.0,0.0,0.0,-10000.0
,,221016.191866,4.110687017440796,139767,1603884862.703124,/world,vicon/test_obj/test_obj,-0.5149855837471213,-0.08711048705171183,1.3851044452170829,-0.0034570880659794065,0.0027543697336280923,0.02610041502833946,0.9996495537561265,1810251.0,0.01,0.11,-0.99,-0.06,0.0,0.0,-22.81,5.7,-55.66,1810376.0,0.15,-0.06,0.99,0.0,0.0,0.0,12.6,182.15,84.92,111357,1603231816.17931,body_FLU,-0.016888306049635416,-0.015296855821427749,0.7059692689440129,0.7078758242992963,-0.0014540324918925762,0.0017717413138598204,-0.002518719295039773,-0.045875802163034676,-0.5338746624737978,9.875549031972886,4946,1603231816.1460445,rc,0.0,0.0,0.0,0.0,0.0,-10000.0
,,221016.292111,4.210856676101685,139777,1603884862.803419,/world,vicon/test_obj/test_obj,-0.5149860715665534,-0.08711655818368305,1.3851093994229056,-0.0034915168619989337,0.0027484294061022227,0.026150350657746915,0.9996481454023105,1810351.0,0.01,0.12,-1.01,-0.12,-0.06,-0.06,-22.06,5.7,-55.36,1810475.0,0.15,-0.06,0.99,-0.06,-0.06,0.06,15.0,180.35,85.22,111365,1603231816.2819417,body_FLU,-0.01683129149394913,-0.01526263020431887,0.7059706787681852,0.707876514983708,0.006387051194906235,0.0015770297031849623,0.0028101883362978697,-0.09564872154034675,-0.5288269013799727,9.858055024266243,4946,1603231816.1460445,rc,0.0,0.0,0.0,0.0,0.0,-10000.0
,,221016.39196,4.310703992843628,139787,1603884862.9034154,/world,vicon/test_obj/test_obj,-0.5149861037912588,-0.0871086744248869,1.3851083435403257,-0.003517480018363352,0.0027720345093284354,0.026117082944379196,0.9996488589187085,1810451.0,0.01,0.11,-1.0,-0.06,-0.06,0.0,-22.51,7.05,-55.06,1810576.0,0.14,-0.06,0.99,-0.06,-0.06,-0.12,15.3,182.45,87.02,111373,1603231816.37067,body_FLU,-0.016811383300567674,-0.015201682529404995,0.7059808897156348,0.7078681159623714,0.00043594196904450655,0.006884935311973095,0.004599392414093018,-0.08076541889458895,-0.39417431158572436,9.860214172482491,4947,1603231816.3845596,rc,0.0,0.0,0.0,0.0,0.0,-10000.0
,,221016.491848,4.410644054412842,139797,1603884863.3422475,/world,vicon/test_obj/test_obj,-0.5149912229195713,-0.087106522584073,1.385115541325909,-0.0034973647550511663,0.0028498038984591757,0.0261019785502696,0.9996491053230987,1810551.0,0.01,0.12,-1.01,-0.06,-0.06,0.0,-21.91,7.65,-55.21,1810676.0,0.14,-0.06,1.0,-0.12,-0.12,-0.06,14.1,182.6,86.87,111380,1603231816.481622,body_FLU,-0.016833947643285926,-0.015216967983565734,0.7059971304747474,0.7078510534381881,0.0010778889991343021,0.005075682420283556,0.0034670415334403515,-0.0013458256060257553,-0.3639497416689992,9.900277588248253,4947,1603231816.3845596,rc,0.0,0.0,0.0,0.0,0.0,-10000.0
,,221016.591809,4.51065468788147,139807,1603884863.1032174,/world,vicon/test_obj/test_obj,-0.51498505127888,-0.08711100136003828,1.3851087476288324,-0.0034854193374716427,0.0028499622917441242,0.026102437224607748,0.9996491346156976,1810651.0,0.02,0.11,-1.0,-0.06,-0.12,-0.06,-22.96,4.8,-54.91,1810775.0,0.15,-0.06,0.99,0.0,-0.06,0.06,14.25,181.4,85.22,111385,1603231816.581439,body_FLU,-0.01686676375829882,-0.015238902385269242,0.7059903227440941,0.7078565902258054,0.001137280953116715,0.003135483246296644,0.004176270682364702,0.129432685774751,-0.48536487912386655,10.000493377804757,4947,1603231816.3845596,rc,0.0,0.0,0.0,0.0,0.0,-10000.0
,,221016.692466,4.61121392250061,139817,1603884863.2032347,/world,vicon/test_obj/test_obj,-0.5149914292100861,-0.08711108477177283,1.385114953582326,-0.003532498190511664,0.002837933586579309,0.026107890699262472,0.9996488611671238,1810750.0,0.01,0.11,-1.0,-0.06,-0.12,-0.18,-23.11,6.75,-55.36,1810876.0,0.14,-0.07,0.99,-0.12,-0.12,0.0,14.25,182.15,85.67,111394,1603231816.6868699,body_FLU,-0.01692127331596015,-0.015266685836612117,0.7059653191972786,0.7078796274110573,0.0024986802600324154,0.005335604306310415,-0.00032235647086054087,-0.09630069039389491,-0.3959692203775048,9.775319221973419,4948,1603231816.6452563,rc,0.0,0.0,0.0,0.0,0.0,-10000.0
,,221016.791713,4.710510730743408,139827,1603884863.303248,/world,vicon/test_obj/test_obj,-0.5149952298854145,-0.08711067478851706,1.3850967858516374,-0.0035237264293110845,0.0028161840734483683,0.02608981543822064,0.999649425543633,1810851.0,0.01,0.11,-1.0,0.0,-0.06,-0.12,-22.66,5.85,-55.51,1810976.0,0.14,-0.07,1.0,-0.06,-0.12,0.0,14.1,181.55,85.52,111400,1603231816.7811506,body_FLU,-0.01698450849969398,-0.015290241860128869,0.7059587661253653,0.7078841398884668,0.0010164796840399504,0.0064767696894705296,-0.001938557717949152,0.0024596293112263082,-0.4589135244078934,9.958614314675332,4948,1603231816.6452563,rc,0.0,0.0,0.0,0.0,0.0,-10000.0
,,221016.892073,4.810832262039185,139837,1603884863.4033077,/world,vicon/test_obj/test_obj,-0.515035227226907,-0.08709608229585586,1.3851887388056283,-0.0037813211958319,0.0034251544025392924,0.026027661369077727,0.9996482035051077,1810951.0,0.01,0.1,-0.99,-0.06,-0.12,0.0,-23.11,5.7,-55.06,1811076.0,0.14,-0.07,0.99,0.0,0.0,-0.06,14.25,182.75,85.22,111406,1603231816.8810086,body_FLU,-0.017014392062688708,-0.015280391314790469,0.7059599948268916,0.707882409590759,-0.0007933407905511558,0.006470697000622749,0.0006022920133545995,-0.0823890519104898,-0.5327947962731123,9.82863662981987,4948,1603231816.6452563,rc,0.0,0.0,0.0,0.0,0.0,-10000.0
,,221016.992038,4.9107935428619385,139847,1603884863.5033422,/world,vicon/test_obj/test_obj,-0.5149849056961601,-0.08711036078183591,1.3851212368482544,-0.0034835362739615875,0.0027841531173720792,0.02611442493954694,0.9996490135425152,1811051.0,0.01,0.11,-1.0,0.06,0.0,0.0,-22.06,5.25,-56.11,1811176.0,0.14,-0.06,0.99,-0.12,-0.24,-0.12,14.1,181.85,86.12,111412,1603231816.9808228,body_FLU,-0.016970566449924986,-0.015245066743670516,0.7059581856912687,0.7078860274576988,0.0008069251198321581,0.0016840538010001183,0.004340588115155697,0.00891989526618272,-0.5026791768819093,9.778490763008595,4948,1603231816.6452563,rc,0.0,0.0,0.0,0.0,0.0,-10000.0
,,221017.0925,5.011241674423218,139857,1603884863.6034045,/world,vicon/test_obj/test_obj,-0.5150404234540239,-0.08709570351452992,1.3851768270599478,-0.003862566256836699,0.0035519288129307607,0.026045265467721186,0.9996469919578287,1811151.0,0.01,0.11,-1.02,-0.12,-0.06,-0.06,-22.06,6.75,-55.06,1811275.0,0.14,-0.06,0.99,0.06,0.0,0.18,13.65,182.15,84.62,111421,1603231817.8346937,body_FLU,-0.016991875342750973,-0.015265575054472071,0.705973337925677,0.7078699630078046,-0.0022589906584471464,0.0006989681860432029,0.002338086487725377,0.022437090128660204,-0.48891329258680344,9.800931650340557,4948,1603231816.6452563,rc,0.0,0.0,0.0,0.0,0.0,-10000.0
,,221017.193022,5.111769914627075,139867,1603884863.7034504,/world,vicon/test_obj/test_obj,-0.514985189548205,-0.08710585282037034,1.385106362198964,-0.0035037661368798705,0.002792318571283936,0.026097109981032835,0.999649372245335,1811251.0,0.01,0.1,-1.0,0.0,0.06,0.06,-22.51,5.7,-55.36,1811376.0,0.15,-0.06,0.99,-0.06,-0.18,-0.06,13.35,180.8,86.12,111428,1603231817.1916425,body_FLU,-0.01702825167312236,-0.015250204711996977,0.705972920552735,0.7078698364441309,-0.0025564890820533037,0.007164549082517624,0.006034183781594038,0.06107532239053398,-0.5327488282062114,9.826337277173996,4949,1603231817.1444747,rc,0.0,0.0,0.0,0.0,0.0,-10000.0
,,221017.292725,5.211462497711182,139877,1603884863.8034463,/world,vicon/test_obj/test_obj,-0.5149882558384766,-0.08710982002130985,1.3851128326722233,-0.003484623209914795,0.0027858609382652062,0.026104272414471365,0.9996492701651057,1811351.0,0.01,0.11,-0.99,-0.06,-0.06,-0.12,-22.51,7.05,-53.71,1811476.0,0.15,-0.06,0.99,0.06,0.06,-0.06,13.95,183.2,87.32,111437,1603231817.2830997,body_FLU,-0.017081781192485154,-0.015264148838002103,0.7059868069716596,0.7078543966759718,-0.0017444222467020154,0.0013294800883159041,-0.00010027684038504958,-0.06586540764151141,-0.490301243416965,9.883517317056656,4949,1603231817.1444747,rc,0.0,0.0,0.0,0.0,0.0,-10000.0
,,221017.392516,5.3112547397613525,139887,1603884863.903425,/world,vicon/test_obj/test_obj,-0.5149730732554144,-0.08710313883085008,1.3851079027674738,-0.0034934517533597746,0.0027884334587539605,0.02608513944413619,0.9996497316229686,1811451.0,0.01,0.1,-1.01,0.06,0.06,-0.06,-22.81,5.25,-55.06,1811576.0,0.15,-0.06,1.0,-0.12,-0.12,0.0,14.7,182.75,85.22,111444,1603231817.3774145,body_FLU,-0.017105441027292334,-0.015265371717385161,0.7059941981699215,0.7078464271747096,0.0031580517534166574,0.007363402284681797,0.00168015924282372,-0.006823460235726089,-0.5167988582924008,9.789500900030136,4950,1603231817.385777,rc,0.0,0.0,0.0,0.0,0.0,-10000.0
,,221017.492358,5.411099433898926,139897,1603884864.322292,/world,vicon/test_obj/test_obj,-0.5149877381154833,-0.08710974105920047,1.385112307427568,-0.003478090712445678,0.0027857506472137522,0.026101864492693607,0.9996493560985935,1811551.0,0.02,0.1,-1.0,-0.06,-0.12,0.0,-23.56,6.3,-55.06,1811676.0,0.15,-0.06,0.99,-0.06,-0.06,0.0,13.95,181.1,83.57,111453,1603231817.4800193,body_FLU,-0.017106470009642785,-0.015260180901995461,0.7059959505210941,0.7078447664639927,-0.002536865882575512,0.0060053421184420586,0.0009373570792376995,0.06803205442149192,-0.400222891330719,9.812754973053933,4950,1603231817.385777,rc,0.0,0.0,0.0,0.0,0.0,-10000.0
,,221017.592589,5.511341571807861,139907,1603884864.1034172,/world,vicon/test_obj/test_obj,-0.514986640006879,-0.08710594319969879,1.3851056561815178,-0.0034666691524212504,0.0027343174112333555,0.02610588037831183,0.9996494329128365,1811651.0,0.02,0.11,-1.0,0.06,0.06,0.0,-22.96,6.15,-54.46,1811776.0,0.15,-0.07,0.99,-0.06,-0.12,0.12,13.95,181.4,87.62,111461,1603231817.5910268,body_FLU,-0.017106168825520573,-0.015264992441388339,0.7059995876893278,0.7078410423084948,-5.320982018020004e-05,0.007495369762182236,-0.0007516676560044289,-0.09448308053333312,-0.4508043411746621,9.83942769742012,4952,1603231817.5466363,rc,0.0,0.0,0.0,0.0,0.0,-10000.0
,,221017.691873,5.610681772232056,139917,1603884864.203281,/world,vicon/test_obj/test_obj,-0.5149972551163868,-0.08711027129097508,1.3851099537158245,-0.0034709620699240476,0.002813288605856775,0.026093270549617197,0.999649528115506,1811751.0,0.01,0.11,-1.0,0.0,0.12,0.0,-21.76,7.05,-55.06,1811876.0,0.15,-0.07,0.99,-0.12,-0.12,0.06,14.1,181.25,85.52,111469,1603231817.6824846,body_FLU,-0.0171073348105173,-0.015322365245749108,0.7060035086264126,0.7078358637609087,-0.00030067749321460724,0.003459755564108491,0.0026641369331628084,0.0553895855024457,-0.48525019628182053,9.819299014806747,4952,1603231817.5466363,rc,0.0,0.0,0.0,0.0,0.0,-10000.0
,,221017.792023,5.710764646530151,139927,1603884864.3034904,/world,vicon/test_obj/test_obj,-0.5149876711055303,-0.087112481561054,1.385110332994964,-0.0035030778238829916,0.0027967990329196375,0.026101227627294325,0.9996492546274806,1811851.0,0.01,0.11,-1.01,-0.12,-0.06,0.0,-22.21,6.6,-55.51,1811976.0,0.14,-0.07,1.0,-0.06,-0.06,0.06,13.8,181.85,85.82,111476,1603231817.7795608,body_FLU,-0.017138253060177057,-0.015361831602155533,0.7059936401423437,0.7078441032391491,0.0015899314312264323,0.003513168543577194,0.004115787334740162,0.009390456383116544,-0.4476749344915152,9.964499395608902,4953,1603231817.7462592,rc,0.0,0.0,0.0,0.0,0.0,-10000.0
,,221017.891893,5.810687065124512,139937,1603884864.4034715,/world,vicon/test_obj/test_obj,-0.514986244356908,-0.08711309083120414,1.3851071103548376,-0.003445202296845043,0.002802136997246196,0.02610193045065155,0.9996494224657622,1811950.0,0.01,0.11,-0.98,-0.06,-0.18,0.06,-23.41,6.6,-54.91,1812076.0,0.15,-0.06,1.0,-0.18,-0.18,0.0,13.95,181.1,85.67,111484,1603231817.882147,body_FLU,-0.017150768696835496,-0.0153945413832649,0.7059815493883645,0.7078551484250932,-0.0026301417965441942,0.0026718757580965757,4.936249752063304e-05,-0.03264577080029994,-0.48426529667526486,9.832244557142257,4953,1603231817.7462592,rc,0.0,0.0,0.0,0.0,0.0,-10000.0
,,221017.991849,5.910653352737427,139947,1603884864.5031188,/world,vicon/test_obj/test_obj,-0.5149892562333082,-0.08710419419329496,1.3851000108703624,-0.003527367872814173,0.0028177081874274164,0.02609096930861123,0.9996493782907072,1812051.0,0.01,0.11,-1.0,-0.06,-0.12,0.0,-22.51,6.3,-54.31,1812176.0,0.15,-0.07,0.99,-0.18,-0.12,0.12,13.8,182.6,85.82,111491,1603231817.979263,body_FLU,-0.017153064686113644,-0.015402649744164451,0.7059743626126339,0.7078620840858888,0.0016204160638153553,0.004926640540361404,-0.0009761390974745154,-0.04552006080653519,-0.32360960471257566,9.951755981326103,4954,1603231817.94595,rc,0.0,0.0,0.0,0.0,0.0,-10000.0
,,221018.091641,6.0103795528411865,139957,1603884864.6032314,/world,vicon/test_obj/test_obj,-0.5149914011220103,-0.0871146797804569,1.385112330606163,-0.003466310114567032,0.002785642765032414,0.026116151657386077,0.9996490241635729,1812151.0,0.02,0.1,-1.01,-0.12,-0.12,0.0,-23.56,6.75,-55.66,1812276.0,0.14,-0.06,1.0,0.06,0.06,-0.06,13.2,182.75,84.62,111499,1603231818.8183122,body_FLU,-0.017182004453560506,-0.015390454408768775,0.7059949850762167,0.707841079397969,0.001423272187821567,0.006211032159626484,-0.000593289383687079,0.005692856644280255,-0.5717239435985685,9.780361907958985,4954,1603231817.94595,rc,0.0,0.0,0.0,0.0,0.0,-10000.0
,,221018.191788,6.1106579303741455,139967,1603884864.7033422,/world,vicon/test_obj/test_obj,-0.5149895231356484,-0.08710952584039251,1.385113788856087,-0.0034762996959697185,0.0028061152076509113,0.026081995413471094,0.9996498239749342,1812251.0,0.02,0.11,-1.01,0.0,0.06,-0.06,-23.11,6.75,-55.36,1812376.0,0.15,-0.06,0.99,-0.06,-0.12,0.06,14.25,181.4,84.92,111507,1603231818.178946,body_FLU,-0.017175627217597484,-0.0154406078484326,0.7060114455141355,0.7078237240033665,0.00033510697539895773,0.005525417625904083,0.0022244779393076897,-0.11201189289428294,-0.41972715307027103,9.748829931735992,4955,1603231818.1456504,rc,0.0,0.0,0.0,0.0,0.0,-10000.0
,,221018.291688,6.210484981536865,139977,1603884864.8033156,/world,vicon/test_obj/test_obj,-0.5149829067814711,-0.08710632716392881,1.3851086257820537,-0.0034953414816870235,0.00282728301907101,0.02611092119374241,0.9996489428059586,1812351.0,0.01,0.11,-1.0,-0.06,-0.12,-0.06,-23.86,6.3,-56.41,1812476.0,0.14,-0.06,0.98,0.0,-0.06,-0.12,14.25,181.7,85.97,111513,1603231818.2815433,body_FLU,-0.01712448493340111,-0.015433196749223742,0.7060091526954154,0.7078274117072375,-0.001323884935118258,0.003114481223747134,0.000719695002771914,-0.03193563901539892,-0.3811894462890923,9.815966822862626,4955,1603231818.1456504,rc,0.0,0.0,0.0,0.0,0.0,-10000.0
,,221018.391988,6.310727596282959,139987,1603884864.9035842,/world,vicon/test_obj/test_obj,-0.5150420492244553,-0.0870843199949586,1.3851790495324803,-0.0037961071498097522,0.0035503860318866123,0.02602406245940863,0.9996478042303902,1812451.0,0.01,0.11,-1.0,0.0,0.0,0.06,-22.66,5.85,-55.21,1812576.0,0.15,-0.06,1.0,-0.12,-0.18,0.0,13.8,180.8,85.07,111521,1603231818.3785925,body_FLU,-0.01708969258696974,-0.015450759952714931,0.7060121980752272,0.7078248318568321,0.0035198740661144257,0.0009242010419256985,0.0032473667524755,-0.12304488615877926,-0.5724956886582077,9.911273120641708,4956,1603231818.3453307,rc,0.0,0.0,0.0,0.0,0.0,-10000.0
,,221018.491643,6.410381317138672,139997,1603884865.350839,/world,vicon/test_obj/test_obj,-0.5149887646160367,-0.08710870157361222,1.385103132695231,-0.0034856473538940227,0.0028541371924048005,0.026107647248031256,0.9996489858538263,1812551.0,0.01,0.12,-0.99,0.06,0.0,-0.06,-22.51,5.7,-55.66,1812676.0,0.14,-0.06,1.0,0.12,0.0,-0.06,12.75,181.25,83.72,111527,1603231818.4812064,body_FLU,-0.017114942499387952,-0.015472563450355348,0.7060048312585337,0.7078310933853688,-0.00273892586119473,0.003357785055413842,0.0015734054613858461,-0.08179501779098064,-0.5359056550785899,9.90849123108387,4956,1603231818.3453307,rc,0.0,0.0,0.0,0.0,0.0,-10000.0
,,221018.591597,6.510331869125366,140007,1603884865.103219,/world,vicon/test_obj/test_obj,-0.5149772928199695,-0.08711148504998387,1.3851057058312723,-0.0034474696583353037,0.0027945518210180684,0.026094400570331383,0.9996496324672708,1812651.0,0.0,0.11,-1.0,-0.06,-0.12,0.06,-22.21,6.6,-54.46,1812776.0,0.15,-0.06,1.0,-0.06,-0.12,-0.06,13.35,181.55,86.42,111533,1603231818.5810554,body_FLU,-0.017111903324602502,-0.015476978277678006,0.7060124541339468,0.7078234670564149,0.004112825728952885,0.0030149815138429403,0.0019345099572092295,0.028377285277470948,-0.45684905069321396,9.73050462859869,4956,1603231818.3453307,rc,0.0,0.0,0.0,0.0,0.0,-10000.0
,,221018.691825,6.610647201538086,140017,1603884865.2033927,/world,vicon/test_obj/test_obj,-0.5149922521951144,-0.08711204922897596,1.3851122850056663,-0.0035168490976008756,0.0028148011675194888,0.026109655199440952,0.9996489356630048,1812751.0,0.01,0.11,-1.0,0.0,0.06,0.0,-22.51,7.05,-55.06,1812876.0,0.14,-0.06,1.0,-0.06,-0.12,0.06,13.05,181.55,86.87,111539,1603231818.6808875,body_FLU,-0.01709878452832558,-0.015501943101527504,0.7060054548043906,0.7078302191303903,0.0006605738308280706,0.004466077778488398,0.006428929977118969,0.007454576418735087,-0.5331005441620946,9.929975223183632,4956,1603231818.3453307,rc,0.0,0.0,0.0,0.0,0.0,-10000.0
,,221018.792213,6.710962295532227,140027,1603884865.3034883,/world,vicon/test_obj/test_obj,-0.5149827006993579,-0.08710347675723597,1.3851029372058117,-0.003537126164680419,0.002856472353284196,0.026087517416843366,0.9996493238827383,1812851.0,0.0,0.11,-0.99,0.12,-0.06,0.0,-22.51,6.3,-55.06,1812976.0,0.15,-0.06,1.01,0.0,-0.06,0.06,14.25,182.75,85.97,111545,1603231818.7807426,body_FLU,-0.017098292524240305,-0.015573910005096316,0.7059892168827238,0.7078448469581643,-0.0008617173880338669,0.006052296608686447,0.001794174313545227,0.04712000694125891,-0.42190324265509843,9.858223269581796,4956,1603231818.3453307,rc,0.0,0.0,0.0,0.0,0.0,-10000.0
,,221018.893226,6.811972379684448,140037,1603884865.4033997,/world,vicon/test_obj/test_obj,-0.5149888491797147,-0.08711516255102583,1.3851071804648984,-0.0034931485710892047,0.002857416102974859,0.0260967095059206,0.9996492359018929,1812951.0,0.01,0.11,-1.0,0.06,0.0,0.0,-22.06,4.95,-55.66,1813076.0,0.14,-0.07,0.99,-0.06,-0.12,0.06,14.1,182.3,86.87,111552,1603231818.8917148,body_FLU,-0.017094460318818755,-0.015562186030720612,0.7059938962691942,0.7078405302206111,-0.0026340291369706392,0.006488617975264788,0.0023722760379314423,-0.03314669128786773,-0.39454665657877924,9.741369303524495,4956,1603231818.3453307,rc,0.0,0.0,0.0,0.0,0.0,-10000.0
,,221018.992062,6.910812139511108,140047,1603884865.5034733,/world,vicon/test_obj/test_obj,-0.5149876924815812,-0.0871085348543568,1.385111866400658,-0.0035717676625197296,0.00287774457805354,0.026096901652347432,0.9996488947555817,1813051.0,0.01,0.1,-1.01,0.0,0.06,0.0,-21.91,7.95,-55.51,1813176.0,0.15,-0.06,0.99,-0.06,-0.06,0.0,14.4,182.3,85.07,111559,1603231818.9804277,body_FLU,-0.01710570196939819,-0.015559236866540645,0.7059779129643331,0.7078562647280798,-0.0016291661886498332,0.0013029534602537751,0.0007744468748569489,-0.013385584343690426,-0.4895253725498915,9.78701460814476,4958,1603231818.9665647,rc,0.0,0.0,0.0,0.0,0.0,-10000.0
,,221019.092619,7.011362552642822,140057,1603884865.6035614,/world,vicon/test_obj/test_obj,-0.5149855232465729,-0.08710950553274735,1.3851074861905204,-0.0034266822256518443,0.00273031427558931,0.026122613327860773,0.9996491446031472,1813151.0,0.01,0.12,-0.99,-0.06,-0.12,0.0,-22.21,6.15,-55.51,1813276.0,0.15,-0.06,1.0,-0.18,-0.18,0.06,13.65,182.15,85.97,111568,1603231819.83048,body_FLU,-0.017121906000708804,-0.015547993559819385,0.705978173747563,0.7078558599200988,0.002285928465425968,-0.0007386528886854649,0.004346802830696106,-0.05843407540116459,-0.4838572433665395,9.887908052444459,4958,1603231818.9665647,rc,0.0,0.0,0.0,0.0,0.0,-10000.0
,,221019.192328,7.111064910888672,140067,1603884865.7032187,/world,vicon/test_obj/test_obj,-0.5149911744305882,-0.0871155653483946,1.385106659779701,-0.003518936659238665,0.002806732542288478,0.02610920054505414,0.9996489628785309,1813251.0,0.01,0.11,-0.99,-0.06,-0.06,0.0,-24.01,7.65,-56.26,1813376.0,0.15,-0.06,0.99,0.0,0.0,-0.12,13.8,181.85,86.12,111574,1603231819.1828887,body_FLU,-0.017120510298218233,-0.01556348242915104,0.7059718094575531,0.7078619006508504,-0.001885583740659058,0.002878923201933503,0.004056619014590979,-0.09615848695579916,-0.4973790478147566,9.78708237361908,4958,1603231818.9665647,rc,0.0,0.0,0.0,0.0,0.0,-10000.0
,,221019.292222,7.2109620571136475,140077,1603884865.8034127,/world,vicon/test_obj/test_obj,-0.5149858699849467,-0.08711243144429445,1.3850996692769717,-0.0034714183667766668,0.0028242924297043307,0.02612206959031191,0.9996487433629441,1813351.0,0.01,0.1,-1.0,0.06,0.0,0.0,-22.81,6.0,-56.71,1813476.0,0.15,-0.06,1.0,-0.06,-0.12,0.0,14.4,182.9,85.07,111580,1603231819.2827287,body_FLU,-0.01709946219870628,-0.015581752358312596,0.7059465166458974,0.7078872318536922,0.001822032267227769,0.004201536998152733,0.0016711738426238298,0.0010541985668241977,-0.4960017583630979,9.822635880231857,4958,1603231818.9665647,rc,0.0,0.0,0.0,0.0,0.0,-10000.0
,,221019.392523,7.31126070022583,140087,1603884865.9034402,/world,vicon/test_obj/test_obj,-0.5149756962631733,-0.08711247865034406,1.3851046050749922,-0.003473960866897447,0.0028672300139582106,0.026102012708871438,0.9996491362075437,1813451.0,0.01,0.12,-1.0,-0.06,-0.06,-0.06,-23.11,6.0,-55.66,1813576.0,0.14,-0.06,1.01,-0.06,-0.06,0.06,14.4,181.25,85.07,111586,1603231819.3825965,body_FLU,-0.017094409248708274,-0.015595094240836304,0.7059347175331466,0.7078988266620122,-0.0014648910146206617,0.007580685429275036,-0.001024039345793426,0.02626980093307793,-0.47926127644255756,9.820995488405227,4958,1603231818.9665647,rc,0.0,0.0,0.0,0.0,0.0,-10000.0
,,221019.492463,7.411202907562256,140097,1603884866.3551993,/world,vicon/test_obj/test_obj,-0.5149828800892824,-0.087108429173091,1.3851023343466564,-0.003497005312805495,0.002807141684499949,0.026127402550510322,0.9996485631187437,1813551.0,0.01,0.11,-1.0,0.0,-0.06,0.0,-22.06,6.3,-54.61,1813676.0,0.14,-0.06,1.0,-0.12,-0.06,0.06,11.85,181.1,86.27,111593,1603231819.4796572,body_FLU,-0.0170713904795777,-0.015564348641233615,0.7059339175538353,0.7079008565650722,0.0056325821205973625,0.003977931570261717,-0.0001446278183721006,-0.03642501041013747,-0.4826254890337586,9.837048895597459,4959,1603231819.4463527,rc,0.0,0.0,0.0,0.0,0.0,-10000.0
,,221019.592338,7.511077642440796,140107,1603884866.1033306,/world,vicon/test_obj/test_obj,-0.5149904471972145,-0.08710589288459986,1.3851097072685459,-0.0035212356595589627,0.002851543791784031,0.026097227193046923,0.9996491406139796,1813651.0,0.02,0.1,-1.0,-0.12,-0.06,-0.12,-21.46,6.3,-54.61,1813776.0,0.15,-0.06,1.0,-0.06,-0.12,0.0,13.65,180.35,85.22,111602,1603231819.5794861,body_FLU,-0.017095469316783317,-0.015519234444417536,0.7059460703360818,0.7078891467370735,0.0016254349611699581,0.0055948281660676,-0.00045404728734865785,-0.01447808811161667,-0.4953518524132669,9.761051668703557,4960,1603231819.546194,rc,0.0,0.0,0.0,0.0,0.0,-10000.0
,,221019.691493,7.610231876373291,140117,1603884866.203405,/world,vicon/test_obj/test_obj,-0.5149922701049425,-0.08711154410938263,1.3851090948806173,-0.003534185792161329,0.002781447581389152,0.026105522097139098,0.9996490758241986,1813751.0,0.01,0.12,-1.0,-0.06,-0.12,-0.06,-23.11,5.25,-55.36,1813876.0,0.14,-0.06,0.99,-0.06,-0.12,0.06,14.7,182.15,84.62,111611,1603231819.6793504,body_FLU,-0.017128230776783344,-0.015452890398398308,0.7059403975759525,0.7078954632988534,0.0024960311129689217,0.0038342373445630074,-0.0013161746319383383,-0.04271063239686191,-0.44918596582487225,9.905183574914933,4961,1603231819.6460488,rc,0.0,0.0,0.0,0.0,0.0,-10000.0
,,221019.791985,7.710727214813232,140127,1603884866.303264,/world,vicon/test_obj/test_obj,-0.5149794180042491,-0.08711384178726454,1.3851010136946784,-0.003534833983276076,0.002802187066534986,0.026103342714445425,0.9996490725226963,1813851.0,0.0,0.1,-0.99,0.0,0.0,0.06,-23.41,6.9,-54.91,1813976.0,0.14,-0.06,1.0,-0.12,-0.24,0.0,14.85,182.6,86.12,111619,1603231819.781963,body_FLU,-0.01719556501094434,-0.015384436233127585,0.7059548191476427,0.7078809398394353,-0.0017893780022859573,0.0025740135461091995,0.0036925124004483223,-0.05505578759964556,-0.4246558864451945,9.684947535932064,4961,1603231819.6460488,rc,0.0,0.0,0.0,0.0,0.0,-10000.0
,,221019.891815,7.810620546340942,140137,1603884866.4032764,/world,vicon/test_obj/test_obj,-0.5149921108712102,-0.08711185651532823,1.385097151356431,-0.0035222648242002326,0.002857891892286155,0.02609531452036712,0.9996491687909931,1813951.0,0.01,0.11,-1.0,0.0,-0.06,0.0,-22.81,5.25,-53.71,1814076.0,0.13,-0.07,0.99,-0.12,-0.12,0.0,14.1,179.74,85.82,111624,1603231819.8818052,body_FLU,-0.017250070470030396,-0.015371991371368122,0.7059710242306968,0.7078637226872969,0.00404102448374033,0.0028578382916748524,0.002681893762201071,0.04224504598136991,-0.46415074403956535,9.723653305470943,4961,1603231819.6460488,rc,0.0,0.0,0.0,0.0,0.0,-10000.0
,,221019.99182,7.910617113113403,140147,1603884866.5034626,/world,vicon/test_obj/test_obj,-0.5149842095895291,-0.08711275031295708,1.3851023135107072,-0.0035617173402844294,0.002796900084051291,0.026128909937488745,0.9996483239544727,1814051.0,0.01,0.1,-1.0,-0.06,-0.06,0.0,-22.66,6.6,-54.46,1814176.0,0.14,-0.07,0.99,-0.06,0.0,-0.06,14.85,182.9,85.52,111630,1603231819.9816384,body_FLU,-0.01731264738281678,-0.015401636949287492,0.7059943249240862,0.7078383113359042,-0.0006541451439261436,0.006548715755343437,0.003139127977192402,-0.014499278514180333,-0.2988239078298211,9.753128365874291,4961,1603231819.6460488,rc,0.0,0.0,0.0,0.0,0.0,-10000.0
,,221020.091671,8.010461330413818,140157,1603884866.6034694,/world,vicon/test_obj/test_obj,-0.5149915475978675,-0.08710936388276479,1.385102269688452,-0.0035357996278392316,0.002806469041511662,0.026131068695279563,0.9996483327157373,1814151.0,0.01,0.1,-1.0,-0.06,-0.06,-0.06,-23.41,5.85,-54.16,1814276.0,0.14,-0.06,1.0,-0.06,-0.06,0.0,15.0,181.7,84.62,111635,1603231820.8146374,body_FLU,-0.017314719819764374,-0.015406033115108773,0.7060026286032887,0.7078298828295301,0.005796714220196009,0.0032131709158420563,0.005833897739648819,-0.07052931803371758,-0.4372454044595361,9.928234351515771,4961,1603231819.6460488,rc,0.0,0.0,0.0,0.0,0.0,-10000.0
,,221020.191606,8.110349178314209,140167,1603884866.7034748,/world,vicon/test_obj/test_obj,-0.5149814016217479,-0.08711371627523988,1.385106380376965,-0.0034350617072703956,0.0027658800266394078,0.026093540507885777,0.9996497773733103,1814251.0,0.02,0.1,-1.0,0.0,0.0,0.0,-22.06,6.75,-54.31,1814376.0,0.14,-0.07,1.0,-0.06,0.0,0.0,13.8,182.6,85.52,111640,1603231820.18129,body_FLU,-0.017290665979337975,-0.01543808523427039,0.7059954101954812,0.7078369721745287,-0.002027577254921198,0.007721131667494774,-6.133923307061195e-05,-0.1567790577393025,-0.5350321522727609,9.720195513725281,4961,1603231819.6460488,rc,0.0,0.0,0.0,0.0,0.0,-10000.0
,,221020.291533,8.210270643234253,140177,1603884866.8033261,/world,vicon/test_obj/test_obj,-0.5149878624368425,-0.0871131716613964,1.3850976342908092,-0.003464257959925732,0.002837292712025923,0.026111474071902296,0.9996490082067034,1814351.0,0.02,0.1,-1.0,0.0,0.06,-0.18,-22.21,6.15,-54.91,1814476.0,0.15,-0.06,0.99,-0.06,-0.06,-0.06,14.85,182.3,85.52,111646,1603231820.281126,body_FLU,-0.017328076511277754,-0.015406527582116044,0.7059925225709642,0.7078396250183846,0.0039505609311163425,0.007660204544663429,-0.0008486078004352748,-0.010787247577216476,-0.45857539075613024,9.878814626812934,4961,1603231819.6460488,rc,0.0,0.0,0.0,0.0,0.0,-10000.0
,,221020.391557,8.310295820236206,140187,1603884866.9032435,/world,vicon/test_obj/test_obj,-0.5149877172583366,-0.08710996777665991,1.3850981265999913,-0.0035134368473856664,0.002878889902050725,0.02608799921870314,0.9996493305410734,1814451.0,0.01,0.11,-1.0,-0.12,-0.06,-0.06,-23.71,6.6,-53.86,1814576.0,0.14,-0.07,1.01,-0.06,-0.06,0.06,13.05,182.6,86.42,111652,1603231820.381002,body_FLU,-0.01736403657462083,-0.015427898681282276,0.7059956002279472,0.7078352086714083,-0.0022569692227989435,0.006312431301921606,-0.0012951786629855633,0.023224507779814302,-0.4699797066897154,9.889992424964905,4961,1603231819.6460488,rc,0.0,0.0,0.0,0.0,0.0,-10000.0
,,221020.491623,8.410359621047974,140197,1603884867.317588,/world,vicon/test_obj/test_obj,-0.5149871070632134,-0.08711274347703747,1.385102635204241,-0.003587357319820838,0.0028296780898183827,0.02610767681664592,0.9996486947926283,1814551.0,0.01,0.11,-1.0,0.0,0.0,0.0,-21.76,4.95,-54.01,1814676.0,0.15,-0.06,1.0,-0.06,-0.06,0.0,14.7,181.7,85.97,111658,1603231820.4808326,body_FLU,-0.01739948458368981,-0.015362262296281346,0.7059967115666823,0.7078346573108674,0.0049147289246320724,0.006528410129249096,-0.0038107996806502342,-0.1809195038974285,-0.537358158364892,9.717203901708126,4961,1603231819.6460488,rc,0.0,0.0,0.0,0.0,0.0,-10000.0
,,221020.59163,8.510375499725342,140207,1603884867.1034877,/world,vicon/test_obj/test_obj,-0.5149798239675488,-0.08711614215596866,1.3850993756934877,-0.003503254227755925,0.002820393845237888,0.02610133161728708,0.9996491850025078,1814651.0,0.01,0.1,-1.0,0.06,0.12,0.12,-22.66,6.6,-53.86,1814776.0,0.15,-0.06,0.99,-0.06,-0.18,0.06,13.8,181.25,85.52,111664,1603231820.5806897,body_FLU,-0.017451628889635168,-0.01532418003753169,0.7059806240306834,0.7078502445069315,-0.0010556296911090612,0.0031415997073054314,0.0003556661249604076,0.026352380977012216,-0.42502980143576863,9.871175822138786,4961,1603231819.6460488,rc,0.0,0.0,0.0,0.0,0.0,-10000.0
,,221020.69185,8.610654592514038,140217,1603884867.2035544,/world,vicon/test_obj/test_obj,-0.5149956842766852,-0.08711926842011283,1.3851033846745944,-0.0034813541428837685,0.0027997092261402724,0.02611692348114655,0.9996489124234872,1814751.0,0.0,0.11,-0.99,0.06,0.12,0.0,-22.51,5.7,-53.26,1814876.0,0.15,-0.06,0.99,-0.06,-0.06,0.06,13.8,181.85,85.07,111674,1603231820.6832664,body_FLU,-0.017449611737529958,-0.015274390276500368,0.7059827637411282,0.707849236315424,0.005202926229685545,-0.00109290168620646,0.0032890494912862778,0.0820550075545907,-0.43156876808032396,9.806512370824814,4961,1603231819.6460488,rc,0.0,0.0,0.0,0.0,0.0,-10000.0
,,221020.791962,8.710738897323608,140227,1603884867.3034096,/world,vicon/test_obj/test_obj,-0.5149864772590163,-0.08711500812305857,1.385102919701913,-0.00349797505378376,0.0027988591530836706,0.026106489514884593,0.999649129326472,1814851.0,0.02,0.1,-1.0,-0.06,-0.06,0.0,-22.21,5.85,-55.81,1814976.0,0.15,-0.07,0.99,-0.06,-0.06,0.06,14.7,181.7,86.72,111680,1603231820.780336,body_FLU,-0.01748083560420531,-0.015253110073638916,0.7059879685405852,0.7078437336697965,-0.002928693313151598,0.000492774648591876,0.003860408440232277,0.014101827252656221,-0.6189627591893077,9.854882899045945,4962,1603231820.744268,rc,0.0,0.0,0.0,0.0,0.0,-10000.0
,,221020.892514,8.811256885528564,140237,1603884867.4035378,/world,vicon/test_obj/test_obj,-0.5149840297657599,-0.08711441814781264,1.385096018721623,-0.0035162894558688922,0.002833860931259374,0.02609158217023014,0.9996493556645445,1814951.0,0.01,0.11,-0.98,0.0,0.0,0.0,-22.21,6.15,-54.46,1815076.0,0.13,-0.06,1.0,0.06,0.0,-0.06,15.3,181.4,84.92,111689,1603231820.882963,body_FLU,-0.01752959473689973,-0.015200815404316729,0.7059584865808332,0.7078730562352995,0.0013528536073863506,0.0016120879445225,-0.0015025027096271515,-0.04326882128231228,-0.5136944985464216,9.767314133226872,4962,1603231820.744268,rc,0.0,0.0,0.0,0.0,0.0,-10000.0
