name,date,time,time_since_start,vicon_sequence,vicon_time_stamp,vicon_frame_id,vicon_child_frame_id,vicon_translation_x,vicon_translation_y,vicon_translation_z,vicon_rotation_x,vicon_rotation_y,vicon_rotation_z,vicon_rotation_w,int_imu_time_stamp,int_imu_acc_x,int_imu_acc_y,int_imu_acc_z,int_imu_gyro_x,int_imu_gyro_y,int_imu_gyro_z,int_imu_mag_x,int_imu_mag_y,int_imu_mag_z,ext_imu_time_stamp,ext_imu_acc_x,ext_imu_acc_y,ext_imu_acc_z,ext_imu_gyro_x,ext_imu_gyro_y,ext_imu_gyro_z,ext_imu_mag_x,ext_imu_mag_y,ext_imu_mag_z,dji_imu_sequence,dji_imu_time_stamp,dji_imu_frame_id,dji_imu_orientation_x,dji_imu_orientation_y,dji_imu_orientation_z,dji_imu_orientation_w,dji_imu_ang_vel_x,dji_imu_ang_vel_y,dji_imu_ang_vel_z,dji_imu_lin_acc_x,dji_imu_lin_acc_y,dji_imu_lin_acc_z,rc_sequence,rc_time_stamp,rc_frame_id,rc_roll,rc_pitch,rc_yaw,rc_throttle,rc_mode,rc_landing_gear
/root/Desktop/devel/VibrationTest/28102020/T000_1.csv,20201020,220152.552254,0.00027489662170410156,92096,1603884359.8008502,/world,vicon/test_obj/test_obj,-0.09030660540686054,-0.0719717821869541,1.3868110543051992,-0.005445361850293861,0.00044472603726807746,-0.00016964434649088475,0.999985060625341,1287734.0,0.01,0.11,-0.99,-0.06,-0.18,0.12,-24.01,6.15,-56.26,1287928.0,0.14,-0.06,0.99,0.12,0.0,0.0,13.65,180.65,87.62,76660,1603231312.5399835,body_FLU,-0.017362902687365487,-0.016391236068278164,0.6966717291409612,0.7169925793243374,0.0014961720444262028,0.006761480588465929,-0.0027265972457826138,-0.038112027511931955,-0.5785767271891237,9.861341649770736,3386,1603231312.3041747,rc,0.0,0.0,0.0,0.0,0.0,-10000.0
,,220152.56338,0.011383533477783203,92097,1603884359.9010544,/world,vicon/test_obj/test_obj,-0.0903107870321543,-0.07197219951181019,1.3868077296505632,-0.005390403965559043,0.0004325696316199767,-0.00019139269838149519,0.9999853597915506,1293634.0,0.02,0.12,-0.99,0.0,-0.06,-0.06,-22.21,6.15,-55.81,1288528.0,0.14,-0.06,1.0,0.0,-0.06,0.0,13.65,181.1,84.92,76661,1603231312.5593219,body_FLU,-0.01736488574521204,-0.016398449589969402,0.6966852643827124,0.7169792144728403,-0.00037216092459857464,0.0021649522241204977,0.005758966784924269,0.00515058680344373,-0.4421091837510467,9.852501760482788,3386,1603231312.3041747,rc,0.0,0.0,0.0,0.0,0.0,-10000.0
,,220152.672528,0.12053465843200684,92108,1603884359.1999815,/world,vicon/test_obj/test_obj,-0.09035551799365771,-0.07192991139165486,1.386790369514961,-0.005532597458035125,0.000493825916571289,2.584137930940159e-05,0.999984572797778,1299534.0,0.01,0.11,-1.0,0.12,0.06,0.06,-24.91,6.75,-54.01,1306728.0,0.13,-0.07,1.0,-0.06,-0.12,-0.06,14.4,180.5,84.77,76667,1603231312.6702902,body_FLU,-0.01735505980369223,-0.016393419078140695,0.6967000662994052,0.7169651841815913,-0.0008609299547970295,0.009925841353833675,0.003930591978132725,-0.07730162099562586,-0.5400501564368606,9.889236489415168,3386,1603231312.3041747,rc,0.0,0.0,0.0,0.0,0.0,-10000.0
,,220152.763781,0.2118375301361084,92117,1603884359.290145,/world,vicon/test_obj/test_obj,-0.09030705547570579,-0.07197778120165933,1.386806668852078,-0.005425514961067297,0.00044120021892906166,-0.00016721298665029187,0.9999851704748381,1305434.0,0.02,0.12,-0.99,0.06,0.0,0.0,-21.46,7.5,-55.66,1306828.0,0.13,-0.06,1.01,0.0,0.06,-0.12,13.65,179.59,86.72,76672,1603231312.75899,body_FLU,-0.01730806405479985,-0.01643325690022636,0.6966947626836248,0.7169705619030211,-0.002434970811009407,0.0002734052832238376,0.0019917236641049385,0.04287510789278895,-0.42918481812626125,9.761330325007439,3386,1603231312.3041747,rc,0.0,0.0,0.0,0.0,0.0,-10000.0
,,220152.863319,0.3113243579864502,92127,1603884359.3898885,/world,vicon/test_obj/test_obj,-0.09029559558419278,-0.07197066002233285,1.3868035960079914,-0.005444301054386332,0.0004442966853759906,-0.00015571837783085507,0.9999850688576661,1306834.0,0.02,0.12,-0.99,-0.12,-0.06,-0.06,-22.51,7.8,-56.41,1306929.0,0.14,-0.07,0.99,0.0,0.0,0.06,13.65,181.1,85.67,76678,1603231312.8588579,body_FLU,-0.017287816239338828,-0.01646700568161931,0.6967030821958736,0.716962191745371,0.005332153290510178,0.0028678386006504297,0.0038226591423153877,0.016503959968686106,-0.5179932978004217,9.735179277956487,3386,1603231312.3041747,rc,0.0,0.0,0.0,0.0,0.0,-10000.0
,,220152.96451,0.4125204086303711,92137,1603884359.4899323,/world,vicon/test_obj/test_obj,-0.09031069354949935,-0.07196894486068114,1.3868046308067827,-0.005308626236341651,0.0004119756594232814,-0.00017358916696855742,0.9999858092144808,1306934.0,0.02,0.11,-0.99,0.06,-0.12,-0.06,-21.16,5.85,-55.51,1307029.0,0.13,-0.06,0.99,-0.06,-0.06,-0.06,13.65,180.65,85.97,76684,1603231312.9586875,body_FLU,-0.017335438860889296,-0.016547579187813646,0.6966909977161249,0.7169709295946621,-0.0005878658266738057,0.0005123259616084397,-0.0008910043397918344,-0.08806722177565098,-0.41552332041040063,9.76497271925211,3386,1603231312.3041747,rc,0.0,0.0,0.0,0.0,0.0,-10000.0
,,220153.064101,0.5121219158172607,92147,1603884359.589997,/world,vicon/test_obj/test_obj,-0.0903040246610717,-0.07196824111106277,1.3868031607514937,-0.005391188007112903,0.0004162711249190283,-0.0001675334433178713,0.9999853667643182,1307034.0,0.02,0.11,-1.0,-0.12,-0.06,-0.06,-22.21,7.65,-56.56,1307128.0,0.15,-0.05,0.99,-0.12,-0.06,0.0,15.3,182.75,84.92,76693,1603231313.6128802,body_FLU,-0.01735616447427815,-0.016618442621507922,0.6966664088740712,0.7169926817381632,0.004923342727124691,0.0043737757951021194,0.0008576537948101759,0.03213027306832373,-0.4653765469864011,9.940671652793885,3386,1603231312.3041747,rc,0.0,0.0,0.0,0.0,0.0,-10000.0
,,220153.163812,0.611884355545044,92157,1603884359.6901858,/world,vicon/test_obj/test_obj,-0.09029811037650741,-0.07197047949226236,1.3868013871220652,-0.005410046011874849,0.0003754878276725243,-0.0001792688338338181,0.9999852790285094,1307135.0,0.02,0.11,-1.0,0.06,0.06,-0.06,-22.51,7.05,-56.11,1307228.0,0.14,-0.06,1.01,-0.18,-0.06,0.06,13.95,181.7,84.92,76700,1603231313.1584046,body_FLU,-0.017374480964543824,-0.0166384991307851,0.6966522632914247,0.7170055172792068,-0.0007773656980134547,0.004958305973559618,0.0025516916066408157,-0.06188178995344788,-0.6085550265647471,9.82095342707634,3387,1603231313.1028616,rc,0.0,0.0,0.0,0.0,0.0,-10000.0
,,220153.26381,0.7118990421295166,92167,1603884359.7899306,/world,vicon/test_obj/test_obj,-0.09030827503605461,-0.07196900954187418,1.386799930811296,-0.005445877919585582,0.00043574623215207506,-0.00018896135946166328,0.9999850583046282,1307234.0,0.02,0.11,-0.99,-0.06,0.0,-0.06,-22.96,6.15,-55.21,1307329.0,0.14,-0.06,1.01,0.06,-0.06,0.06,15.3,181.1,86.27,76709,1603231313.2609746,body_FLU,-0.017388493496013888,-0.016672366911929203,0.6966644413573947,0.716992558276362,-0.002155925380066037,0.006578792352229357,0.0006441153236664832,0.1181530842371285,-0.4630911782719195,9.780825166761876,3387,1603231313.1028616,rc,0.0,0.0,0.0,0.0,0.0,-10000.0
,,220153.364329,0.8123400211334229,92177,1603884359.8900473,/world,vicon/test_obj/test_obj,-0.0903537898368371,-0.07192700740146257,1.3867920888431564,-0.005494201323609616,0.0004466029811520436,3.037280271621953e-05,0.9999848065721227,1307334.0,0.01,0.12,-0.99,-0.06,-0.06,0.0,-22.96,5.1,-56.86,1307428.0,0.13,-0.05,1.0,-0.06,-0.18,0.06,14.4,180.8,84.77,76716,1603231313.358049,body_FLU,-0.017388134906636946,-0.01658618211085592,0.6966410780238778,0.7170172659965612,-0.00042987969936802983,0.007402408868074417,0.0008635975536890328,-0.013153886483050882,-0.571495016053319,10.011758803725243,3388,1603231313.302602,rc,0.0,0.0,0.0,0.0,0.0,-10000.0
,,220153.463707,0.9117774963378906,92187,1603884359.9900057,/world,vicon/test_obj/test_obj,-0.09030344405433885,-0.07197093446470043,1.386806792836271,-0.005380299880570582,0.0004444095767668501,-0.000186897195683764,0.9999854098649448,1307434.0,0.02,0.11,-0.99,0.0,0.0,-0.06,-23.11,7.8,-55.06,1307528.0,0.14,-0.06,1.01,-0.06,-0.12,-0.06,14.25,181.1,85.67,76724,1603231313.4579124,body_FLU,-0.017412443783622132,-0.016543485497532255,0.6966215669202478,0.7170366185841933,-0.0006386269815266132,0.008547941222786903,-0.0026057185605168343,-0.031051917533855885,-0.3405534195676446,9.930824628353118,3388,1603231313.302602,rc,0.0,0.0,0.0,0.0,0.0,-10000.0
,,220153.563633,1.0116400718688965,92197,1603884360.9017968,/world,vicon/test_obj/test_obj,-0.0903043305432401,-0.07197205791955273,1.3868032416579146,-0.005425481529902013,0.00046536484133704974,-0.00017450089170370907,0.9999851584574503,1307534.0,0.02,0.12,-0.99,-0.06,-0.12,-0.12,-23.11,7.05,-56.41,1307629.0,0.14,-0.05,0.99,-0.06,-0.12,0.06,15.0,181.4,84.92,76732,1603231313.5604913,body_FLU,-0.01742396442883835,-0.016516990807885816,0.6966384402475188,0.7170205562239754,3.9947073673829436e-05,0.007438490632921457,0.0018356437794864178,0.009095680220983922,-0.4084776096828282,9.849118160247803,3388,1603231313.302602,rc,0.0,0.0,0.0,0.0,0.0,-10000.0
,,220153.663883,1.1119334697723389,92207,1603884360.1898665,/world,vicon/test_obj/test_obj,-0.09030135172138962,-0.07196724153410804,1.3868090839205025,-0.005426263476226396,0.00044324583062569354,-0.00019052956754570094,0.999985161338059,1307634.0,0.02,0.11,-0.98,0.0,0.06,0.0,-22.21,7.65,-54.46,1307728.0,0.14,-0.06,1.0,-0.06,-0.06,0.0,13.8,180.5,85.07,76738,1603231313.6603527,body_FLU,-0.017451141358842927,-0.01653216179016992,0.6966456111656435,0.7170125785057501,-0.00045708243851549923,0.008844953961670399,0.0010407216614112258,0.051018493339419366,-0.5300955689102411,9.921314094543456,3388,1603231313.302602,rc,0.0,0.0,0.0,0.0,0.0,-10000.0
,,220153.763766,1.2118360996246338,92217,1603884360.2900534,/world,vicon/test_obj/test_obj,-0.09030814834650137,-0.07196917607479734,1.3868045863173581,-0.00535613348304216,0.0004201243310113065,-0.00019325387600353872,0.9999855488868815,1307734.0,0.01,0.11,-0.99,0.0,-0.06,0.06,-22.66,7.2,-55.51,1307828.0,0.14,-0.06,0.99,-0.06,-0.12,0.0,14.1,181.55,86.42,76746,1603231313.75742,body_FLU,-0.017506998119214856,-0.01653542852987392,0.6966279315287194,0.7170283185720108,0.002505989046767354,0.005471116863191128,0.0017506466247141361,0.10039516177307814,-0.637313839495182,9.800064135432244,3389,1603231313.7047122,rc,0.0,0.0,0.0,0.0,0.0,-10000.0
,,220153.863743,1.311805009841919,92227,1603884360.39004,/world,vicon/test_obj/test_obj,-0.09030312229659283,-0.07197277679040548,1.3868086432709474,-0.00541728783217163,0.0004034106579346209,-0.00016088413213505528,0.9999852320752944,1307834.0,0.02,0.12,-0.99,-0.06,-0.12,0.12,-23.71,7.2,-56.26,1307929.0,0.14,-0.06,1.0,-0.06,-0.18,0.06,12.75,179.74,84.77,76753,1603231313.860059,body_FLU,-0.017565303169832007,-0.016510803418159716,0.6966245501922743,0.7170307452016617,-0.003272440517321229,0.004831078462302685,0.0017030651215463877,0.016161700509488584,-0.49371832476183775,9.851798401594163,3389,1603231313.7047122,rc,0.0,0.0,0.0,0.0,0.0,-10000.0
,,220153.963358,1.411369800567627,92237,1603884360.4899337,/world,vicon/test_obj/test_obj,-0.0903097303212171,-0.07197304899428335,1.3867992989209332,-0.005507402496927857,0.0004339545944224314,-0.00021073518002858715,0.9999847177791422,1307934.0,0.01,0.12,-0.99,0.0,-0.06,0.06,-24.61,6.3,-56.41,1308028.0,0.15,-0.07,0.99,-0.12,0.0,0.12,14.25,181.1,85.67,76761,1603231313.9570858,body_FLU,-0.01759039486986026,-0.016475528546929977,0.6966332847480251,0.7170224554005256,-0.0008216457208618522,0.004547933116555214,0.0024137254804372787,-0.014947804898489268,-0.5166944352015853,9.763041403234006,3390,1603231313.904364,rc,0.0,0.0,0.0,0.0,0.0,-10000.0
,,220154.063602,1.5116095542907715,92247,1603884360.5899856,/world,vicon/test_obj/test_obj,-0.09030239891349993,-0.07197064580206745,1.3867989161722254,-0.005325101269648203,0.0003556307913151906,-0.00016186740508451246,0.9999857452094763,1308034.0,0.02,0.12,-1.02,0.0,-0.12,-0.06,-23.11,6.0,-54.61,1308129.0,0.14,-0.06,1.0,-0.06,-0.12,-0.06,12.75,181.25,86.12,76768,1603231314.5971348,body_FLU,-0.017582542948964962,-0.01644365041606913,0.696637301979829,0.717019476747115,0.0006362513522617519,0.0030194162391126156,-0.003001868026331067,0.03042243524361402,-0.39189967727288605,9.90503051841259,3390,1603231313.904364,rc,0.0,0.0,0.0,0.0,0.0,-10000.0
,,220154.163421,1.6114284992218018,92257,1603884360.6900396,/world,vicon/test_obj/test_obj,-0.09030644620723316,-0.07196704195186444,1.3867973076634434,-0.005445697981740517,0.0004238057646777449,-0.00016405884996858487,0.9999850688119595,1308135.0,0.02,0.12,-1.01,-0.06,-0.06,-0.06,-23.71,6.9,-55.51,1308228.0,0.14,-0.06,0.99,0.12,-0.06,0.0,14.25,182.15,85.97,76773,1603231314.159574,body_FLU,-0.01756629308997656,-0.016435025441883307,0.6966218518437882,0.7170350833951801,-0.001817413722164929,0.0022781912703067064,-0.0017914564814418554,-0.053377405484206976,-0.45916154750436544,9.875624976038933,3390,1603231313.904364,rc,0.0,0.0,0.0,0.0,0.0,-10000.0
,,220154.263295,1.7113006114959717,92267,1603884360.7900655,/world,vicon/test_obj/test_obj,-0.09030370581747925,-0.07197295899505642,1.3867996554703135,-0.005403945443122409,0.00043194220450305175,-0.00018920337681729556,0.9999852873926005,1308234.0,0.02,0.11,-1.0,-0.12,-0.12,-0.06,-23.41,6.9,-55.51,1308328.0,0.13,-0.06,1.0,0.0,0.0,0.12,12.9,180.05,85.22,76778,1603231314.259391,body_FLU,-0.01757822614832133,-0.016416798189393858,0.6966276328328118,0.7170295920507329,-0.0010017415042966604,-0.00020375399617478251,-0.0008728769607841969,-0.07502960638795048,-0.3987195274271071,9.852229530215263,3390,1603231313.904364,rc,0.0,0.0,0.0,0.0,0.0,-10000.0
,,220154.36321,1.8112163543701172,92277,1603884360.889895,/world,vicon/test_obj/test_obj,-0.09029321639606341,-0.07197173916375436,1.3868063713105143,-0.00538125708400376,0.00041999819028857205,-0.00016646614385942485,0.9999854188750649,1308334.0,0.02,0.11,-1.0,-0.12,-0.18,0.06,-22.66,6.6,-55.51,1308428.0,0.14,-0.06,1.0,0.0,0.0,0.12,13.65,181.4,85.97,76783,1603231314.359238,body_FLU,-0.017638460569819277,-0.016414275786767674,0.696645630924517,0.7170106841413902,-0.0010481723584234715,0.003567860461771488,0.0015375971561297774,-0.03250242181168869,-0.5773871437199414,9.802037512779236,3390,1603231313.904364,rc,0.0,0.0,0.0,0.0,0.0,-10000.0
,,220154.463299,1.9113059043884277,92287,1603884360.9899442,/world,vicon/test_obj/test_obj,-0.09030844108275858,-0.07197130849941995,1.3868029967863227,-0.005430872258943035,0.00040354807467258533,-0.00016842135262905088,0.9999851570946973,1308435.0,0.01,0.12,-1.0,-0.12,-0.12,-0.06,-24.16,7.05,-56.41,1308528.0,0.14,-0.06,1.01,0.06,0.0,-0.12,14.85,180.5,84.77,76789,1603231314.4591095,body_FLU,-0.017695148832066424,-0.01640121840264885,0.696643302238716,0.7170118487086923,0.00026668363716453314,0.0005928919999860227,0.0011892529437318444,-0.10195233460329473,-0.5165644540116191,9.851811253666877,3390,1603231313.904364,rc,0.0,0.0,0.0,0.0,0.0,-10000.0
,,220154.563056,2.0110652446746826,92297,1603884361.8995311,/world,vicon/test_obj/test_obj,-0.09030487599032871,-0.07197399691497534,1.3867901050624285,-0.005467904233540022,0.0004650670919703843,-0.00016240919806349434,0.9999849295660136,1308535.0,0.02,0.11,-0.99,0.0,0.0,-0.06,-22.81,6.75,-55.06,1308629.0,0.14,-0.06,0.99,0.0,0.0,-0.06,14.7,180.35,84.92,76794,1603231314.5589607,body_FLU,-0.017669518943015695,-0.016363809963272025,0.6966496965972425,0.717007122736433,-0.0014666887000203133,0.00529563520103693,0.0016584231052547693,-0.018434025465510786,-0.486729572083801,9.70677152377367,3390,1603231313.904364,rc,0.0,0.0,0.0,0.0,0.0,-10000.0
,,220154.663411,2.1114184856414795,92307,1603884361.1900332,/world,vicon/test_obj/test_obj,-0.09030117083656379,-0.07197183702697015,1.3868001078560692,-0.005429266189599251,0.0004194363143373568,-0.00016667426939604186,0.9999851595706352,1308635.0,0.02,0.11,-1.0,-0.06,-0.06,0.06,-23.41,6.9,-54.91,1308729.0,0.14,-0.07,1.0,-0.06,-0.06,0.12,14.25,181.4,84.62,76800,1603231314.6587667,body_FLU,-0.017640879642124886,-0.016363618438957322,0.6966289496359463,0.7170279896113919,-0.0006352390628308058,0.007666239980608225,-0.00272928923368454,-0.1583936541415751,-0.4095829609595239,9.878568100690842,3390,1603231313.904364,rc,0.0,0.0,0.0,0.0,0.0,-10000.0
,,220154.763371,2.2114198207855225,92317,1603884361.2900352,/world,vicon/test_obj/test_obj,-0.09030710246839009,-0.0719670431434147,1.3868023704948678,-0.005415051181091,0.00038858555574104264,-0.00016760433641081846,0.9999852489565826,1308734.0,0.02,0.11,-0.99,0.06,-0.12,0.0,-22.81,6.3,-55.06,1308828.0,0.13,-0.06,0.98,0.0,0.0,0.0,15.75,181.7,86.72,76806,1603231314.758721,body_FLU,-0.017580968863237872,-0.016346482419853356,0.6966438976269677,0.7170153289473206,0.0005512782954610884,0.008362281136214733,-0.0019381867023184896,-0.04393044744618237,-0.5387414357140661,9.6978463434577,3390,1603231313.904364,rc,0.0,0.0,0.0,0.0,0.0,-10000.0
,,220154.8631,2.3111073970794678,92327,1603884361.3899577,/world,vicon/test_obj/test_obj,-0.0903011286957971,-0.07196391821669315,1.386801727587783,-0.005381076291379115,0.00041749831448957813,-0.00017207371854980607,0.9999854199455805,1308835.0,0.01,0.11,-1.0,0.0,-0.06,0.06,-22.21,7.95,-54.91,1308928.0,0.14,-0.06,1.0,-0.06,-0.06,0.06,13.95,180.35,43.36,76813,1603231314.8585272,body_FLU,-0.017561200967180293,-0.016347292543105116,0.696645894777007,0.7170138544947675,-0.002176219131797552,0.007260557264089584,-0.0025579375214874744,0.006268278990872204,-0.480606107108295,9.71683820182085,3390,1603231313.904364,rc,0.0,0.0,0.0,0.0,0.0,-10000.0
,,220154.963804,2.411895990371704,92337,1603884361.4900572,/world,vicon/test_obj/test_obj,-0.09030872767866026,-0.07197266808508616,1.386791949077837,-0.005423862898406937,0.00045113691778731136,-0.00018851937216654625,0.999985171213647,1308934.0,0.01,0.1,-1.0,0.0,0.0,0.06,-23.11,7.8,-55.36,1309028.0,0.14,-0.05,0.99,-0.06,-0.06,0.0,13.65,180.35,84.92,76820,1603231314.9583676,body_FLU,-0.017538811579886016,-0.016358018375202833,0.6966657658704253,0.7169948507397913,0.0032150158658623695,0.006749070715159178,0.004031307063996792,-0.11856229678820819,-0.3592743985913694,9.947074321746827,3392,1603231314.9250755,rc,0.0,0.0,0.0,0.0,0.0,-10000.0
,,220155.063281,2.511289119720459,92347,1603884361.5900185,/world,vicon/test_obj/test_obj,-0.09030381961213381,-0.07196901224850451,1.3867984810817995,-0.005393533032367743,0.0003812702283945768,-0.00019443833130112337,0.9999853632069707,1309034.0,0.02,0.1,-1.0,0.06,-0.06,0.06,-21.91,7.2,-54.16,1309129.0,0.13,-0.06,1.0,-0.06,-0.06,0.0,13.8,181.25,85.82,76827,1603231315.582213,body_FLU,-0.01756548928792322,-0.016381593741902276,0.696666528268419,0.7169929186281963,-0.002002617809921503,0.006956997327506542,0.0036773260217159986,0.06475797064136714,-0.40624865134432914,9.916076290726663,3392,1603231314.9250755,rc,0.0,0.0,0.0,0.0,0.0,-10000.0
,,220155.163737,2.611809015274048,92357,1603884361.6901584,/world,vicon/test_obj/test_obj,-0.09030432809279824,-0.07197134522826329,1.3867904557733344,-0.005374870291070267,0.00040750110296776566,-0.00017906808965362223,0.9999854562176514,1309135.0,0.01,0.12,-1.0,-0.06,-0.06,0.0,-22.51,6.0,-55.36,1309229.0,0.14,-0.06,1.0,-0.06,-0.12,-0.06,15.0,180.05,86.72,76835,1603231315.160856,body_FLU,-0.017607591342549238,-0.016334688686392027,0.6966638935113636,0.7169955161297872,0.0035492093302309513,0.0062917363829910755,3.179737541358918e-05,-0.13923960225563498,-0.42955252614989875,9.83223637855053,3392,1603231314.9250755,rc,0.0,0.0,0.0,0.0,0.0,-10000.0
,,220155.26377,2.711860179901123,92367,1603884361.7899349,/world,vicon/test_obj/test_obj,-0.09031256728881593,-0.07196934181286703,1.386795804440425,-0.005423739250460898,0.00044075627534519445,-0.00017095796864389145,0.9999851796700898,1309234.0,0.01,0.11,-0.98,-0.12,-0.12,-0.06,-22.51,7.05,-56.41,1309328.0,0.14,-0.06,1.0,-0.06,-0.12,-0.06,12.9,179.29,85.67,76841,1603231315.2606845,body_FLU,-0.017617290592074297,-0.01632519257007044,0.6966600630847973,0.716999215942689,-0.000768760743085295,0.006054326891899109,-0.0011894373456016183,-0.07788660024572164,-0.42477896694839,9.855850309610368,3392,1603231314.9250755,rc,0.0,0.0,0.0,0.0,0.0,-10000.0
,,220155.363545,2.8115499019622803,92377,1603884361.8899987,/world,vicon/test_obj/test_obj,-0.09030461822449942,-0.0719696883419935,1.3867995890661127,-0.005482363359318439,0.00044991911350367343,-0.0001836890113976507,0.9999848536468614,1309335.0,0.02,0.11,-1.0,0.06,-0.06,-0.12,-24.46,8.25,-54.91,1309428.0,0.14,-0.06,0.99,-0.06,-0.18,0.0,14.7,181.4,85.22,76847,1603231315.3605266,body_FLU,-0.017621945121826355,-0.01629317623606836,0.6966583471790616,0.7170014970444636,0.0028859502635896206,0.005878501571714878,-0.0002866369904950261,0.014804373758845031,-0.3227687067389488,9.862328922629356,3392,1603231314.9250755,rc,0.0,0.0,0.0,0.0,0.0,-10000.0
,,220155.463796,2.911865234375,92387,1603884361.989914,/world,vicon/test_obj/test_obj,-0.0903022563476329,-0.07196617421667259,1.3868043508186823,-0.005410050953071008,0.0003701876616914689,-0.00016080076009256065,0.9999852841181693,1309434.0,0.02,0.11,-1.0,-0.06,-0.06,0.0,-22.96,7.65,-56.26,1309528.0,0.15,-0.06,1.01,-0.06,-0.12,0.0,14.7,181.1,85.67,76855,1603231315.4576035,body_FLU,-0.01761845519966498,-0.016265321506718416,0.6966440944975997,0.7170160632470376,-0.00019254203652963042,0.0021227183751761913,0.0008543648873455822,-0.07944453981891275,-0.4481620718613267,9.898377818226814,3393,1603231315.404887,rc,0.0,0.0,0.0,0.0,0.0,-10000.0
,,220155.56376,3.011836290359497,92397,1603884362.9000194,/world,vicon/test_obj/test_obj,-0.09030243356960567,-0.07197112966325045,1.3868001545811424,-0.005441626577635101,0.0004586185047170413,-0.00019088132853683316,0.9999850708553479,1309534.0,0.01,0.12,-1.0,0.06,0.06,0.0,-22.06,8.55,-56.41,1309629.0,0.14,-0.06,1.0,-0.24,-0.06,0.0,12.75,180.5,85.07,76864,1603231315.5574276,body_FLU,-0.017619390021389587,-0.016267432620608528,0.6966418678141325,0.7170181557949874,-0.0003120635519735515,0.0024988853838294744,-0.001426028087735176,0.00569262844696641,-0.4521266442015767,9.914525863409043,3394,1603231315.5046954,rc,0.0,0.0,0.0,0.0,0.0,-10000.0
,,220155.663744,3.111825704574585,92407,1603884362.1898868,/world,vicon/test_obj/test_obj,-0.0903531420790541,-0.07192494032417227,1.3867799411730068,-0.005522489918917098,0.00048525305490802956,2.4877362091979043e-05,0.9999846328897685,1309634.0,0.01,0.11,-0.99,0.0,0.0,-0.06,-22.96,7.65,-55.81,1309728.0,0.14,-0.06,0.99,-0.06,-0.12,0.06,13.05,182.6,84.77,76871,1603231315.6600397,body_FLU,-0.017602655947412768,-0.016242099042076793,0.6966510380570985,0.7170102313748887,0.0018329683225601912,0.0037100976333022118,0.005233343690633774,0.02814448750577867,-0.4062604080699384,9.70779443192482,3394,1603231315.5046954,rc,0.0,0.0,0.0,0.0,0.0,-10000.0
,,220155.763739,3.2117981910705566,92417,1603884362.2898777,/world,vicon/test_obj/test_obj,-0.09030177544282414,-0.07196917312337386,1.3867982376674215,-0.005405111905413437,0.00042370426298677234,-0.0001791152772067859,0.9999852864706085,1309734.0,0.02,0.12,-0.98,0.0,0.0,-0.06,-22.21,6.6,-55.81,1309828.0,0.13,-0.06,1.0,0.0,-0.06,-0.12,13.8,181.55,85.52,76879,1603231315.7599335,body_FLU,-0.01764804559268572,-0.016222618753492513,0.6966513424704925,0.717009260861809,-0.0026455943007022142,0.003898740280419588,-0.0008004906121641397,-0.052568026123568416,-0.48584493324905637,9.890987876415252,3395,1603231315.704411,rc,0.0,0.0,0.0,0.0,0.0,-10000.0
,,220155.86376,3.3118274211883545,92427,1603884362.389878,/world,vicon/test_obj/test_obj,-0.09030201124899338,-0.07196875743827354,1.3868015097550515,-0.0053986244523956456,0.00037642987636485103,-0.00015762052222674674,0.9999853440477722,1309835.0,0.02,0.11,-1.0,-0.06,-0.06,0.06,-23.41,7.95,-55.51,1309929.0,0.14,-0.06,0.99,-0.12,-0.18,0.0,14.1,180.8,85.07,76884,1603231315.8597054,body_FLU,-0.017645149288568144,-0.01619698017146261,0.6966589151153397,0.7170025540611603,0.00461376691237092,0.002993364119902253,-0.0017516477964818478,0.04971798771992326,-0.4084420839250088,9.814582304120064,3395,1603231315.704411,rc,0.0,0.0,0.0,0.0,0.0,-10000.0
,,220155.963413,3.411423683166504,92437,1603884362.4901175,/world,vicon/test_obj/test_obj,-0.09030649680899024,-0.07196180311037881,1.3867940849131402,-0.005426545351133252,0.00043360654567155054,-0.0001782832113126036,0.9999851662929867,1309934.0,0.01,0.12,-1.0,0.0,0.0,0.0,-23.11,6.0,-55.06,1310029.0,0.15,-0.06,1.01,0.0,0.0,0.0,14.7,180.35,86.27,76889,1603231315.9595623,body_FLU,-0.017610735033727058,-0.016168615255364917,0.6966766334666942,0.7169868243376647,-0.0035061188973486423,0.0037850227672606707,-0.0018000309355556965,-0.11805753345787526,-0.44806655759364367,9.860774990200996,3395,1603231315.704411,rc,0.0,0.0,0.0,0.0,0.0,-10000.0
,,220156.063456,3.5114657878875732,92447,1603884362.5897737,/world,vicon/test_obj/test_obj,-0.09030552717995816,-0.07196736786055363,1.3867990030139292,-0.0053625693212942345,0.00032617202875579484,-0.00015696958108001084,0.9999855558069989,1310034.0,0.01,0.12,-0.99,-0.06,-0.06,-0.06,-23.41,7.2,-56.26,1310129.0,0.14,-0.06,1.0,-0.06,-0.12,-0.06,13.35,180.5,85.52,76898,1603231316.593927,body_FLU,-0.01749658864305852,-0.016123213156094027,0.6966823534522184,0.7169850833676088,0.005384886637330055,0.0014567067846655846,-0.00259611033834517,0.03191967433132231,-0.48110554887726903,9.76202433693409,3396,1603231316.395267,rc,0.0,0.0,0.0,0.0,0.0,-10000.0
,,220156.163226,3.611232280731201,92457,1603884362.689886,/world,vicon/test_obj/test_obj,-0.09030379237472955,-0.07196743535932874,1.3867949736904075,-0.005355352730268208,0.0003926555606591133,-0.00019931676127768363,0.999985563041574,1310135.0,0.01,0.11,-0.98,0.0,0.0,-0.06,-22.81,7.5,-55.36,1310228.0,0.13,-0.07,1.01,-0.06,-0.06,0.12,14.25,181.1,84.92,76903,1603231316.1592479,body_FLU,-0.0174280066072031,-0.016059821732327687,0.6966964474690948,0.7169744812722194,-0.0022571643348783255,0.000480528746265918,0.0008014471968635917,-0.1378235283885151,-0.5325513736344873,9.800669351220131,3396,1603231316.395267,rc,0.0,0.0,0.0,0.0,0.0,-10000.0
,,220156.263158,3.711168050765991,92467,1603884362.7899728,/world,vicon/test_obj/test_obj,-0.09030667887892077,-0.07196560143140987,1.3867949124857366,-0.005375907744446512,0.0004225648992489816,-0.00016899395046304717,0.9999854461420296,1310234.0,0.02,0.12,-0.99,0.06,0.06,0.06,-24.16,6.75,-55.36,1310328.0,0.14,-0.05,1.01,-0.06,-0.12,-0.06,12.75,181.55,86.42,76909,1603231316.259218,body_FLU,-0.017370970672824865,-0.016021415629403322,0.6967087668205413,0.7169647535649952,0.0007066395482979715,0.000555381178855896,0.0011017612414434552,-0.08964281469304115,-0.46955471201241017,9.899870995402337,3396,1603231316.395267,rc,0.0,0.0,0.0,0.0,0.0,-10000.0
,,220156.36366,3.8116674423217773,92477,1603884362.8899038,/world,vicon/test_obj/test_obj,-0.09030457845074229,-0.07196490017668017,1.3867978653574387,-0.005388328943176258,0.00042425411176088955,-0.00018343581581639962,0.9999853760285449,1310334.0,0.01,0.12,-1.0,-0.06,-0.06,0.06,-23.56,7.8,-54.01,1310429.0,0.14,-0.06,1.0,0.0,0.0,-0.06,13.95,181.1,84.62,76915,1603231316.3589659,body_FLU,-0.01736462525579143,-0.01596022099370852,0.6967130757088934,0.7169620849611307,9.226298425346613e-05,-0.0006619838532060385,0.0026534053031355143,0.030296123466454446,-0.3125700758770108,9.818846855521203,3396,1603231316.395267,rc,0.0,0.0,0.0,0.0,0.0,-10000.0
,,220156.463689,3.9117677211761475,92487,1603884362.9898522,/world,vicon/test_obj/test_obj,-0.09030552577177989,-0.07197070348126576,1.3867960515899986,-0.005409497584573064,0.0003879104418415096,-0.00017406962978256738,0.9999852781722017,1310434.0,0.02,0.12,-1.01,-0.24,-0.06,-0.06,-22.51,6.0,-54.31,1310529.0,0.14,-0.06,0.99,-0.06,0.0,0.0,13.2,179.59,85.97,76924,1603231316.458758,body_FLU,-0.017392266969826833,-0.01593084203178737,0.6967146588145191,0.7169605299559919,0.000309182534692809,0.00449393829330802,0.0010180375538766384,0.03148710350319743,-0.5434306896999478,10.019444343209267,3397,1603231316.4032943,rc,0.0,0.0,0.0,0.0,0.0,-10000.0
,,220156.563607,4.011613607406616,92497,1603884363.8995993,/world,vicon/test_obj/test_obj,-0.09030538487929052,-0.07197017736196296,1.3867986564987271,-0.005418991542274891,0.00042817592157379464,-0.00018077457123388474,0.9999852091489151,1310535.0,0.01,0.12,-1.0,-0.06,-0.06,-0.06,-22.81,8.1,-56.11,1310628.0,0.15,-0.06,1.0,-0.06,-0.06,0.06,14.1,180.2,85.07,76930,1603231316.5586307,body_FLU,-0.017435731374392346,-0.015929702920456906,0.696690456994941,0.7169830172106494,6.043422035872936e-05,0.004303666763007641,-0.003101612441241741,-0.04007915225252509,-0.49599777860194444,9.884520947098732,3397,1603231316.4032943,rc,0.0,0.0,0.0,0.0,0.0,-10000.0
,,220156.663187,4.111193418502808,92507,1603884363.1898818,/world,vicon/test_obj/test_obj,-0.09030361456796031,-0.07196835529230179,1.3867890976072388,-0.005407003089461009,0.00040303513576755566,-0.00016202512370550953,0.9999852877058388,1310634.0,0.01,0.11,-1.0,-0.06,-0.12,0.0,-22.06,7.5,-56.41,1310728.0,0.15,-0.06,0.99,0.12,0.0,0.06,14.4,180.5,85.07,76938,1603231316.6584535,body_FLU,-0.01745265705529169,-0.01594187967104797,0.6966848396762543,0.7169877930617342,0.0006394584779627621,0.007130316458642483,-0.0007483325898647308,-0.14791046122927218,-0.2340150309316814,9.97114742231369,3398,1603231316.6029477,rc,0.0,0.0,0.0,0.0,0.0,-10000.0
,,220156.763701,4.211767673492432,92517,1603884363.2899117,/world,vicon/test_obj/test_obj,-0.09030900829575163,-0.07196772241213653,1.386788623266765,-0.005412909349736367,0.000402578298313331,-0.00019529824659686372,0.9999852499920587,1310735.0,0.02,0.11,-1.0,0.0,-0.18,0.0,-22.51,6.3,-56.71,1310828.0,0.13,-0.06,1.0,0.0,-0.06,0.0,14.25,180.35,85.22,76947,1603231316.7610881,body_FLU,-0.01741207633948164,-0.015957530424869342,0.6966978668304511,0.7169757730733909,0.0008032906916923821,0.003076043678447604,0.0036581463646143675,-0.06629120557336136,-0.4888308859728277,9.835338401556015,3398,1603231316.6029477,rc,0.0,0.0,0.0,0.0,0.0,-10000.0
,,220156.864145,4.312191963195801,92527,1603884363.3897927,/world,vicon/test_obj/test_obj,-0.0903017519975409,-0.07196882654239957,1.3867959143502602,-0.005476691271203556,0.0004593106420082143,-0.00016167636522978836,0.9999848842593607,1310834.0,0.02,0.12,-1.0,-0.12,-0.06,0.0,-22.06,7.05,-55.36,1310928.0,0.13,-0.07,1.0,0.0,0.0,0.0,15.0,180.05,87.62,76953,1603231316.8609207,body_FLU,-0.017397251213373335,-0.015977386250283825,0.6967207964283314,0.7169534089486566,-0.0007278634584508836,0.0011449476005509496,0.003969901241362095,0.024934983565472066,-0.5237520487010479,9.74980318415165,3398,1603231316.6029477,rc,0.0,0.0,0.0,0.0,0.0,-10000.0
,,220156.963679,4.4117512702941895,92537,1603884363.4899132,/world,vicon/test_obj/test_obj,-0.09030717972990038,-0.07196943120440175,1.3867947218268932,-0.005466040670703871,0.0005138294716461153,-0.00020138713941295772,0.9999849087970679,1310934.0,0.02,0.12,-1.0,0.06,0.0,-0.06,-21.76,6.75,-56.41,1311028.0,0.14,-0.06,1.0,-0.12,-0.12,0.06,13.8,181.25,85.82,76959,1603231316.9607503,body_FLU,-0.017345165455298822,-0.01600358097633818,0.6967071725464354,0.7169673258619347,0.00486281793564558,0.005316616967320442,0.001318911206908524,-0.10735049723647536,-0.5504241523705423,9.820066634058952,3398,1603231316.6029477,rc,0.0,0.0,0.0,0.0,0.0,-10000.0
,,220157.063669,4.511754751205444,92547,1603884363.589859,/world,vicon/test_obj/test_obj,-0.09029762027685526,-0.07196947975861094,1.3867997187316765,-0.00543689801420875,0.00043488348537633814,-0.0001647349565391608,0.9999851118285369,1311035.0,0.01,0.11,-1.0,-0.06,-0.06,-0.06,-23.56,8.1,-56.11,1311129.0,0.14,-0.06,0.99,-0.18,-0.12,0.0,12.6,180.05,85.97,76966,1603231317.5781434,body_FLU,-0.017287858522467076,-0.0160333235153504,0.6966931163938921,0.716981704127885,0.000494664185680449,0.008600976318120956,0.002743378048762679,0.014087368670850992,-0.5783816093578935,9.85444943368435,3399,1603231317.244978,rc,0.0,0.0,0.0,0.0,0.0,-10000.0
,,220157.16386,4.6119232177734375,92557,1603884363.6898882,/world,vicon/test_obj/test_obj,-0.09030710960234976,-0.07197128888062818,1.3867921100585685,-0.0053966699110815875,0.0003808560658217855,-0.0001545636499921429,0.9999853533990416,1311134.0,0.01,0.1,-1.01,-0.12,-0.06,0.0,-23.41,6.9,-56.26,1311229.0,0.14,-0.07,0.99,-0.18,-0.18,0.0,13.35,179.74,85.82,76974,1603231317.160435,body_FLU,-0.01727914541654705,-0.016006834066280878,0.6966647425702851,0.7170100758401703,0.006391523405909538,0.0060012564063072205,-0.0033145726192742586,-0.07304539423249662,-0.41932004906237125,9.812119379639626,3399,1603231317.244978,rc,0.0,0.0,0.0,0.0,0.0,-10000.0
,,220157.263656,4.711668252944946,92567,1603884363.7898116,/world,vicon/test_obj/test_obj,-0.0903115182428041,-0.07196704516779431,1.3867963972534036,-0.005356290916989847,0.0004190352388717283,-0.00018116293788165874,0.9999855507641453,1311234.0,0.01,0.11,-1.01,0.12,0.0,0.0,-21.46,6.75,-56.41,1311328.0,0.13,-0.05,0.99,-0.12,-0.12,-0.06,13.05,180.2,86.12,76982,1603231317.257501,body_FLU,-0.017270330206693812,-0.016018185641102575,0.6966567616251582,0.7170177891135383,0.0005959538975730538,0.006784483790397644,-0.0018333811312913895,-0.03338646276947111,-0.4513417184650898,9.895358749508858,3400,1603231317.204783,rc,0.0,0.0,0.0,0.0,0.0,-10000.0
,,220157.363487,4.81149435043335,92577,1603884363.889875,/world,vicon/test_obj/test_obj,-0.09030324306662754,-0.07196926055369025,1.3868035124457943,-0.0053613373348525934,0.00043604179669376323,-0.00020172720056104633,0.9999855125128914,1311334.0,0.01,0.12,-0.99,-0.06,-0.06,0.0,-22.66,6.6,-54.91,1311428.0,0.15,-0.06,0.99,-0.06,-0.06,0.06,15.0,181.1,86.27,76989,1603231317.3601437,body_FLU,-0.01733303899680867,-0.016098899768413184,0.6966467815426327,0.7170241648310558,0.0008864948176778853,0.006733842194080353,0.0017290886025875807,-0.00012194864451885223,-0.4774476737268269,9.809913496613502,3400,1603231317.204783,rc,0.0,0.0,0.0,0.0,0.0,-10000.0
,,220157.463748,4.9118218421936035,92587,1603884363.9898694,/world,vicon/test_obj/test_obj,-0.09029598057349521,-0.0719691243332592,1.386793154464967,-0.005363907424113583,0.00037513123543448263,-0.00016517100300611308,0.9999855301414323,1311435.0,0.02,0.11,-0.99,0.0,0.0,-0.06,-23.41,7.2,-54.91,1311529.0,0.13,-0.06,1.01,-0.06,-0.06,0.0,13.8,179.74,85.07,76998,1603231317.4599788,body_FLU,-0.017371932104620073,-0.016133555315470085,0.6966535834960775,0.7170158359268705,0.004323156084865332,0.006286086514592171,0.0024571456015110016,0.014590498108416797,-0.4748148609101772,9.805615062475205,3401,1603231317.4044585,rc,0.0,0.0,0.0,0.0,0.0,-10000.0
,,220157.563667,5.011737108230591,92597,1603884364.898474,/world,vicon/test_obj/test_obj,-0.09029974954027928,-0.07196961358202059,1.386783414295463,-0.005442458934423313,0.0004586109144071247,-0.0001707464364804771,0.9999850699697626,1311535.0,0.02,0.11,-1.01,-0.06,-0.06,-0.06,-23.11,7.8,-56.41,1311628.0,0.14,-0.06,1.01,-0.06,-0.12,-0.06,13.2,181.4,85.97,77006,1603231317.5597858,body_FLU,-0.017412261719901727,-0.016148862690020065,0.6966445379173041,0.7170233016894237,-0.0029260478913784027,0.007964150980114937,0.003259362420067191,0.07268642160203308,-0.47735730759054423,9.717250052332878,3402,1603231317.504298,rc,0.0,0.0,0.0,0.0,0.0,-10000.0
,,220157.663481,5.111490488052368,92607,1603884364.1897879,/world,vicon/test_obj/test_obj,-0.0903007045095734,-0.07196488667840122,1.386783850072221,-0.005417480927278794,0.0004200824873277001,-0.00016107187525557195,0.9999852241343156,1311634.0,0.02,0.1,-0.99,0.06,0.06,0.0,-22.06,7.05,-55.36,1311728.0,0.13,-0.06,0.99,-0.06,-0.12,0.06,14.7,181.4,85.97,77011,1603231317.6596136,body_FLU,-0.017445828079383795,-0.016143901694422817,0.696652744682024,0.717014623872978,0.004835412837564945,0.006986643187701702,0.003488111775368452,0.0466529600629583,-0.39706946003437044,9.814829998612405,3402,1603231317.504298,rc,0.0,0.0,0.0,0.0,0.0,-10000.0
,,220157.763461,5.2114691734313965,92617,1603884364.2899368,/world,vicon/test_obj/test_obj,-0.09030793330255697,-0.07197001135614908,1.3867954437389107,-0.005439017416003415,0.0004525819433233157,-0.00017280323120402572,0.9999850910879503,1311735.0,0.02,0.11,-1.0,0.0,0.0,0.06,-23.86,7.8,-56.11,1311829.0,0.14,-0.06,1.01,-0.06,-0.06,0.06,14.25,181.1,85.97,77020,1603231317.759514,body_FLU,-0.017438710306792806,-0.016127159463965125,0.6966656673147117,0.7170026179139146,-0.001238670782186091,0.00047932786401361227,0.0008299869950860739,0.0970743979504332,-0.4272334937676787,9.72891155576706,3403,1603231317.70403,rc,0.0,0.0,0.0,0.0,0.0,-10000.0
,,220157.863204,5.311213254928589,92627,1603884364.3898935,/world,vicon/test_obj/test_obj,-0.09030091292894614,-0.0719727799063092,1.3867894086582477,-0.005352861161469284,0.00041172009828384235,-0.0001483930525247396,0.9999855775677211,1311835.0,0.02,0.12,-1.01,0.0,0.06,0.06,-22.21,8.7,-55.81,1311928.0,0.14,-0.05,1.01,-0.06,-0.18,0.0,14.7,181.4,85.67,77025,1603231317.8593202,body_FLU,-0.017444395751066537,-0.016089296293542416,0.696675315576563,0.716993955530976,0.0042492905631661415,0.007026392035186291,-0.0008044627611525357,0.12049657937139273,-0.537866399422288,9.794186648905278,3403,1603231317.70403,rc,0.0,0.0,0.0,0.0,0.0,-10000.0
,,220157.963134,5.411139965057373,92637,1603884364.4897566,/world,vicon/test_obj/test_obj,-0.09030406207704654,-0.07196915102251798,1.3867875217355523,-0.005366781944440547,0.0004084174536585704,-0.00015475473155309398,0.9999855033437822,1311935.0,0.01,0.12,-1.01,-0.06,-0.06,0.06,-22.66,6.9,-55.51,1312028.0,0.15,-0.07,1.01,-0.06,-0.12,0.06,13.95,181.1,86.27,77034,1603231317.9591565,body_FLU,-0.01738816535616905,-0.016073202883002766,0.696682120716472,0.7169890700203368,0.0007755419937893748,0.0005172505043447018,0.00038994502392597497,0.012287439538165927,-0.4256978171244264,9.836997487306595,3404,1603231317.9036725,rc,0.0,0.0,0.0,0.0,0.0,-10000.0
,,220158.063217,5.511226654052734,92647,1603884364.5899549,/world,vicon/test_obj/test_obj,-0.09030059180849803,-0.07196809937614351,1.386790027890282,-0.005408359209455144,0.00041935055998996816,-0.00016024800142817134,0.9999852739497453,1312035.0,0.01,0.12,-1.0,-0.06,-0.12,0.0,-22.51,6.3,-56.11,1312129.0,0.14,-0.06,0.99,-0.12,-0.12,0.0,14.4,181.25,87.17,77040,1603231318.590192,body_FLU,-0.017364840443530816,-0.01607149853417046,0.6966916182636763,0.7169804448465641,-0.002375497482717037,0.0021900071296840906,-0.000524048344232142,0.10390447134431452,-0.7013736815303564,9.798621782362462,3404,1603231317.9036725,rc,0.0,0.0,0.0,0.0,0.0,-10000.0
,,220158.163181,5.611186504364014,92657,1603884364.6898882,/world,vicon/test_obj/test_obj,-0.09030924997249398,-0.07196804633718604,1.3867949685721432,-0.005396128150849768,0.0003973987916593442,-0.00017233995513792698,0.9999853469797044,1312134.0,0.02,0.11,-0.99,-0.06,-0.12,0.06,-23.41,6.9,-55.81,1312228.0,0.14,-0.05,0.98,0.12,0.0,0.06,12.6,181.1,86.72,77046,1603231318.1588755,body_FLU,-0.0172570189916464,-0.016067005623667276,0.6967078907594949,0.7169673364800286,0.0037378729321062565,0.0017907418077811599,-0.00036660043406300247,0.036963309617713096,-0.4008449389524758,9.860103177309037,3404,1603231317.9036725,rc,0.0,0.0,0.0,0.0,0.0,-10000.0
,,220158.263574,5.7115795612335205,92667,1603884364.789797,/world,vicon/test_obj/test_obj,-0.09030683035058329,-0.07196543545844121,1.3867871038250383,-0.005371446294411961,0.0003898804054877607,-0.0001592895893619875,0.9999854849870583,1312235.0,0.02,0.11,-1.01,0.0,-0.06,0.0,-23.41,6.9,-54.91,1312328.0,0.14,-0.06,0.99,-0.06,-0.12,0.12,13.8,180.5,85.82,77055,1603231318.2614424,body_FLU,-0.017201010444385063,-0.01609353189492588,0.6967162761838261,0.716959938888765,-0.0011736070737242699,0.0011463474947959185,0.0045640417374670506,0.08855981762520969,-0.47035636004805564,9.592074369192124,3404,1603231317.9036725,rc,0.0,0.0,0.0,0.0,0.0,-10000.0
,,220158.364132,5.812155485153198,92677,1603884364.8898609,/world,vicon/test_obj/test_obj,-0.09030843341911822,-0.07196941175470914,1.3867827511239703,-0.005441829861067083,0.000460297717460077,-0.0001637019843678523,0.9999850737963216,1312335.0,0.01,0.12,-1.0,-0.06,-0.06,0.0,-22.51,7.5,-56.11,1312429.0,0.13,-0.06,0.98,-0.18,-0.06,0.06,15.15,181.55,85.07,77062,1603231318.3585353,body_FLU,-0.01718344694680609,-0.016077764351365233,0.6967274376320733,0.7169498673513606,0.0013261039275676012,0.0012527841608971357,0.00310820946469903,-0.08556191649008542,-0.40763331613317133,9.794172044277191,3405,1603231318.3030338,rc,0.0,0.0,0.0,0.0,0.0,-10000.0
,,220158.463834,5.91189980506897,92687,1603884364.9897895,/world,vicon/test_obj/test_obj,-0.09030784200678955,-0.07196765754277784,1.386788191786184,-0.005423517381227884,0.0004408634413491719,-0.0001725124298085043,0.9999851805592437,1312434.0,0.02,0.11,-1.0,0.06,-0.12,0.0,-22.96,6.9,-56.26,1312528.0,0.13,-0.06,1.0,-0.18,-0.18,0.12,12.75,180.8,85.07,77071,1603231318.4611542,body_FLU,-0.017204027135263106,-0.016086783493346975,0.6967387656163285,0.71693816283875,-0.0008187921484932303,0.004507274366915226,0.0036046039313077927,0.035928434799425306,-0.4040548171363771,9.752189580380916,3405,1603231318.3030338,rc,0.0,0.0,0.0,0.0,0.0,-10000.0
,,220158.563352,6.011360168457031,92697,1603884365.8990264,/world,vicon/test_obj/test_obj,-0.09030605278091891,-0.07196956381846786,1.3867938637989432,-0.005365528564164757,0.0004017847136110038,-0.00018012223997705115,0.9999855085091232,1312535.0,0.02,0.11,-0.99,0.06,0.0,0.06,-22.51,7.05,-56.41,1312629.0,0.14,-0.06,1.0,-0.12,-0.24,-0.06,13.8,180.8,85.07,77078,1603231318.558213,body_FLU,-0.01717167102904143,-0.01612285074496221,0.6967523241520991,0.7169249515720417,0.00241318391636014,0.0017411941662430763,0.0037081059999763966,0.04248198781628162,-0.46900097753852604,9.860789010643959,3406,1603231318.5027406,rc,0.0,0.0,0.0,0.0,0.0,-10000.0
,,220158.663001,6.1110100746154785,92707,1603884365.1898773,/world,vicon/test_obj/test_obj,-0.09030812569735644,-0.07196986122790727,1.3867869959645638,-0.005326925270733859,0.00037505627919359784,-0.00017002033962738432,0.9999857270446572,1312635.0,0.02,0.11,-0.99,0.0,0.06,0.0,-22.06,7.5,-54.61,1312728.0,0.13,-0.07,0.99,0.0,0.06,0.06,13.8,179.74,85.52,77084,1603231318.6497116,body_FLU,-0.01717299458121089,-0.01616041293094052,0.6967655451400319,0.7169112249203031,4.026730312034488e-05,0.007759809494018555,-0.00012331560719758272,0.05099560971278697,-0.490872941583395,9.887759669423103,3406,1603231318.5027406,rc,0.0,0.0,0.0,0.0,0.0,-10000.0
,,220158.763677,6.211759567260742,92717,1603884365.290205,/world,vicon/test_obj/test_obj,-0.09031037413630809,-0.0719715967968369,1.3867824332092356,-0.005421464757675208,0.00042148766738571636,-0.00018441859670170576,0.9999851979193536,1312735.0,0.01,0.1,-1.0,-0.06,-0.12,0.0,-22.06,5.7,-55.66,1312828.0,0.13,-0.06,0.99,-0.06,-0.06,-0.12,13.8,182.6,85.82,77093,1603231318.7578955,body_FLU,-0.017164809318579537,-0.01621788148890589,0.6967925105967744,0.7168839144640593,0.004760066978633404,0.0026005718391388655,0.002529265359044075,0.08149456407967955,-0.4798357859998941,9.866994225025177,3406,1603231318.5027406,rc,0.0,0.0,0.0,0.0,0.0,-10000.0
,,220158.863696,6.311777830123901,92727,1603884365.3897347,/world,vicon/test_obj/test_obj,-0.09030542615243338,-0.07196420124515059,1.386782762520259,-0.0053972308069746575,0.0004461087748404248,-0.0001887793445118089,0.9999853175166805,1312834.0,0.01,0.12,-1.0,0.0,0.06,0.06,-21.76,6.75,-55.66,1312929.0,0.14,-0.07,1.0,-0.06,0.0,0.0,15.15,182.6,84.77,77101,1603231318.860534,body_FLU,-0.017142842193907305,-0.016268534538533313,0.6967932424994542,0.7168825810079221,-0.002168409526348114,0.0021218983456492424,-0.001821727491915226,-0.03368617712147534,-0.420214874625206,9.866033824682235,3406,1603231318.5027406,rc,0.0,0.0,0.0,0.0,0.0,-10000.0
,,220158.963784,6.4118921756744385,92737,1603884365.4898555,/world,vicon/test_obj/test_obj,-0.0903044689502369,-0.07196907842794813,1.3867839940994633,-0.005421832605927488,0.0004174257790361581,-0.00017610400353669853,0.9999851991276132,1312935.0,0.02,0.11,-0.99,-0.06,-0.06,-0.06,-20.11,7.65,-56.26,1313029.0,0.14,-0.05,0.99,-0.06,0.0,0.0,13.95,180.35,85.22,77109,1603231318.95759,body_FLU,-0.0171104957502227,-0.016303005607247362,0.6968250017127461,0.7168517000965982,-0.0028213709592819214,0.004697129596024752,0.002189088612794876,-0.048983210625126956,-0.5558456093855202,9.811736154198647,3407,1603231318.9048457,rc,0.0,0.0,0.0,0.0,0.0,-10000.0
,,220159.063785,6.511863946914673,92747,1603884365.5897846,/world,vicon/test_obj/test_obj,-0.09030869160384429,-0.07196663725256601,1.386793503273075,-0.005510929409353134,0.00045120105584108586,-0.00015797172767012348,0.9999847004427546,1313034.0,0.01,0.12,-1.0,0.06,0.0,-0.06,-22.81,7.8,-55.06,1313129.0,0.14,-0.06,1.0,-0.06,-0.06,0.0,13.8,180.8,85.07,77116,1603231319.6019702,body_FLU,-0.017007666784189267,-0.016354904492172397,0.6968316298969084,0.7168465218893288,3.85664461646229e-05,0.006970529444515705,0.00012489315122365952,0.1432604480534792,-0.3734167171753943,9.943089010834694,3407,1603231318.9048457,rc,0.0,0.0,0.0,0.0,0.0,-10000.0
,,220159.16361,6.611618757247925,92757,1603884365.6898916,/world,vicon/test_obj/test_obj,-0.09030870131049097,-0.0719710108376814,1.3867964638219874,-0.005431006335255872,0.00044630668141598445,-0.0001786089537576939,0.9999851364292242,1313135.0,0.01,0.12,-1.02,0.0,0.0,0.0,-23.41,7.95,-54.46,1313228.0,0.13,-0.06,0.99,0.06,0.06,-0.06,13.95,180.65,85.22,77124,1603231319.1572359,body_FLU,-0.01694133903658366,-0.016416118150060468,0.6968318234819229,0.7168465051037002,-0.002143791876733303,0.005543340463191271,0.0006970310350880027,-0.014180185646284371,-0.4919383492022753,9.841224650859832,3408,1603231319.104558,rc,0.0,0.0,0.0,0.0,0.0,-10000.0
,,220159.264043,6.712056875228882,92767,1603884365.789746,/world,vicon/test_obj/test_obj,-0.0903055438557617,-0.07196880422942271,1.3867874455214049,-0.005458750768826518,0.0005059020723342338,-0.00017181018614719336,0.9999849581790703,1313234.0,0.02,0.11,-1.01,-0.06,-0.18,0.0,-22.96,8.25,-54.91,1313328.0,0.15,-0.06,1.01,-0.18,-0.06,0.06,13.8,181.25,86.12,77131,1603231319.2598777,body_FLU,-0.016885024342768562,-0.01649306642680717,0.6968445894771577,0.7168336577123012,0.0004229857586324215,0.005278812721371651,-0.0008028394659049809,0.019055808378383516,-0.43761519364267587,9.794693721592427,3408,1603231319.104558,rc,0.0,0.0,0.0,0.0,0.0,-10000.0
,,220159.363582,6.81158971786499,92777,1603884365.8898475,/world,vicon/test_obj/test_obj,-0.09030429638150797,-0.07196993834080892,1.3867904638218553,-0.005389495128735969,0.0004028248175429724,-0.00018064900815137477,0.9999853791132947,1313335.0,0.02,0.11,-0.99,0.06,0.06,-0.06,-22.66,6.9,-56.26,1313429.0,0.14,-0.05,0.99,-0.12,-0.06,0.12,13.8,182.6,84.17,77140,1603231319.3597174,body_FLU,-0.01689706248446138,-0.016559031186221786,0.6968371575189363,0.7168390779432292,-0.001177965896204114,0.0066368468105793,-0.0010281545110046864,-0.10402984294854105,-0.47437321695685386,9.7536220023036,3409,1603231319.3042593,rc,0.0,0.0,0.0,0.0,0.0,-10000.0
,,220159.463346,6.911349773406982,92787,1603884365.989929,/world,vicon/test_obj/test_obj,-0.09030822439747203,-0.07197231883461282,1.3867880093986353,-0.0054358341839199934,0.00042826807745005704,-0.00015749215398674598,0.9999851216340172,1313434.0,0.01,0.1,-1.0,-0.06,-0.12,0.12,-22.66,7.2,-55.21,1313528.0,0.14,-0.06,1.0,-0.06,-0.06,0.0,14.1,181.55,86.42,77145,1603231319.4595635,body_FLU,-0.01687160190074202,-0.016614517583177453,0.696829683480901,0.7168456591726621,0.006467729806900024,0.0031089982949197292,-0.0019328470807522535,0.001964514163322747,-0.5197054713740945,9.922263979554176,3409,1603231319.3042593,rc,0.0,0.0,0.0,0.0,0.0,-10000.0
,,220159.563325,7.011333227157593,92797,1603884366.9004378,/world,vicon/test_obj/test_obj,-0.09030501064977678,-0.07197299507013107,1.386789019345615,-0.005352021335648824,0.00039853666167529453,-0.00018457446130264692,0.9999855813802618,1313534.0,0.01,0.12,-0.99,-0.06,-0.06,-0.06,-22.81,8.1,-55.36,1313628.0,0.14,-0.06,1.0,-0.06,-0.12,0.18,12.75,181.25,86.12,77150,1603231319.559423,body_FLU,-0.016833100873333492,-0.016672581887722106,0.6968413857758102,0.7168338404387964,7.729908975306898e-05,0.0033128508366644382,0.0018712016753852367,0.10224096769373864,-0.35288520240783694,9.765799341201783,3409,1603231319.3042593,rc,0.0,0.0,0.0,0.0,0.0,-10000.0
,,220159.663287,7.111294269561768,92807,1603884366.1897712,/world,vicon/test_obj/test_obj,-0.09030420851771262,-0.07197187376120694,1.3867823846055078,-0.0054089087982152366,0.00039313862043148154,-0.00017944126948166194,0.999985278365871,1313635.0,0.02,0.11,-1.01,-0.06,-0.06,0.0,-21.46,6.3,-55.36,1313729.0,0.14,-0.07,1.0,0.0,0.0,-0.12,13.8,180.5,85.07,77156,1603231319.659249,body_FLU,-0.016832668340295717,-0.01672169178624723,0.6968403185509293,0.7168337441430828,0.0036604825872927904,-0.00020761342602781951,0.0027373579796403646,0.06357135373726487,-0.6065971666350961,9.892638783574105,3409,1603231319.3042593,rc,0.0,0.0,0.0,0.0,0.0,-10000.0
,,220159.763371,7.21137809753418,92817,1603884366.2898598,/world,vicon/test_obj/test_obj,-0.09030713088600235,-0.07197245297124996,1.3867880322582908,-0.005430982090611823,0.00045100490479747546,-0.00017741791890251208,0.9999851346650056,1313734.0,0.02,0.1,-0.99,-0.06,-0.12,-0.06,-24.61,6.75,-55.36,1313829.0,0.14,-0.06,0.99,-0.06,-0.06,0.12,14.1,181.25,85.07,77161,1603231319.759058,body_FLU,-0.01684320874929194,-0.016728464358721006,0.696858703586185,0.7168154658176735,0.0006024215836077929,0.0012650492135435343,0.006334344856441021,0.0397684844294563,-0.3810678262487054,9.837406416893005,3409,1603231319.3042593,rc,0.0,0.0,0.0,0.0,0.0,-10000.0
,,220159.863315,7.311323165893555,92827,1603884366.389867,/world,vicon/test_obj/test_obj,-0.09030461228253858,-0.07197159191021264,1.3867819331659832,-0.0053186086666398786,0.0004009029592965279,-0.00020870721901127193,0.9999857539585078,1313835.0,0.02,0.1,-1.0,0.0,0.0,-0.06,-21.76,8.1,-53.71,1313928.0,0.13,-0.06,0.99,-0.06,-0.06,0.0,13.8,180.8,85.82,77167,1603231319.8592434,body_FLU,-0.01682626336507182,-0.01674436016495864,0.6968448175091037,0.7168289918624521,-0.0008752549765631557,0.002830585464835167,0.0028192177414894104,-0.06239143214235082,-0.4822148068919778,9.816754304409027,3409,1603231319.3042593,rc,0.0,0.0,0.0,0.0,0.0,-10000.0
,,220159.962977,7.41098165512085,92837,1603884366.4900358,/world,vicon/test_obj/test_obj,-0.0903571351363216,-0.07192292527260222,1.3867809860483156,-0.005505733055403437,0.0004681441831049451,4.109025045812059e-05,0.9999847329115269,1313934.0,0.01,0.11,-1.0,-0.18,-0.18,0.06,-23.86,8.1,-54.31,1314028.0,0.14,-0.06,0.99,0.0,-0.06,0.0,14.85,180.2,85.52,77173,1603231319.9587674,body_FLU,-0.016797756448049567,-0.01675623377298843,0.6968291224135236,0.7168446401867392,0.0017033768817782402,0.0023815296590328217,0.001029196660965681,0.01503928920160979,-0.5290039824955165,9.772867397010327,3409,1603231319.3042593,rc,0.0,0.0,0.0,0.0,0.0,-10000.0
,,220200.064315,7.512334585189819,92847,1603884366.5898027,/world,vicon/test_obj/test_obj,-0.09030466084334426,-0.07196974437736818,1.38677987339035,-0.005474708566952878,0.000475728658760778,-0.00018478153054904967,0.9999848834378128,1314035.0,0.01,0.11,-0.99,-0.06,-0.12,0.0,-22.66,6.6,-55.21,1314128.0,0.14,-0.06,1.0,0.0,0.06,0.0,13.65,180.35,85.22,77180,1603231320.5860758,body_FLU,-0.016773133068270392,-0.016771214201090772,0.6968312431807471,0.7168428048801703,-0.004012386780232191,0.004944757558405399,-0.0011294273426756263,0.0197100865887478,-0.4112241925522685,9.875195015788078,3409,1603231319.3042593,rc,0.0,0.0,0.0,0.0,0.0,-10000.0
,,220200.163268,7.611272096633911,92857,1603884366.6898367,/world,vicon/test_obj/test_obj,-0.09035967210995195,-0.0719254583360461,1.386769667425894,-0.0055041724675828855,0.0004625054495776918,1.7769714700985604e-05,0.9999847448128364,1314134.0,0.01,0.11,-0.99,-0.12,-0.12,-0.06,-21.76,7.8,-54.61,1314228.0,0.13,-0.06,0.98,-0.06,-0.12,0.06,14.1,181.25,86.42,77187,1603231320.1585739,body_FLU,-0.01674910771036025,-0.016772321118587927,0.69683455268505,0.716840123611554,0.0036856168881058693,0.005970600061118603,-0.0008466372964903712,0.024724932502023875,-0.4659271779768169,9.753960829675197,3411,1603231320.1251416,rc,0.0,0.0,0.0,0.0,0.0,-10000.0
,,220200.263751,7.711889982223511,92867,1603884366.7899005,/world,vicon/test_obj/test_obj,-0.09030260457805751,-0.07197074624746376,1.3867821792146575,-0.005443518289644478,0.0004318645571390317,-0.00017464823208744473,0.9999850754384435,1314235.0,0.02,0.11,-0.99,-0.06,-0.12,0.06,-22.06,6.3,-56.11,1314329.0,0.15,-0.06,1.0,-0.06,-0.06,0.0,13.8,181.25,85.52,77196,1603231320.2611334,body_FLU,-0.016777901149909888,-0.01675685702628821,0.696841257320356,0.7168332943382232,-0.000710810418240726,0.005072842352092266,-0.0013922544894739985,0.10321553452592343,-0.34765835206210616,9.858856526255607,3411,1603231320.1251416,rc,0.0,0.0,0.0,0.0,0.0,-10000.0
,,220200.363706,7.81177544593811,92877,1603884366.889921,/world,vicon/test_obj/test_obj,-0.09030487713841875,-0.07197090815984435,1.3867812125326024,-0.005459843251779925,0.0004222414870277898,-0.00019610876091437338,0.9999849865698718,1314335.0,0.01,0.12,-1.0,0.0,0.0,0.0,-21.01,7.5,-55.36,1314428.0,0.13,-0.06,1.0,0.06,0.0,0.12,12.75,180.8,85.07,77202,1603231320.360991,body_FLU,-0.016810468375538665,-0.01675668300844449,0.6968423569185216,0.7168314664771556,-0.0011403150856494904,0.0049149878323078156,7.275366806425154e-05,0.022994913898408412,-0.43859863278642297,9.795480618953706,3411,1603231320.1251416,rc,0.0,0.0,0.0,0.0,0.0,-10000.0
,,220200.463711,7.911783218383789,92887,1603884366.9897394,/world,vicon/test_obj/test_obj,-0.09030096765281564,-0.07196384546641074,1.3867908086618401,-0.005428849275938408,0.000478824930163917,-0.00015719688744180406,0.999985136695223,1314435.0,0.02,0.12,-1.01,-0.12,-0.12,0.06,-23.71,7.2,-54.16,1314528.0,0.14,-0.06,1.0,0.0,-0.06,-0.06,14.4,180.5,85.82,77208,1603231320.4608366,body_FLU,-0.01678087307318942,-0.016755055196168954,0.6968490724977356,0.7168256695901176,0.0003560989862307906,0.006361272186040878,0.0028088896069675684,0.010682226609438659,-0.43974841864407066,9.798215189516544,3411,1603231320.1251416,rc,0.0,0.0,0.0,0.0,0.0,-10000.0
,,220200.563747,8.011863470077515,92897,1603884367.898815,/world,vicon/test_obj/test_obj,-0.09030560577903443,-0.07196631861700288,1.3867865208076955,-0.00541470451704263,0.00048461347189484433,-0.00018313844060691113,0.9999852061831153,1314534.0,0.01,0.11,-1.0,0.0,0.06,0.06,-24.16,6.3,-57.01,1314628.0,0.14,-0.06,1.0,-0.12,-0.06,0.06,14.1,181.25,86.42,77214,1603231320.560659,body_FLU,-0.016763935982457862,-0.016813292790667768,0.6968463182239375,0.7168273797879474,-0.0013648123713210225,0.0069473665207624435,0.0014601277653127909,-0.08247207009326667,-0.4088785432353616,9.821360019922256,3411,1603231320.1251416,rc,0.0,0.0,0.0,0.0,0.0,-10000.0
,,220200.663953,8.111968278884888,92907,1603884367.1898074,/world,vicon/test_obj/test_obj,-0.09031430256999158,-0.07196529543109197,1.3867923617862317,-0.0054471424915648525,0.000434835236501521,-0.00017413154288739794,0.9999850545059158,1314634.0,0.02,0.12,-1.0,-0.06,-0.06,-0.06,-23.71,6.9,-56.26,1314729.0,0.15,-0.05,0.99,-0.12,-0.06,0.06,16.5,179.74,85.07,77219,1603231320.6605082,body_FLU,-0.0167200888718074,-0.01682762393857283,0.6968367700104959,0.716837349516639,0.007703452371060848,0.008963547646999359,0.0024055710528045893,0.028889067957177758,-0.48784803101420404,9.736176481962204,3411,1603231320.1251416,rc,0.0,0.0,0.0,0.0,0.0,-10000.0
,,220200.763098,8.211158037185669,92917,1603884367.2898579,/world,vicon/test_obj/test_obj,-0.09030383800436043,-0.07196867289880773,1.3867863375964131,-0.005414092065713778,0.0004346783120747659,-0.00016915113615712305,0.9999852349158772,1314734.0,0.02,0.11,-0.99,0.0,-0.06,0.0,-22.21,7.2,-56.56,1314828.0,0.13,-0.07,0.99,-0.18,-0.12,0.0,12.9,182.45,86.27,77227,1603231320.7575843,body_FLU,-0.01666921985922365,-0.01682669089906397,0.696825337820492,0.7168496691455115,0.0006198629271239042,0.005117589607834816,0.003138704691082239,-0.08700116607639939,-0.5705670379847289,9.834470302462577,3412,1603231320.704887,rc,0.0,0.0,0.0,0.0,0.0,-10000.0
,,220200.863648,8.311657905578613,92927,1603884367.3896897,/world,vicon/test_obj/test_obj,-0.09030969166710094,-0.07197114231959686,1.386785327836209,-0.005406086911611142,0.00046309534095329713,-0.000181192510022167,0.9999852633595575,1314834.0,0.02,0.11,-1.0,-0.06,-0.06,0.0,-24.01,6.6,-56.26,1314928.0,0.13,-0.06,1.0,-0.06,-0.18,-0.06,13.2,179.59,85.67,77234,1603231320.8601923,body_FLU,-0.016607987560345677,-0.016812048927032527,0.6967932802907062,0.7168825945033035,0.005778346676379442,0.0033898113761097193,5.997862899675965e-05,0.005631827554665506,-0.4662401551567018,9.877024683594703,3412,1603231320.704887,rc,0.0,0.0,0.0,0.0,0.0,-10000.0
,,220200.963609,8.41161322593689,92937,1603884367.489861,/world,vicon/test_obj/test_obj,-0.09030902389177774,-0.07196651976800686,1.3867955552078934,-0.00541741629653874,0.0004726362259302678,-0.00017821383283529634,0.9999851981182011,1314935.0,0.01,0.12,-1.0,0.0,-0.06,-0.06,-22.96,6.15,-55.21,1315029.0,0.14,-0.06,1.0,-0.06,0.0,0.0,12.9,178.54,84.92,77243,1603231320.9600673,body_FLU,-0.016612385662742334,-0.016781127775878375,0.6967708555482535,0.7169050127120865,-0.001204096246510744,0.004849548451602459,-0.0005392755847424269,0.024660872952081265,-0.4806373610123992,9.89033943092823,3413,1603231320.9045658,rc,0.0,0.0,0.0,0.0,0.0,-10000.0
,,220201.063586,8.511634826660156,92947,1603884367.589816,/world,vicon/test_obj/test_obj,-0.09030778583936011,-0.07196558836008833,1.386778448653011,-0.0054884704033167945,0.0004988031215431255,-0.00016769183700232764,0.9999847997682393,1315034.0,0.02,0.11,-1.0,0.0,0.0,-0.12,-22.21,6.9,-53.41,1315128.0,0.14,-0.06,1.0,-0.12,-0.12,0.06,14.7,181.7,83.87,77251,1603231321.6003978,body_FLU,-0.016621981092000845,-0.016707806061314286,0.6967814195597073,0.7168962353908366,0.003826935077086091,0.004120553378015757,-0.002118871081620455,-0.0542738740677014,-0.4266000545360148,9.749262812912464,3414,1603231321.4404614,rc,0.0,0.0,0.0,0.0,0.0,-10000.0
,,220201.16333,8.611335039138794,92957,1603884367.6898115,/world,vicon/test_obj/test_obj,-0.0903078264432291,-0.07196749908313944,1.3867854003949804,-0.005314658857106228,0.00035548176024303546,-0.00018259148670994054,0.9999857972462908,1315134.0,0.02,0.12,-1.01,-0.12,-0.06,-0.06,-22.51,6.3,-55.06,1315229.0,0.14,-0.05,1.01,0.0,0.0,-0.06,13.95,182.15,85.97,77256,1603231321.159719,body_FLU,-0.01665761610503711,-0.016626995614894474,0.6967870855646586,0.7168917800008789,-0.0016571376472711563,0.0066974712535738945,0.0010566232958808541,0.05394879330229014,-0.3907719444036484,9.8027642390728,3414,1603231321.4404614,rc,0.0,0.0,0.0,0.0,0.0,-10000.0
,,220201.263549,8.711583614349365,92967,1603884367.789692,/world,vicon/test_obj/test_obj,-0.09029843263481106,-0.07196677715459517,1.3867825463305576,-0.005357819178405748,0.000406169226452632,-0.00018850497041751372,0.9999855465285922,1315235.0,0.01,0.12,-1.0,0.0,0.0,0.0,-23.11,6.75,-55.36,1315329.0,0.14,-0.06,0.99,-0.12,-0.12,0.06,13.35,181.25,85.82,77261,1603231321.2595618,body_FLU,-0.016700210350017543,-0.016539818493005506,0.6967834766033665,0.7168963133612903,0.00026393093867227435,0.005928349681198597,0.000601302133873105,-0.07772885200660676,-0.432575611140579,9.87228577387333,3414,1603231321.4404614,rc,0.0,0.0,0.0,0.0,0.0,-10000.0
,,220201.36382,8.811853408813477,92977,1603884367.889812,/world,vicon/test_obj/test_obj,-0.09030677816217084,-0.0719652563694255,1.3867794423614825,-0.005389424654751024,0.00037814192756313196,-0.0001723797584072202,0.9999853905911787,1315335.0,0.01,0.11,-1.0,0.0,0.0,0.12,-24.01,7.95,-55.81,1315428.0,0.14,-0.06,1.0,0.0,0.06,0.06,15.15,181.85,86.12,77267,1603231321.3594024,body_FLU,-0.016697514182466965,-0.01648478115175396,0.6967807677202652,0.7169002767091549,-0.0012927562929689884,0.0031070243567228317,0.0005910875042900443,0.025430208248086273,-0.38082772616297006,9.786820074498653,3414,1603231321.4404614,rc,0.0,0.0,0.0,0.0,0.0,-10000.0
