name,date,time,time_since_start,vicon_sequence,vicon_time_stamp,vicon_frame_id,vicon_child_frame_id,vicon_translation_x,vicon_translation_y,vicon_translation_z,vicon_rotation_x,vicon_rotation_y,vicon_rotation_z,vicon_rotation_w,int_imu_time_stamp,int_imu_acc_x,int_imu_acc_y,int_imu_acc_z,int_imu_gyro_x,int_imu_gyro_y,int_imu_gyro_z,int_imu_mag_x,int_imu_mag_y,int_imu_mag_z,ext_imu_time_stamp,ext_imu_acc_x,ext_imu_acc_y,ext_imu_acc_z,ext_imu_gyro_x,ext_imu_gyro_y,ext_imu_gyro_z,ext_imu_mag_x,ext_imu_mag_y,ext_imu_mag_z,dji_imu_sequence,dji_imu_time_stamp,dji_imu_frame_id,dji_imu_orientation_x,dji_imu_orientation_y,dji_imu_orientation_z,dji_imu_orientation_w,dji_imu_ang_vel_x,dji_imu_ang_vel_y,dji_imu_ang_vel_z,dji_imu_lin_acc_x,dji_imu_lin_acc_y,dji_imu_lin_acc_z,rc_sequence,rc_time_stamp,rc_frame_id,rc_roll,rc_pitch,rc_yaw,rc_throttle,rc_mode,rc_landing_gear
/root/Desktop/devel/VibrationTest/28102020/T000_4.csv,20201020,221243.879951,0.00030493736267089844,154537,1603885010.40316,/world,vicon/test_obj/test_obj,-0.31838423241994224,0.021243773346420726,1.3842949706983414,-0.004358395710619301,0.001703017441418698,0.01723269331736049,0.9998405564886101,1949956.0,0.01,0.11,-0.98,0.06,0.0,-0.18,-23.41,5.4,-55.81,1949994.0,0.13,-0.05,1.0,-0.12,-0.06,0.0,14.4,181.25,85.07,121561,1603231963.8665001,body_FLU,-0.015898460835137535,-0.01484238890615341,0.701606761081,0.7122323323467286,0.0041276197880506516,0.006534504238516092,-0.00106214196421206,-0.07512353240232915,-0.5220591532364488,9.835229743123055,5421,1603231963.7832808,rc,0.0,0.0,0.0,0.0,0.0,-10000.0
,,221243.891684,0.012075662612915039,154538,1603885010.4131775,/world,vicon/test_obj/test_obj,-0.31839612049320015,0.021244425770619902,1.3842879597977868,-0.004418799153952334,0.001722221484764092,0.017250543938713402,0.9998399506426081,1955756.0,0.01,0.11,-0.99,0.0,-0.06,0.0,-22.81,6.75,-54.61,1950593.0,0.15,-0.06,1.0,-0.12,-0.06,-0.06,14.4,181.55,85.52,121562,1603231963.8803735,body_FLU,-0.015908955082510213,-0.014844713617490528,0.7016031671483434,0.7122355898670124,-0.001126219634898007,0.005002704914659262,-0.0028609668370336294,-0.034501129060518,-0.525828169606626,9.77566038608551,5421,1603231963.7832808,rc,0.0,0.0,0.0,0.0,0.0,-10000.0
,,221243.999597,0.11995244026184082,154549,1603885010.5234928,/world,vicon/test_obj/test_obj,-0.3183889175135756,0.021234904267931398,1.384295275375183,-0.004345846924910285,0.0017242556750771585,0.01721571689410425,0.9998408671627171,1958056.0,0.02,0.11,-1.0,-0.06,-0.06,0.0,-22.06,7.05,-55.36,1958195.0,0.14,-0.06,0.99,-0.18,-0.06,0.12,15.3,181.7,84.32,121569,1603231963.9968584,body_FLU,-0.015929942414559025,-0.014902869398519264,0.7016264947167405,0.7122109261516979,-0.002143077552318573,0.0016300706192851067,0.0005360883078537881,-0.1153977842302993,-0.22073741586506368,9.837309442162514,5422,1603231963.982936,rc,0.0,0.0,0.0,0.0,0.0,-10000.0
,,221244.091793,0.21222209930419922,154558,1603885010.6132293,/world,vicon/test_obj/test_obj,-0.3183961683256321,0.021234050997201877,1.3842866369413382,-0.004400619356826602,0.001788915829324222,0.017203665148518097,0.9998407214326138,1958156.0,0.01,0.11,-0.99,-0.06,-0.06,0.06,-21.16,6.15,-54.91,1958295.0,0.14,-0.07,1.01,-0.12,-0.18,0.12,14.7,182.15,86.27,121577,1603231964.8001661,body_FLU,-0.015960440898325465,-0.014904527385331797,0.701632675256433,0.7122041198998021,-0.0005402604001574218,0.007594882510602474,-0.0025677657686173916,-0.0610487419674173,-0.37840010837092997,9.812732774019242,5422,1603231963.982936,rc,0.0,0.0,0.0,0.0,0.0,-10000.0
,,221244.192042,0.31239914894104004,154568,1603885010.713208,/world,vicon/test_obj/test_obj,-0.3183911853273864,0.021241356540383335,1.3843046463219701,-0.004283137166144041,0.0016741415096568012,0.01722527025936857,0.9998410583941396,1958256.0,0.02,0.12,-1.0,-0.06,-0.06,0.0,-22.66,6.6,-55.51,1958395.0,0.14,-0.07,0.99,0.06,0.0,0.06,14.7,182.15,85.97,121582,1603231964.1798608,body_FLU,-0.01599845114911098,-0.014899289756335813,0.7016455212057087,0.7121907211537902,-0.0002324253728147596,0.008286979980766773,-1.1488795280456543e-05,-0.0568195794057101,-0.37416597110778094,9.761580356240273,5422,1603231963.982936,rc,0.0,0.0,0.0,0.0,0.0,-10000.0
,,221244.291678,0.4120957851409912,154578,1603885010.813218,/world,vicon/test_obj/test_obj,-0.3183848636196858,0.021245278401585525,1.3843076400918917,-0.0042835111725488175,0.0016967828946662965,0.017210628163051776,0.9998412707715542,1958356.0,0.02,0.11,-0.99,0.0,0.0,0.0,-21.61,7.2,-56.26,1958495.0,0.14,-0.07,0.99,-0.06,-0.12,0.06,13.8,181.25,84.17,121587,1603231964.2797067,body_FLU,-0.01602434370376449,-0.014876049788836398,0.7016690631591124,0.7121674307049974,-0.0015071192756295204,0.005698852241039276,0.004191888030618429,0.016915700946003198,-0.3903773273527622,9.814958519339562,5422,1603231963.982936,rc,0.0,0.0,0.0,0.0,0.0,-10000.0
,,221244.391771,0.5122025012969971,154588,1603885010.9130807,/world,vicon/test_obj/test_obj,-0.3184000222095241,0.021238200825635573,1.3842999895653056,-0.004332020985152635,0.0016657027803931002,0.01722882584784457,0.9998408006219471,1958456.0,0.01,0.11,-0.99,-0.06,-0.12,-0.06,-23.41,5.85,-55.21,1958595.0,0.15,-0.06,0.99,-0.18,-0.18,0.06,13.8,181.25,85.07,121592,1603231964.379543,body_FLU,-0.01604426425860895,-0.01492599530190903,0.7016585763617419,0.7121762692386352,0.0013634313363581896,0.0032311412505805492,0.0012055682018399239,-0.009795588766224682,-0.5579113975167275,9.88863945221901,5422,1603231963.982936,rc,0.0,0.0,0.0,0.0,0.0,-10000.0
,,221244.491974,0.612323522567749,154598,1603885011.132265,/world,vicon/test_obj/test_obj,-0.318383533338672,0.02124349354631597,1.384300559189002,-0.00430885241878327,0.0017657127828152755,0.01721148109435736,0.9998410278477976,1958556.0,0.01,0.11,-1.0,-0.06,-0.06,0.12,-23.11,7.05,-54.01,1958695.0,0.13,-0.05,1.0,-0.12,-0.18,0.0,14.7,182.15,85.97,121598,1603231964.4794512,body_FLU,-0.016045930522165998,-0.01489855474924986,0.7016624288180394,0.7121730106970013,-0.0010070661082863808,0.001633437816053629,0.0018509840592741966,-0.048883817003108565,-0.5571605370752514,9.768353982746602,5422,1603231963.982936,rc,0.0,0.0,0.0,0.0,0.0,-10000.0
,,221244.591456,0.7118086814880371,154608,1603885011.1131756,/world,vicon/test_obj/test_obj,-0.31839830997452384,0.02124133835259439,1.3842944673333104,-0.004306808445668686,0.001682779186307152,0.017207945095625662,0.9998412405381208,1958657.0,0.02,0.11,-1.0,0.06,0.06,-0.06,-23.11,6.0,-55.66,1958795.0,0.14,-0.06,0.98,-0.12,-0.06,0.0,14.7,182.15,85.97,121604,1603231964.5792956,body_FLU,-0.01605043379401437,-0.014891827001980456,0.7016616765466628,0.712173791099682,0.0032609738409519196,0.0017357802717015147,-0.0037017243448644876,0.04621801598276943,-0.3738530304394662,9.781479454100133,5422,1603231963.982936,rc,0.0,0.0,0.0,0.0,0.0,-10000.0
,,221244.691337,0.811690092086792,154618,1603885011.213229,/world,vicon/test_obj/test_obj,-0.31839442790451983,0.02123905703942744,1.3842951669013304,-0.0043456026361657326,0.0017370649690351188,0.017218760146100288,0.9998407936476952,1958756.0,0.01,0.11,-1.02,0.0,0.06,0.0,-22.51,8.1,-54.61,1958895.0,0.14,-0.06,1.0,-0.12,-0.18,-0.06,13.95,182.15,84.92,121610,1603231964.6791804,body_FLU,-0.016090140638813373,-0.014885855890957764,0.7016848521708011,0.7121501856368907,-0.0008500657859258354,0.0030225454829633236,-0.0005369964055716991,0.01489629163686186,-0.3187772253714502,9.779929610967637,5422,1603231963.982936,rc,0.0,0.0,0.0,0.0,0.0,-10000.0
,,221244.791281,0.9116320610046387,154628,1603885011.3131535,/world,vicon/test_obj/test_obj,-0.318385216861419,0.02124132976796596,1.3842892579981254,-0.004320189958061566,0.0017206444281435257,0.017212498933052104,0.9998410399768345,1958856.0,0.02,0.1,-1.01,-0.12,-0.06,0.0,-21.76,6.0,-55.36,1958995.0,0.14,-0.06,1.0,-0.12,-0.12,0.0,14.4,181.55,85.52,121615,1603231964.778959,body_FLU,-0.016078585898526197,-0.014890313995295695,0.7017016433927993,0.7121338085531891,0.0037661753594875336,0.005685373675078154,-0.0012631752761080861,0.1336714326236397,-0.2580907968431711,9.841332140922546,5422,1603231963.982936,rc,0.0,0.0,0.0,0.0,0.0,-10000.0
,,221244.891773,1.012183427810669,154638,1603885011.4132447,/world,vicon/test_obj/test_obj,-0.31839769317692396,0.021244062599702747,1.384296429071815,-0.004302551646606483,0.0017236590116374655,0.017227822206172055,0.9998408469306365,1958957.0,0.02,0.11,-0.98,0.0,0.0,0.0,-21.91,6.9,-55.51,1959095.0,0.14,-0.06,1.0,0.0,0.12,0.0,14.7,182.15,85.67,121624,1603231964.887187,body_FLU,-0.016092928907738047,-0.014878246664107078,0.7017000038410397,0.7121353523206507,-0.00027688025147654116,0.00717584416270256,-0.0006567254313267767,-0.07852445737738162,-0.41433844693377614,9.813742245912552,5422,1603231963.982936,rc,0.0,0.0,0.0,0.0,0.0,-10000.0
,,221244.992561,1.1129140853881836,154648,1603885011.5132792,/world,vicon/test_obj/test_obj,-0.3183877560156746,0.021243870198902212,1.3842826567570048,-0.00431765462929556,0.001746284688004932,0.017229170714639096,0.9998407193272218,1959057.0,0.02,0.11,-0.99,-0.06,-0.06,0.0,-21.16,7.65,-56.26,1959195.0,0.14,-0.06,0.97,-0.06,-0.12,-0.06,13.35,182.9,84.47,121630,1603231964.989815,body_FLU,-0.016090505665831742,-0.014873887385766034,0.7017294658956565,0.7121064666152457,0.002660403260961175,0.0069332122802734375,0.004057188052684069,-0.09332083510234952,-0.4253493506982923,9.764885675668717,5423,1603231964.981466,rc,0.0,0.0,0.0,0.0,0.0,-10000.0
,,221245.093028,1.2133793830871582,154658,1603885011.6131861,/world,vicon/test_obj/test_obj,-0.3183978904565297,0.021241921068906624,1.3843014498447228,-0.0042808461788252285,0.0017231293647808677,0.017208670667989076,0.9998412708200368,1959156.0,0.01,0.1,-1.0,-0.06,-0.06,0.0,-21.61,6.6,-54.16,1959295.0,0.14,-0.06,0.99,0.0,-0.12,-0.06,13.05,182.3,84.77,121640,1603231965.8683481,body_FLU,-0.016102058717793872,-0.014873297841652117,0.7017260590386684,0.7121095749829668,-0.0013942220248281956,0.003007821273058653,0.0028199665248394012,-0.10820495013054461,-0.4091840720549226,9.86549170088768,5423,1603231964.981466,rc,0.0,0.0,0.0,0.0,0.0,-10000.0
,,221245.19249,1.3128454685211182,154668,1603885011.7132895,/world,vicon/test_obj/test_obj,-0.31838979942982565,0.021240483846850844,1.3842925695275279,-0.004310244712771214,0.0016920849596469495,0.017223881468663067,0.9998409356223413,1959256.0,0.02,0.11,-0.99,-0.06,-0.18,-0.12,-22.81,6.0,-55.06,1959396.0,0.13,-0.07,1.0,0.06,0.06,0.12,15.0,182.75,85.97,121647,1603231965.1867306,body_FLU,-0.016073278304958666,-0.014839439341677647,0.7017172530419152,0.7121196090179406,0.005091098137199879,0.002437462331727147,0.00022211921168491244,-0.09151155900768936,-0.4473654624223709,9.905585494279862,5423,1603231964.981466,rc,0.0,0.0,0.0,0.0,0.0,-10000.0
,,221245.292215,1.4125769138336182,154678,1603885011.8132865,/world,vicon/test_obj/test_obj,-0.318385860350805,0.021241810495098025,1.3842974846121747,-0.004388065817174683,0.001739326786545869,0.01722402258917594,0.9998405136153272,1959356.0,0.01,0.11,-1.0,-0.06,-0.06,-0.06,-21.91,6.6,-54.16,1959495.0,0.14,-0.05,1.01,0.06,0.0,0.0,13.65,180.65,85.22,121653,1603231965.2865312,body_FLU,-0.01604656185868957,-0.01482389470700495,0.7017225540706342,0.7121153116643516,-0.0018213376170024276,0.0015425628516823053,0.0008574260282330215,-0.05168421336309984,-0.39460281137377023,9.900233190178872,5423,1603231964.981466,rc,0.0,0.0,0.0,0.0,0.0,-10000.0
,,221245.392044,1.512399435043335,154688,1603885011.9131901,/world,vicon/test_obj/test_obj,-0.3183948295239816,0.02124326136248492,1.3842942291069924,-0.004323428375136658,0.00172731317323337,0.01721445487107512,0.9998409808063372,1959456.0,0.01,0.1,-0.99,-0.18,-0.06,-0.06,-23.41,6.15,-55.51,1959595.0,0.15,-0.06,1.0,-0.06,-0.06,0.06,14.25,182.15,85.97,121659,1603231965.386382,body_FLU,-0.0160148272363163,-0.014818479574408407,0.7016925293589389,0.7121457240014494,0.0016621177783235908,0.003091632155701518,-0.00443623773753643,0.039744021677412096,-0.37181992016360166,9.816836090326309,5423,1603231964.981466,rc,0.0,0.0,0.0,0.0,0.0,-10000.0
,,221245.49153,1.6118836402893066,154698,1603885012.132742,/world,vicon/test_obj/test_obj,-0.31839313974466826,0.021238354843163915,1.3842980963430418,-0.0043338285967295396,0.0017084687929637757,0.017236637949036793,0.9998405859817311,1959557.0,0.01,0.11,-0.99,-0.06,-0.12,0.0,-22.51,6.75,-55.36,1959695.0,0.15,-0.06,0.99,-0.06,-0.12,0.06,14.4,181.55,84.77,121668,1603231965.4862092,body_FLU,-0.01600173508887707,-0.014752021458856459,0.7017108201488683,0.7121293753406226,-0.00019761890871450305,0.005425268318504095,0.0015463880263268948,-0.11603656327910722,-0.28093918981030586,9.867248929738999,5424,1603231965.4030142,rc,0.0,0.0,0.0,0.0,0.0,-10000.0
,,221245.591472,1.711827039718628,154708,1603885012.113125,/world,vicon/test_obj/test_obj,-0.31839241659473755,0.021243520353839414,1.3842880244209215,-0.004296058249985017,0.001707913292268133,0.017201821067357057,0.99984134954885,1959656.0,0.01,0.11,-1.01,-0.06,-0.06,0.0,-22.96,5.85,-55.21,1959796.0,0.14,-0.06,0.99,0.0,-0.12,-0.06,14.7,181.1,84.62,121674,1603231965.574965,body_FLU,-0.016017812580415992,-0.014715332643143675,0.7017134457323956,0.7121271857917718,-0.0004935025935992599,0.005102646537125111,0.004102269187569618,0.1250733412094414,-0.3634663284793496,9.771035392463208,5425,1603231965.5832582,rc,0.0,0.0,0.0,0.0,0.0,-10000.0
,,221245.69143,1.8117961883544922,154718,1603885012.21322,/world,vicon/test_obj/test_obj,-0.3183879802533596,0.021238106946340575,1.3842957038144517,-0.004361144500418531,0.0017603128924567027,0.017235136684734656,0.9998404031547363,1959757.0,0.02,0.11,-1.0,-0.12,-0.06,-0.06,-25.06,6.15,-54.91,1959895.0,0.14,-0.06,0.99,-0.06,-0.06,0.0,14.25,183.5,84.92,121683,1603231965.6803284,body_FLU,-0.01605048929711144,-0.014663025851644603,0.701712462659417,0.71212849768469,-0.0014198031276464462,0.004720325116068125,-0.0043973615393042564,0.10974603961408139,-0.3818357741050422,9.824351047754288,5425,1603231965.5832582,rc,0.0,0.0,0.0,0.0,0.0,-10000.0
,,221245.791751,1.9121665954589844,154728,1603885012.3131917,/world,vicon/test_obj/test_obj,-0.31839435331809784,0.02123994900066983,1.3842914578344727,-0.00438332345785676,0.001769580182808465,0.017224951402168703,0.9998404653296612,1959856.0,0.02,0.11,-0.99,-0.06,-0.06,-0.06,-22.51,6.0,-56.11,1959995.0,0.14,-0.06,0.99,-0.06,-0.12,0.06,14.7,183.2,84.62,121689,1603231965.7746372,body_FLU,-0.01610754358252299,-0.014642972426524532,0.7017242397589821,0.7121160170456298,-0.0008366401889361441,0.0037104859948158264,0.00034586855326779187,0.06756625806447118,-0.2996500003617257,9.812032920241355,5426,1603231965.782943,rc,0.0,0.0,0.0,0.0,0.0,-10000.0
,,221245.891503,2.0118565559387207,154738,1603885012.4131587,/world,vicon/test_obj/test_obj,-0.31839220948830094,0.02124036773637347,1.3842870784223291,-0.004310010731507436,0.0017430624648468922,0.017205968196890364,0.9998411574841003,1959956.0,0.02,0.12,-0.99,-0.06,-0.06,-0.06,-24.91,7.05,-55.06,1960095.0,0.14,-0.06,0.98,-0.06,-0.12,0.06,14.25,181.7,84.32,121698,1603231965.879994,body_FLU,-0.016054601148659794,-0.014602729311001093,0.7017336689619537,0.7121087472597302,0.0013279840350151062,0.00012926278577651829,0.0029709867667406797,-0.059415835012681786,-0.4344765860438347,9.93397689127922,5426,1603231965.782943,rc,0.0,0.0,0.0,0.0,0.0,-10000.0
,,221245.992449,2.11281156539917,154748,1603885012.5131466,/world,vicon/test_obj/test_obj,-0.3183903807134152,0.0212417358060358,1.3842892535177362,-0.004402699730311625,0.0017382154604237933,0.017240342496304063,0.9998401699435305,1960057.0,0.02,0.11,-0.99,-0.18,-0.12,0.0,-22.81,5.7,-54.61,1960195.0,0.14,-0.07,0.99,-0.12,-0.06,-0.06,13.65,182.45,85.22,121705,1603231965.9909983,body_FLU,-0.01600479111555848,-0.014556537413657034,0.7017360463981419,0.7121084714180677,0.002613586839288473,0.005290056578814983,-0.0005440725944936275,-0.02166205446375534,-0.4792490450665355,9.873088444232941,5427,1603231965.9826338,rc,0.0,0.0,0.0,0.0,0.0,-10000.0
,,221246.092876,2.2132251262664795,154758,1603885012.613285,/world,vicon/test_obj/test_obj,-0.3183863207158451,0.021242496141364305,1.3842832143368482,-0.004319198991714733,0.0016868652727278944,0.017234840295035893,0.9998407169572693,1960156.0,0.01,0.11,-1.0,0.06,0.0,-0.06,-23.11,5.25,-53.71,1960295.0,0.14,-0.06,1.01,-0.06,0.0,0.12,13.05,180.8,84.77,121712,1603231966.7967885,body_FLU,-0.015952694865730355,-0.014522027299125407,0.7017377690463189,0.7121086474292666,0.0038745817728340626,0.0022690407931804657,0.0013994333567097783,-0.052022273991722615,-0.5622563108839095,9.750077166974545,5427,1603231965.9826338,rc,0.0,0.0,0.0,0.0,0.0,-10000.0
,,221246.192879,2.3132269382476807,154768,1603885012.7132292,/world,vicon/test_obj/test_obj,-0.3183885545196177,0.021242417678276015,1.38428625228958,-0.004402414413118214,0.0017617989969241706,0.017228346315315828,0.9998403367012502,1960257.0,0.01,0.11,-1.0,-0.06,-0.06,0.0,-22.21,5.4,-54.91,1960395.0,0.15,-0.06,0.99,-0.18,-0.12,0.12,14.85,181.85,85.52,121719,1603231966.1906517,body_FLU,-0.01587042829004677,-0.01450044072927916,0.7017618253025936,0.7120872188661438,-0.0004359693266451359,-0.001543660880997777,0.002532648155465722,-0.03463953985925764,-0.5015778418779373,9.911166798949242,5428,1603231966.182324,rc,0.0,0.0,0.0,0.0,0.0,-10000.0
,,221246.291508,2.4118590354919434,154778,1603885012.8132083,/world,vicon/test_obj/test_obj,-0.318396080593109,0.0212429326602876,1.3842882036824702,-0.004393321663912711,0.001760068126509687,0.01722897517958565,0.9998403689085616,1960356.0,0.02,0.1,-0.99,0.0,-0.06,-0.06,-23.11,6.0,-56.11,1960495.0,0.14,-0.06,1.0,-0.06,-0.06,-0.12,15.45,181.55,86.42,121727,1603231966.2793844,body_FLU,-0.015859630962735943,-0.014492312754884414,0.7017669592786387,0.7120825653262084,0.0029481046367436647,0.00785822607576847,-0.002115428214892745,-0.06552464515669272,-0.3945672125928104,9.884404110074044,5428,1603231966.182324,rc,0.0,0.0,0.0,0.0,0.0,-10000.0
,,221246.391765,2.5121726989746094,154788,1603885012.913174,/world,vicon/test_obj/test_obj,-0.3183921870885408,0.021241570729179423,1.3842914188265443,-0.004484322031404351,0.001786847486950732,0.017219358667623513,0.9998400830728146,1960456.0,0.02,0.12,-0.99,-0.06,-0.06,-0.12,-23.71,8.25,-54.91,1960596.0,0.14,-0.06,1.0,-0.06,-0.12,0.06,14.1,182.3,85.52,121733,1603231966.3792038,body_FLU,-0.015870407800231898,-0.014466677235490269,0.7017673093889522,0.7120825014554206,-0.0007037073373794556,0.007183591835200787,0.00045575283002108335,-0.04266898638708517,-0.3801328379586339,9.791138955116272,5428,1603231966.182324,rc,0.0,0.0,0.0,0.0,0.0,-10000.0
,,221246.491666,2.612067937850952,154798,1603885013.1329198,/world,vicon/test_obj/test_obj,-0.31838563954730803,0.02124195407415768,1.384288262610879,-0.004385983039340061,0.001694449937220468,0.01724224154240733,0.9998402857950774,1960556.0,0.02,0.1,-0.99,0.06,-0.06,-0.12,-21.16,7.2,-55.51,1960695.0,0.14,-0.06,0.99,-0.06,-0.06,-0.06,14.85,182.3,86.42,121738,1603231966.4790363,body_FLU,-0.01592324309012233,-0.014482818992773107,0.7017675267827082,0.7120807795726525,0.003052016254514456,0.004883310757577419,0.003870671149343252,0.01596214652247727,-0.39839008352905514,9.82634662413597,5428,1603231966.182324,rc,0.0,0.0,0.0,0.0,0.0,-10000.0
,,221246.591878,2.7122843265533447,154808,1603885013.1132286,/world,vicon/test_obj/test_obj,-0.31839355440818456,0.021236756331177706,1.3842962958951999,-0.004353546338959093,0.001706197108933054,0.017250090942603023,0.999840272187599,1960656.0,0.01,0.11,-0.99,-0.06,0.0,0.06,-23.56,6.0,-54.31,1960795.0,0.14,-0.06,1.0,0.0,0.06,-0.18,13.95,181.4,84.62,121747,1603231966.5872371,body_FLU,-0.016000639683132426,-0.014495153195816714,0.7017538535218072,0.7120922686919542,-0.00014639532309956849,0.006402782164514065,-0.001963160466402769,-0.00678354852553457,-0.30494514559954405,9.78358777821064,5428,1603231966.182324,rc,0.0,0.0,0.0,0.0,0.0,-10000.0
,,221246.692358,2.812755823135376,154818,1603885013.2132163,/world,vicon/test_obj/test_obj,-0.3183878212939846,0.02124347272054913,1.3842892164330096,-0.004365956354392359,0.0017521549349207813,0.01721996492083779,0.9998406578982076,1960756.0,0.01,0.11,-1.0,-0.06,-0.12,0.0,-23.41,6.9,-55.21,1960896.0,0.15,-0.06,1.0,0.06,0.0,0.06,13.05,182.3,85.52,121753,1603231966.6898599,body_FLU,-0.01602979184433054,-0.014485706619493,0.7017603198121584,0.7120854328058528,0.0027214870788156986,0.003906292840838432,0.004098495468497276,-0.09569310135394335,-0.4406524816341698,9.861394226431846,5429,1603231966.6815054,rc,0.0,0.0,0.0,0.0,0.0,-10000.0
,,221246.791765,2.9121787548065186,154828,1603885013.3132398,/world,vicon/test_obj/test_obj,-0.3183936100236496,0.021243772906791178,1.3842968467644023,-0.00434831872804789,0.001708979221101681,0.017245566537211453,0.9998403682333854,1960857.0,0.02,0.11,-0.99,-0.06,0.06,-0.06,-22.81,5.25,-55.66,1960995.0,0.14,-0.06,0.99,-0.12,-0.06,-0.06,14.7,181.4,84.92,121763,1603231966.786961,body_FLU,-0.01603497831924542,-0.014453234910295563,0.7017564049634919,0.7120898339139836,-0.000892125885002315,0.006031508557498455,0.00197159918025136,-0.021657504209317266,-0.38299530855193736,9.886173022627831,5429,1603231966.6815054,rc,0.0,0.0,0.0,0.0,0.0,-10000.0
,,221246.892549,3.0129072666168213,154838,1603885013.4133508,/world,vicon/test_obj/test_obj,-0.3183837396836053,0.02124166746377286,1.3842826671118178,-0.004329748554012035,0.0017295304864227909,0.017231941845325578,0.9998406483945304,1960956.0,0.01,0.11,-1.0,0.0,0.0,0.0,-24.91,7.05,-55.06,1961095.0,0.14,-0.06,1.01,-0.12,-0.12,0.0,15.0,182.15,85.22,121770,1603231966.8868046,body_FLU,-0.016018446205518275,-0.014496232299370025,0.7017345664483509,0.7121108529448407,0.005879601463675499,0.0020127238240092993,0.0007647407473996282,-0.002686265755444765,-0.45863618252053856,9.792764158129692,5429,1603231966.6815054,rc,0.0,0.0,0.0,0.0,0.0,-10000.0
,,221246.992356,3.1127073764801025,154848,1603885013.5133042,/world,vicon/test_obj/test_obj,-0.3183897715041798,0.021242824775562656,1.3842849146604335,-0.004280347210414691,0.001672049650018093,0.017244357190124883,0.9998407448303083,1961056.0,0.02,0.11,-1.01,-0.06,-0.06,-0.18,-23.86,6.3,-53.71,1961196.0,0.14,-0.06,1.01,-0.06,-0.06,-0.06,14.7,181.7,85.67,121779,1603231966.9893901,body_FLU,-0.016003766591610947,-0.014520150449077335,0.7017237344022471,0.7121213697554524,-0.000573099940083921,0.0014023183612152934,-0.0011169242206960917,0.038985840666107836,-0.31713197750598193,9.802171875357628,5431,1603231966.9616132,rc,0.0,0.0,0.0,0.0,0.0,-10000.0
,,221247.092434,3.212789297103882,154858,1603885013.6132162,/world,vicon/test_obj/test_obj,-0.3183932670526559,0.021242253790320957,1.3842841034467892,-0.004362221077456705,0.0017652290968996403,0.017203920796433847,0.9998409273993223,1961156.0,0.01,0.11,-1.0,0.0,0.0,-0.06,-22.51,6.75,-55.66,1961295.0,0.14,-0.06,1.0,-0.12,-0.06,-0.06,13.65,181.4,84.32,121789,1603231967.864579,body_FLU,-0.015969879870180698,-0.014500929670513566,0.7017146130321132,0.7121315102091847,0.00273470813408494,0.003541374346241355,-0.001804705010727048,0.031342125185765325,-0.296866193946451,9.755490810513496,5431,1603231966.9616132,rc,0.0,0.0,0.0,0.0,0.0,-10000.0
,,221247.192823,3.3131697177886963,154868,1603885013.7131846,/world,vicon/test_obj/test_obj,-0.3183910429578602,0.02124080239705978,1.3842964479345479,-0.004343016395910792,0.0017829629206241686,0.017235410120180483,0.9998404372147577,1961256.0,0.01,0.11,-1.0,0.0,0.0,0.0,-24.01,7.65,-55.21,1961395.0,0.15,-0.07,1.01,-0.12,-0.12,0.12,14.7,181.1,86.27,121795,1603231967.1890728,body_FLU,-0.015955618431020016,-0.01453643866538924,0.7017232564835137,0.7121225888157066,-0.0019200819078832865,0.007088253740221262,-0.00026118505047634244,-0.0736539873406291,-0.3707041630893946,9.893092111229898,5432,1603231967.1612928,rc,0.0,0.0,0.0,0.0,0.0,-10000.0
,,221247.291829,3.4122512340545654,154878,1603885013.8131819,/world,vicon/test_obj/test_obj,-0.3183850113980751,0.021238369956964,1.384271780901151,-0.004349832667193065,0.0017532189167663208,0.017221661351263948,0.9998406970910414,1961356.0,0.01,0.11,-1.0,0.0,0.06,0.12,-23.41,6.6,-55.81,1961496.0,0.14,-0.06,0.98,-0.06,-0.18,0.06,15.15,182.9,85.52,121804,1603231967.2805555,body_FLU,-0.015964025790033382,-0.014577161498001806,0.7017153814939089,0.7121293278738732,0.0010863984934985638,0.004981146194040775,-0.0009607503889128566,0.004505755961872637,-0.3153723754025996,9.74628989481926,5432,1603231967.1612928,rc,0.0,0.0,0.0,0.0,0.0,-10000.0
,,221247.391969,3.5123252868652344,154888,1603885013.9132621,/world,vicon/test_obj/test_obj,-0.31838940757927436,0.021242098670667772,1.384296772212942,-0.004328833779206249,0.0017507864712056895,0.01721688689432411,0.999840874714828,1961456.0,0.02,0.12,-1.0,0.12,0.0,0.0,-20.86,7.2,-54.91,1961595.0,0.15,-0.06,0.99,-0.06,-0.12,-0.06,14.7,182.15,85.22,121810,1603231967.3748448,body_FLU,-0.015982930226000704,-0.014613108098509743,0.701729940406628,0.7121138207828874,0.0019894142169505358,-3.408233169466257e-06,0.0008896463550627232,-0.022195853620301933,-0.5294913754463196,9.771655797064305,5433,1603231967.3831708,rc,0.0,0.0,0.0,0.0,0.0,-10000.0
,,221247.49181,3.612205982208252,154898,1603885014.132563,/world,vicon/test_obj/test_obj,-0.31839681957473276,0.021240120182824743,1.3842796505226196,-0.0043231102728644236,0.0016940300269144277,0.01721745983800855,0.9998409873857759,1961556.0,0.01,0.1,-0.99,0.0,0.0,0.06,-22.96,7.2,-54.91,1961695.0,0.14,-0.06,1.0,-0.06,-0.06,-0.06,14.1,182.6,85.07,121819,1603231967.4802728,body_FLU,-0.015937658911135622,-0.014609197570161239,0.7017244865518238,0.7121202899429052,0.0008335309103131294,0.001784623134881258,0.0018450275529175997,0.01805043490882963,-0.43989599841088056,9.813278402924539,5433,1603231967.3831708,rc,0.0,0.0,0.0,0.0,0.0,-10000.0
,,221247.591441,3.7118334770202637,154908,1603885014.1130474,/world,vicon/test_obj/test_obj,-0.3183896323478647,0.021239095250867198,1.384287212382347,-0.00431706166394236,0.0017169784990463289,0.017203048250054042,0.9998412224420085,1961656.0,0.02,0.11,-0.99,-0.06,-0.06,-0.12,-23.41,6.9,-55.81,1961796.0,0.14,-0.05,0.99,-0.18,-0.06,0.0,15.75,182.75,84.92,121825,1603231967.574557,body_FLU,-0.01590665928316497,-0.014583992996881146,0.7017322127638412,0.7121138861925662,0.003296270500868559,0.004422985017299652,0.0004652643110603094,-0.1687615526430309,-0.5158132649660111,9.938680749893189,5434,1603231967.5828767,rc,0.0,0.0,0.0,0.0,0.0,-10000.0
,,221247.691871,3.812282085418701,154918,1603885014.2132177,/world,vicon/test_obj/test_obj,-0.3183855284652139,0.02123874686010206,1.384280447245431,-0.004301927260761686,0.0016968441406236153,0.017211102274230883,0.9998411834388057,1961756.0,0.01,0.11,-0.98,0.0,0.0,-0.06,-21.91,7.65,-54.91,1961895.0,0.14,-0.07,0.99,-0.06,-0.12,-0.06,14.1,181.55,85.52,121833,1603231967.6799536,body_FLU,-0.015925945462971238,-0.014559815157287465,0.7017278738149682,0.7121182255460256,-0.001418274361640215,0.007028005085885525,0.00021610973635688424,0.0028039151625707747,-0.36021384129300715,9.724077423870563,5434,1603231967.5828767,rc,0.0,0.0,0.0,0.0,0.0,-10000.0
,,221247.793455,3.9138100147247314,154928,1603885014.3132105,/world,vicon/test_obj/test_obj,-0.31840027247393526,0.021237668901054083,1.3842953880954838,-0.004360631848841142,0.0017276662943807673,0.017200821248216543,0.9998410532716893,1961856.0,0.01,0.11,-1.01,-0.06,-0.12,-0.06,-24.01,6.15,-54.91,1961995.0,0.14,-0.06,1.0,-0.06,-0.12,-0.06,14.85,183.35,85.07,121840,1603231967.7908914,body_FLU,-0.01594674554896552,-0.014504506945342865,0.7017273836598746,0.7121193717394129,-0.003716230159625411,-0.0006991003756411374,0.002636354649439454,0.08912424086127431,-0.45601903316751125,9.769871695697308,5435,1603231967.7825398,rc,0.0,0.0,0.0,0.0,0.0,-10000.0
,,221247.891665,4.012013673782349,154938,1603885014.413151,/world,vicon/test_obj/test_obj,-0.3183868910009638,0.021245544336148264,1.3842826879446473,-0.004303067521372991,0.0017139384232529753,0.01722963486601116,0.9998408301861711,1961956.0,0.01,0.11,-1.0,-0.06,-0.18,-0.06,-23.71,5.85,-55.81,1962096.0,0.14,-0.07,0.99,-0.06,-0.06,0.06,15.45,181.85,86.42,121847,1603231967.8795965,body_FLU,-0.015998727657073594,-0.01451983453751407,0.7017258896948038,0.7121193655914675,-0.002264128066599369,0.0075120748952031136,0.0014134413795545697,-0.011136152142193169,-0.3827554275356233,9.726092278361321,5435,1603231967.7825398,rc,0.0,0.0,0.0,0.0,0.0,-10000.0
,,221247.992618,4.112974405288696,154948,1603885014.5130982,/world,vicon/test_obj/test_obj,-0.318393398601641,0.021242825988832533,1.3842889187005973,-0.004395881358733732,0.0017595880179530252,0.017229880382980123,0.9998403429043435,1962057.0,0.01,0.12,-1.0,0.0,-0.06,-0.06,-21.76,7.05,-56.11,1962195.0,0.14,-0.07,0.99,-0.12,-0.06,0.06,14.4,180.8,86.12,121854,1603231967.9905787,body_FLU,-0.016053515602599957,-0.014521007712310302,0.7017274257740941,0.7121165950097493,-0.0017462573014199734,0.0031374655663967133,-0.0009185491362586617,0.009650610448792576,-0.4283506017699838,9.872343024015427,5436,1603231967.9822757,rc,0.0,0.0,0.0,0.0,0.0,-10000.0
,,221248.091886,4.212287187576294,154958,1603885014.6131933,/world,vicon/test_obj/test_obj,-0.3183915797296483,0.021244002087500508,1.3842769011335576,-0.004405564288081703,0.0017691043912322496,0.01721258921818674,0.9998405813155228,1962156.0,0.01,0.11,-1.0,-0.06,-0.06,-0.06,-23.71,6.9,-54.91,1962296.0,0.14,-0.06,1.0,0.0,0.0,-0.12,13.35,181.25,84.77,121862,1603231968.792813,body_FLU,-0.01607374942492334,-0.014593554200929688,0.7017484106868523,0.7120939761391653,-0.003050949890166521,0.006072780583053827,0.0026246386114507914,-0.11361404797900468,-0.4799394788593054,9.947476241111756,5436,1603231967.9822757,rc,0.0,0.0,0.0,0.0,0.0,-10000.0
,,221248.191441,4.311792612075806,154968,1603885014.713294,/world,vicon/test_obj/test_obj,-0.3183937441039229,0.02124453688113876,1.3842912253033797,-0.004368236692664809,0.0017515138793490945,0.017233308698040732,0.9998404191562998,1962256.0,0.03,0.1,-1.0,-0.12,-0.24,-0.06,-21.46,6.3,-54.61,1962396.0,0.13,-0.07,0.99,0.0,-0.06,-0.12,13.8,182.9,85.07,121868,1603231968.1791472,body_FLU,-0.016090922231640544,-0.014627033770795031,0.701760398466546,0.7120810875517464,-0.00020843434322159737,0.006560259964317083,0.0037808914203196764,0.10113662048522383,-0.38328597716242074,9.81155856192112,5436,1603231967.9822757,rc,0.0,0.0,0.0,0.0,0.0,-10000.0
,,221248.291523,4.411872863769531,154978,1603885014.8132236,/world,vicon/test_obj/test_obj,-0.31839056530277515,0.021244275313293016,1.3842724863500298,-0.0043777602013984765,0.0017340144302385985,0.01720928949683493,0.999840821713431,1962357.0,0.01,0.12,-1.0,0.0,0.0,0.0,-23.11,5.25,-55.06,1962496.0,0.13,-0.06,1.0,-0.06,-0.18,0.0,14.7,181.1,85.67,121874,1603231968.2789803,body_FLU,-0.01608185394168584,-0.014584449119449752,0.7017611273078646,0.7120814476008174,0.0020458882208913565,0.0062568653374910355,0.0014267824590206146,0.04063835433404893,-0.40106572441756727,9.794873066425323,5436,1603231967.9822757,rc,0.0,0.0,0.0,0.0,0.0,-10000.0
,,221248.391865,4.512273073196411,154988,1603885014.9131436,/world,vicon/test_obj/test_obj,-0.3183949703409855,0.02124129813746247,1.384295665861726,-0.0043491027644688195,0.0017918520107512905,0.017206655232285237,0.999840890135642,1962457.0,0.02,0.11,-1.01,0.0,0.0,0.0,-23.56,6.3,-55.06,1962596.0,0.14,-0.06,0.99,0.0,0.0,-0.06,14.25,181.7,86.27,121880,1603231968.378828,body_FLU,-0.01608050717827282,-0.014562352564949347,0.7017771322967948,0.7120661568716424,-0.0005181821761652827,0.004000709857791662,0.004378805868327618,0.0020592616880312563,-0.42457833587005733,9.783624581873417,5436,1603231967.9822757,rc,0.0,0.0,0.0,0.0,0.0,-10000.0
,,221248.4926,4.612948417663574,154998,1603885015.131758,/world,vicon/test_obj/test_obj,-0.3183874574242467,0.02125144230065446,1.384278667495482,-0.004334343661497114,0.001759072808700678,0.017219966605950106,0.9998407832639994,1962556.0,0.02,0.11,-0.99,-0.06,0.0,0.0,-22.51,7.5,-56.71,1962696.0,0.14,-0.05,0.99,-0.06,-0.12,-0.12,13.2,182.15,86.27,121888,1603231968.4898074,body_FLU,-0.016054953407368042,-0.014575085870529051,0.7017762611023642,0.712067331574859,0.00021006721362937242,0.008196364156901836,0.0009760430548340082,0.027818366160616278,-0.32981587792932987,9.793872941493989,5437,1603231968.4814417,rc,0.0,0.0,0.0,0.0,0.0,-10000.0
,,221248.591641,4.711991548538208,155008,1603885015.1131272,/world,vicon/test_obj/test_obj,-0.3183945176705336,0.021243222790914316,1.3842876014176955,-0.0043320623081185726,0.0017121915095034965,0.017219095075668163,0.9998408895425154,1962657.0,0.02,0.11,-1.0,0.0,0.0,-0.12,-21.16,6.15,-54.91,1962795.0,0.14,-0.06,0.99,-0.06,-0.06,0.12,14.4,182.3,84.17,121894,1603231968.5785491,body_FLU,-0.01606389319058478,-0.01461445596416197,0.7017548977661578,0.7120873769936119,-0.0005610543885268271,0.0015736136119812727,-0.003573938272893429,-0.03277440562611446,-0.4261527878008783,9.85117566025257,5438,1603231968.5036178,rc,0.0,0.0,0.0,0.0,0.0,-10000.0
,,221248.692481,4.8128368854522705,155018,1603885015.2130897,/world,vicon/test_obj/test_obj,-0.31839262796483925,0.021242699083000638,1.3842875775570938,-0.00436645505151457,0.0017409691051277452,0.017234506963546836,0.9998404247011528,1962757.0,0.01,0.11,-0.99,-0.12,0.0,-0.06,-22.81,6.75,-54.31,1962896.0,0.14,-0.05,0.99,-0.12,-0.06,0.06,13.8,180.5,85.52,121903,1603231968.686672,body_FLU,-0.0160205858655746,-0.014648614198479485,0.7017548315606434,0.7120877160237219,-0.0007602939149364829,0.000832614372484386,-0.001110175857320428,0.18646515501849353,-0.36080405082553624,9.765612986147405,5438,1603231968.5036178,rc,0.0,0.0,0.0,0.0,0.0,-10000.0
,,221248.792281,4.912636041641235,155028,1603885015.313068,/world,vicon/test_obj/test_obj,-0.31839144907420475,0.0212421391394149,1.3842844064285982,-0.0043396518235277876,0.001738854983390062,0.01722303154282217,0.9998407428135104,1962856.0,0.02,0.12,-1.0,0.0,-0.12,0.0,-22.51,7.05,-54.61,1962995.0,0.13,-0.06,1.0,0.0,0.06,0.0,13.95,181.4,85.67,121909,1603231968.7865293,body_FLU,-0.01601827181583728,-0.014696281002382367,0.7017521330938975,0.7120894452180131,-0.0006577475578524172,0.0033736112527549267,-0.0023936708457767963,-0.018751981910783797,-0.4974353486560285,9.814060042619705,5438,1603231968.5036178,rc,0.0,0.0,0.0,0.0,0.0,-10000.0
,,221248.892144,5.0125086307525635,155038,1603885015.4132206,/world,vicon/test_obj/test_obj,-0.31838943507168305,0.0212439675207547,1.384277800625235,-0.004472303535281858,0.0018056252576150293,0.017208770140688414,0.9998402854700156,1962956.0,0.01,0.11,-0.99,0.06,0.06,0.0,-22.51,5.7,-55.36,1963095.0,0.14,-0.05,1.0,-0.06,-0.12,0.06,14.85,180.8,86.87,121915,1603231968.8863473,body_FLU,-0.015970890843545006,-0.014701509544289074,0.7017581927539928,0.7120844298012932,-0.00041370425606146455,0.0037796027027070522,0.0014220722950994968,-0.036417178678326306,-0.4217674196138978,9.872937724471093,5438,1603231968.5036178,rc,0.0,0.0,0.0,0.0,0.0,-10000.0
,,221248.991601,5.1119561195373535,155048,1603885015.5132694,/world,vicon/test_obj/test_obj,-0.3183966410355192,0.021240906177110018,1.3842933109419506,-0.004402909589209775,0.0017334897209174127,0.017223175369769306,0.999840473090942,1963057.0,0.01,0.11,-1.0,0.06,0.0,-0.06,-23.11,7.5,-55.66,1963196.0,0.14,-0.06,0.99,0.0,-0.12,0.0,13.65,181.7,85.22,121921,1603231968.9751174,body_FLU,-0.015931090541957516,-0.014710737368607606,0.701764073759795,0.7120793350043749,-0.001986689632758498,0.005872377194464207,0.0030492637306451797,0.02324436094611883,-0.41715757829323413,9.665523964762688,5439,1603231968.9834185,rc,0.0,0.0,0.0,0.0,0.0,-10000.0
,,221249.091787,5.212196350097656,155058,1603885015.6130636,/world,vicon/test_obj/test_obj,-0.3183871074104273,0.02124477501625066,1.3842879737949454,-0.004347940613668609,0.0017661558496904599,0.017205496333957654,0.9998409608541934,1963156.0,0.02,0.12,-1.0,-0.06,-0.06,0.0,-22.96,5.85,-55.81,1963296.0,0.14,-0.05,0.99,-0.06,-0.06,0.06,15.3,180.65,85.97,121930,1603231969.7492166,body_FLU,-0.015910126903646675,-0.014738824327896657,0.7017617784110706,0.7120814850006091,0.003784528933465481,0.0035350986290723085,0.0006738440133631229,0.08046598750725388,-0.4993753544278443,9.794676780223847,5440,1603231969.8329697,rc,0.0,0.0,0.0,0.0,0.0,-10000.0
,,221249.191547,5.311902046203613,155068,1603885015.7131271,/world,vicon/test_obj/test_obj,-0.318397072537826,0.02124127432114254,1.3842939212146155,-0.004311221526399022,0.0017029229522968153,0.017230533840699225,0.9998407983903904,1963256.0,0.02,0.11,-1.0,-0.06,-0.06,-0.12,-23.86,6.3,-55.66,1963396.0,0.14,-0.06,1.0,-0.12,-0.18,-0.06,13.2,181.7,85.22,121939,1603231969.1803427,body_FLU,-0.015855472099455478,-0.014744322152822167,0.701776738698633,0.7120678464797212,-0.0009941674070432782,0.005695727653801441,-0.0013448059326037765,0.005617003857158125,-0.4724218925982714,9.791365034759044,5440,1603231969.8329697,rc,0.0,0.0,0.0,0.0,0.0,-10000.0
,,221249.292566,5.412935972213745,155078,1603885015.813211,/world,vicon/test_obj/test_obj,-0.3183845185280786,0.021246209092005246,1.3842782886521872,-0.004401664727364184,0.0017539821387308181,0.017210819914474915,0.9998406555907579,1963356.0,0.01,0.11,-0.99,-0.12,-0.12,0.12,-22.96,5.1,-56.26,1963496.0,0.13,-0.07,1.0,0.12,0.0,0.0,15.0,181.4,85.67,121946,1603231969.2912722,body_FLU,-0.015813591817034425,-0.014739424183552875,0.7017619684668406,0.7120834356324591,-0.00022370803344529122,0.007223300635814667,0.001685001770965755,-0.0313474467471242,-0.3855282987356186,9.745841240644456,5441,1603231969.2829616,rc,0.0,0.0,0.0,0.0,0.0,-10000.0
,,221249.391778,5.512194871902466,155088,1603885015.9131935,/world,vicon/test_obj/test_obj,-0.31839582658262994,0.021237754495911955,1.384290225478218,-0.004366693967391756,0.0017059015974092212,0.0172039345751234,0.9998410106205236,1963457.0,0.02,0.11,-1.0,-0.06,-0.06,0.0,-22.06,7.5,-54.61,1963596.0,0.13,-0.06,1.0,-0.06,-0.06,-0.12,13.8,182.9,85.52,121953,1603231969.3800242,body_FLU,-0.015758476451460588,-0.014780553405270165,0.7017815162369213,0.7120645400026394,-0.0011377341579645872,0.0015172158600762486,0.004558957181870937,-0.07639240531018004,-0.5493066427409649,9.915418498277665,5441,1603231969.2829616,rc,0.0,0.0,0.0,0.0,0.0,-10000.0
,,221249.491763,5.612162351608276,155098,1603885016.13157,/world,vicon/test_obj/test_obj,-0.31839411029512865,0.02124110402564223,1.3842821483888268,-0.004328402653060554,0.0016957544362718742,0.017225427791398133,0.9998408243239362,1963556.0,0.01,0.12,-1.0,0.06,0.06,-0.06,-20.86,6.15,-55.51,1963696.0,0.13,-0.06,0.99,-0.06,-0.06,0.12,13.65,181.7,86.72,121958,1603231969.479822,body_FLU,-0.015739694577212696,-0.014804216850186017,0.701785592562772,0.7120604463452437,0.0036345915868878365,-0.0014737772289663553,-0.0005171067314222455,-0.02819889887329191,-0.5325590410642326,9.786675780773162,5441,1603231969.2829616,rc,0.0,0.0,0.0,0.0,0.0,-10000.0
,,221249.592935,5.7132885456085205,155108,1603885016.1133955,/world,vicon/test_obj/test_obj,-0.3183911298988019,0.021242646044824266,1.3842832126540052,-0.0044026541754288205,0.0017397470486889932,0.017234812774269744,0.9998402628145427,1963657.0,0.02,0.1,-1.0,0.0,0.12,-0.12,-22.51,6.3,-54.31,1963796.0,0.13,-0.06,0.99,-0.06,-0.12,-0.06,14.25,182.15,86.27,121965,1603231969.5907996,body_FLU,-0.015698581925094806,-0.014847210848130276,0.7017981720384594,0.7120480605823242,0.0018057019915431738,-0.00040665711276233196,0.0026526658330112696,-0.0008503362145274877,-0.3571590277478099,9.855242757081985,5442,1603231969.5824828,rc,0.0,0.0,0.0,0.0,0.0,-10000.0
,,221249.691804,5.812217950820923,155118,1603885016.2131984,/world,vicon/test_obj/test_obj,-0.3183956823355184,0.0212439058631289,1.384262145594024,-0.004327847763063574,0.0017318923347359057,0.017215388659210146,0.9998409376875869,1963756.0,0.01,0.1,-0.99,-0.06,0.0,-0.12,-21.91,5.4,-55.51,1963895.0,0.15,-0.05,0.99,0.0,0.06,0.12,13.05,181.25,43.51,121972,1603231969.6795366,body_FLU,-0.01568385706485762,-0.014898632900075792,0.7017931641368004,0.7120522467741646,0.0044807568192481995,0.007911952212452888,0.0002720733464229852,-0.07390844103740528,-0.4308336441256106,9.919944764614105,5442,1603231969.5824828,rc,0.0,0.0,0.0,0.0,0.0,-10000.0
,,221249.791742,5.912174940109253,155128,1603885016.3132467,/world,vicon/test_obj/test_obj,-0.3183935723065815,0.021244894908542283,1.3842875129657273,-0.004371474927861263,0.0017706025553515586,0.017213847341003993,0.9998407066294444,1963857.0,0.0,0.12,-1.0,0.0,0.12,-0.06,-21.61,6.9,-55.51,1963996.0,0.14,-0.06,1.01,0.0,-0.06,0.06,14.7,182.75,87.02,121978,1603231969.77935,body_FLU,-0.015649689950207792,-0.014923297700352665,0.701797561509923,0.7120481479850466,-0.0021478405687958,0.007310250774025917,-0.00025177004863508046,-0.08590285240486265,-0.3773640195429325,9.834784594058991,5442,1603231969.5824828,rc,0.0,0.0,0.0,0.0,0.0,-10000.0
,,221249.891622,6.011972188949585,155138,1603885016.4131927,/world,vicon/test_obj/test_obj,-0.31838978979336097,0.02123936790633362,1.3842783447451608,-0.0043681173092424315,0.0017114992143656253,0.017228757262278183,0.9998405674130298,1963957.0,0.02,0.11,-0.99,-0.06,-0.06,0.0,-22.51,7.5,-55.66,1964096.0,0.15,-0.07,0.99,0.0,0.06,-0.06,14.7,180.65,86.27,121984,1603231969.8792174,body_FLU,-0.015643146973231895,-0.014899537319666593,0.7018123068743104,0.7120342559597764,0.005517825484275818,0.006833272986114025,0.0012300219386816025,0.07647530939429999,-0.308509514618665,9.748127741217614,5442,1603231969.5824828,rc,0.0,0.0,0.0,0.0,0.0,-10000.0
,,221249.991864,6.11227822303772,155148,1603885016.5131888,/world,vicon/test_obj/test_obj,-0.3183913441272012,0.021240891625611404,1.3842753421936544,-0.004309227696292089,0.001699209299858559,0.017228249104941563,0.9998408526746618,1964056.0,0.01,0.11,-0.99,-0.12,-0.06,-0.12,-22.96,7.65,-54.91,1964196.0,0.14,-0.06,0.99,-0.12,-0.18,0.06,14.1,181.25,85.82,121990,1603231969.9790428,body_FLU,-0.015683204240433252,-0.0148753061589587,0.7018030634137339,0.7120429920689683,-0.0020038089714944363,0.005551245994865894,0.0010318899294361472,0.025836417722515763,-0.45152391120046376,9.857396063446998,5442,1603231969.5824828,rc,0.0,0.0,0.0,0.0,0.0,-10000.0
,,221250.091444,6.211793661117554,155158,1603885016.6131558,/world,vicon/test_obj/test_obj,-0.3183852501257982,0.02124475325718163,1.3842714744368458,-0.00442531440377041,0.0017353416985934765,0.017214524078070774,0.9998405199542487,1964156.0,0.01,0.11,-1.0,-0.06,-0.18,0.0,-22.66,6.15,-55.51,1964296.0,0.14,-0.07,1.0,0.0,-0.06,0.0,13.35,181.85,85.82,121996,1603231970.7887533,body_FLU,-0.015721443485034424,-0.014811074436436185,0.701826517794095,0.7120203699402147,0.0007679646369069815,0.006849524565041065,0.0036912355571985245,-0.038888628610409794,-0.36522271756455305,9.660738320231438,5442,1603231969.5824828,rc,0.0,0.0,0.0,0.0,0.0,-10000.0
,,221250.192354,6.312706232070923,155168,1603885016.713215,/world,vicon/test_obj/test_obj,-0.3183966385158317,0.02123998626212544,1.3842813087464905,-0.004337452830695297,0.0017417992404517582,0.01721185634985751,0.9998409396695753,1964257.0,0.02,0.11,-1.0,-0.18,-0.12,0.06,-22.96,5.1,-55.81,1964396.0,0.14,-0.06,1.0,-0.06,-0.06,0.0,13.95,182.15,85.22,122004,1603231970.189858,body_FLU,-0.015773606137495944,-0.014752140507843887,0.70180788015481,0.7120388100746109,0.0002916785888373852,0.006766051985323429,0.0042627728544175625,-0.03684729410335422,-0.5685399886295199,9.799244523704052,5443,1603231970.1814892,rc,0.0,0.0,0.0,0.0,0.0,-10000.0
,,221250.29167,6.412062883377075,155178,1603885016.8131526,/world,vicon/test_obj/test_obj,-0.31838885268355455,0.021247275113038436,1.3842791689806688,-0.004375340769389983,0.0017718518167188027,0.017231192467879665,0.9998403887323347,1964356.0,0.01,0.12,-0.99,-0.06,-0.12,-0.06,-23.56,4.5,-56.11,1964496.0,0.14,-0.07,0.99,-0.06,-0.18,0.06,13.95,182.45,84.32,122010,1603231970.278557,body_FLU,-0.015796085047217377,-0.014759932033336573,0.7018019109695105,0.7120440336545877,-0.0026674962136894464,0.0034938594326376915,0.0006942646577954292,0.01980819317791611,-0.5272484696879983,9.811369285941124,5444,1603231970.2037168,rc,0.0,0.0,0.0,0.0,0.0,-10000.0
,,221250.391741,6.51214599609375,155188,1603885016.9131894,/world,vicon/test_obj/test_obj,-0.3183939617876768,0.02124409507867035,1.3842811357323679,-0.004375950105179461,0.0016961766578637231,0.017231652992982075,0.9998405093716456,1964457.0,0.02,0.11,-0.99,0.0,-0.06,-0.06,-22.81,7.05,-56.71,1964596.0,0.13,-0.06,0.98,-0.06,-0.18,0.0,15.9,181.25,86.42,122019,1603231970.3867793,body_FLU,-0.015809596302050335,-0.014767402770156946,0.701798214436489,0.7120472222359595,-0.0011910885805264115,0.0065895006991922855,-0.0012382434215396643,0.005580793507397175,-0.36656561311706903,9.785036557316781,5444,1603231970.2037168,rc,0.0,0.0,0.0,0.0,0.0,-10000.0
,,221250.492482,6.612860202789307,155198,1603885017.1314592,/world,vicon/test_obj/test_obj,-0.31839120146792954,0.021247988832835588,1.3842816967373253,-0.004357814174029197,0.001757425046774015,0.01723666160811696,0.9998403964680748,1964556.0,0.01,0.11,-1.0,-0.06,-0.18,0.0,-22.21,6.6,-53.86,1964696.0,0.15,-0.07,1.0,-0.18,-0.18,0.06,14.1,182.9,85.52,122025,1603231970.4865978,body_FLU,-0.015790848795580698,-0.014795104120896494,0.7018068975562262,0.7120385049496071,0.0018235382158309221,0.00280615221709013,-0.0010264664888381958,0.03754147033207118,-0.4430614785254002,9.808511452317237,5444,1603231970.2037168,rc,0.0,0.0,0.0,0.0,0.0,-10000.0
,,221250.592855,6.713207721710205,155208,1603885017.1131437,/world,vicon/test_obj/test_obj,-0.31839246880940125,0.02123993195644774,1.3842882649258874,-0.00438223895101651,0.001713830658384424,0.017238903178607694,0.9998403267439502,1964657.0,0.01,0.11,-1.0,-0.06,-0.18,-0.06,-22.66,6.15,-54.91,1964796.0,0.14,-0.06,0.99,-0.12,-0.24,0.06,13.65,181.4,84.92,122031,1603231970.586433,body_FLU,-0.01574586844434996,-0.014806605921424333,0.7017901730735461,0.712055745728818,-0.0012247497215867043,-0.002637418918311596,0.0016302606090903282,0.007933060546405614,-0.4338214224278927,9.78563709962368,5444,1603231970.2037168,rc,0.0,0.0,0.0,0.0,0.0,-10000.0
,,221250.692139,6.812500715255737,155218,1603885017.213311,/world,vicon/test_obj/test_obj,-0.31839345295032656,0.02124288618273629,1.384279115014605,-0.004312365402075155,0.0017592313152486035,0.017220567511064253,0.9998408676706585,1964757.0,0.02,0.11,-0.98,0.0,0.06,0.06,-21.76,6.75,-54.61,1964896.0,0.14,-0.06,0.99,-0.06,-0.06,-0.12,14.1,181.85,85.82,122037,1603231970.6863022,body_FLU,-0.01574372986542309,-0.014810975017617365,0.7017820896730277,0.7120636689251253,-0.0011767485411837697,0.002867077710106969,0.0034178150817751884,-0.010874003631994129,-0.46848024952411654,9.910254301786424,5444,1603231970.2037168,rc,0.0,0.0,0.0,0.0,0.0,-10000.0
,,221250.791742,6.912142753601074,155228,1603885017.313189,/world,vicon/test_obj/test_obj,-0.31839809062406954,0.02124210691890561,1.3842855365065259,-0.004366905093879201,0.0017962908217446895,0.01720103823616001,0.9998409012251814,1964857.0,0.01,0.1,-1.0,-0.12,-0.06,0.0,-22.06,6.75,-55.36,1964996.0,0.14,-0.07,1.0,-0.06,-0.18,-0.12,15.3,183.2,86.27,122043,1603231970.7750146,body_FLU,-0.015699305409042626,-0.014790828201852723,0.7017595483925445,0.7120872835900589,0.004318478051573038,0.006650946103036404,-0.002310659270733595,-0.0704217001805082,-0.4663956944458187,9.838251148581506,5445,1603231970.783354,rc,0.0,0.0,0.0,0.0,0.0,-10000.0
,,221250.89185,7.012255668640137,155238,1603885017.413223,/world,vicon/test_obj/test_obj,-0.31839014969532653,0.021242984932092153,1.3842849902857053,-0.004351598077362402,0.0017327497778498388,0.01722579932928287,0.9998406538093196,1964956.0,0.02,0.11,-1.01,0.06,0.0,-0.12,-22.21,6.15,-54.46,1965096.0,0.14,-0.07,1.0,0.0,0.0,0.0,15.15,180.8,86.42,122052,1603231970.874874,body_FLU,-0.015689566305963222,-0.014801851964440706,0.7017721716555211,0.7120748287767567,-0.0031314287334680557,0.005220547318458557,-0.0012646636459976435,0.049245235908776525,-0.3348187663033605,9.914745517015458,5446,1603231970.8831975,rc,0.0,0.0,0.0,0.0,0.0,-10000.0
,,221250.991358,7.111726760864258,155248,1603885017.5131998,/world,vicon/test_obj/test_obj,-0.318395856249671,0.021243836173722667,1.3842820417152049,-0.00437764666482679,0.0017812540548970746,0.01720513219776932,0.9998408107142492,1965057.0,0.01,0.1,-0.99,-0.06,-0.12,0.0,-22.96,6.6,-55.51,1965196.0,0.14,-0.06,1.01,0.06,0.12,-0.06,14.25,182.45,85.97,122061,1603231970.9747229,body_FLU,-0.015627575738989204,-0.014804769970369598,0.7017685727033888,0.7120796781459889,0.0036169656086713076,0.001745346700772643,-0.000432628090493381,-0.033018298351205885,-0.47412402549013494,9.688051895678043,5447,1603231970.9840305,rc,0.0,0.0,0.0,0.0,0.0,-10000.0
,,221251.092181,7.212532997131348,155258,1603885017.613093,/world,vicon/test_obj/test_obj,-0.3183925959580316,0.02124562115400144,1.3842862883251974,-0.004384346558746513,0.001759621528535133,0.01721218409444894,0.9998406982894965,1965156.0,0.02,0.12,-0.99,-0.06,-0.12,-0.12,-23.56,6.75,-55.06,1965296.0,0.14,-0.06,1.01,-0.06,-0.06,-0.06,13.35,181.55,85.82,122070,1603231971.801155,body_FLU,-0.01563062201800459,-0.014776511677253017,0.7017639980028643,0.7120847066641849,-0.0014845123514533043,0.0005420601810328662,0.0020937833469361067,-0.05273161621391773,-0.44264133988693355,9.861339313030243,5447,1603231970.9840305,rc,0.0,0.0,0.0,0.0,0.0,-10000.0
,,221251.191675,7.312093257904053,155268,1603885017.7132864,/world,vicon/test_obj/test_obj,-0.3183943880417152,0.021244117792246015,1.3842870823572098,-0.004320593685469778,0.0017349875424124723,0.017226153627148626,0.9998407782840459,1965257.0,0.02,0.11,-1.0,0.0,-0.12,0.0,-22.66,6.15,-55.21,1965396.0,0.14,-0.06,0.98,-0.12,-0.12,-0.06,14.1,181.55,84.17,122075,1603231971.179973,body_FLU,-0.01562753517032208,-0.014745933812613462,0.7017883366411378,0.7120614216027712,0.004823395982384682,0.002907742979004979,-0.0026668617501854897,-0.029792505686637015,-0.4913753407895565,9.830939487576485,5447,1603231970.9840305,rc,0.0,0.0,0.0,0.0,0.0,-10000.0
,,221251.293125,7.4134745597839355,155278,1603885017.8132067,/world,vicon/test_obj/test_obj,-0.31839059818003407,0.02124329839995873,1.3842738427635042,-0.004346694249381648,0.0017292242914502213,0.017235682124561093,0.9998405109286947,1965356.0,0.01,0.11,-0.99,0.06,0.06,0.06,-22.06,7.5,-56.11,1965496.0,0.15,-0.06,0.99,-0.06,-0.12,-0.06,13.65,180.35,85.97,122082,1603231971.2908986,body_FLU,-0.01563490750623722,-0.014695239888508665,0.7018032241280615,0.7120476347796884,0.001580135663971305,0.0020866289269179106,0.0040972172282636166,0.026929957506246865,-0.4511646738611162,9.845719371199609,5448,1603231971.2825356,rc,0.0,0.0,0.0,0.0,0.0,-10000.0
,,221251.391747,7.512164831161499,155288,1603885017.9131749,/world,vicon/test_obj/test_obj,-0.31839124850251305,0.021241710714906076,1.384264645112862,-0.004435695667347582,0.0017654239326669473,0.017211063627108034,0.9998404808623765,1965456.0,0.01,0.11,-1.0,0.06,0.0,-0.06,-22.06,7.05,-55.66,1965596.0,0.14,-0.06,0.98,-0.12,-0.18,0.06,14.4,182.3,85.82,122089,1603231971.3796294,body_FLU,-0.01565551754701375,-0.014654554428448943,0.7018104475400762,0.7120409008817097,0.004048099275678396,0.006772896274924278,-0.0017403208184987307,-0.11992617736570538,-0.39758701154217124,9.920579189658165,5448,1603231971.2825356,rc,0.0,0.0,0.0,0.0,0.0,-10000.0
,,221251.491515,7.611870765686035,155298,1603885018.1315632,/world,vicon/test_obj/test_obj,-0.31840128394318495,0.021244004701382626,1.3842741090366415,-0.004338699381666646,0.0017853408407009805,0.01722517594962092,0.9998406280799269,1965557.0,0.02,0.11,-1.0,0.0,-0.06,-0.12,-23.41,5.85,-54.46,1965696.0,0.15,-0.06,1.0,-0.12,-0.06,0.0,12.9,182.15,85.22,122095,1603231971.4794376,body_FLU,-0.015654451366561278,-0.01465315414773815,0.701821596296319,0.712029964396177,-0.002548776799812913,0.0050798384472727776,0.004942645318806171,-0.1012467667646706,-0.4733837534040213,9.789443649888039,5448,1603231971.2825356,rc,0.0,0.0,0.0,0.0,0.0,-10000.0
,,221251.591531,7.711877822875977,155308,1603885018.1130965,/world,vicon/test_obj/test_obj,-0.3183839781432953,0.021242431124364324,1.3842769779207722,-0.004384282205376693,0.0017776868358392634,0.017234913545594734,0.9998402750710401,1965656.0,0.01,0.12,-1.0,0.0,0.0,0.0,-21.91,5.4,-55.81,1965796.0,0.14,-0.07,1.01,-0.06,-0.12,0.06,13.65,180.65,85.97,122101,1603231971.5793118,body_FLU,-0.015652707488257554,-0.014635603924915093,0.7018390079266951,0.7120132012810666,0.0021152773406356573,0.006654360331594944,0.002968891989439726,-0.08696661700308322,-0.38880470100045206,9.871526333212852,5448,1603231971.2825356,rc,0.0,0.0,0.0,0.0,0.0,-10000.0
,,221251.691961,7.812319278717041,155318,1603885018.213216,/world,vicon/test_obj/test_obj,-0.3183928220186867,0.021244144771432077,1.3842867357168216,-0.00418630180280998,0.0016345582796029523,0.017216406875068056,0.9998416866838262,1965756.0,0.02,0.11,-1.01,0.0,0.06,0.0,-22.81,7.05,-54.61,1965896.0,0.14,-0.06,0.99,0.0,0.0,0.0,13.95,182.45,84.92,122107,1603231971.6791708,body_FLU,-0.0156952108392965,-0.014597967957850266,0.7018576595682026,0.7119946526440046,-0.0017415389884263277,0.007832929491996765,0.003057221183553338,-0.11247700465936214,-0.42422435619682075,9.884356206893921,5448,1603231971.2825356,rc,0.0,0.0,0.0,0.0,0.0,-10000.0
,,221251.791215,7.911565542221069,155328,1603885018.3132055,/world,vicon/test_obj/test_obj,-0.3183982023180644,0.021241643580260268,1.3842637855481612,-0.0043662557979183315,0.001718766328041728,0.017240126634057065,0.9998403671017981,1965856.0,0.01,0.11,-1.0,-0.06,-0.06,0.06,-22.66,5.4,-54.46,1965996.0,0.14,-0.06,0.99,-0.06,-0.06,0.06,14.85,180.8,86.42,122113,1603231971.7789633,body_FLU,-0.015709392905247192,-0.014569483683715785,0.7018577248911297,0.7119948589213169,0.0010399881284683943,0.004095056559890509,0.0028641540557146072,0.04697575885523111,-0.476378249835223,9.86540173637867,5448,1603231971.2825356,rc,0.0,0.0,0.0,0.0,0.0,-10000.0
,,221251.892843,8.013197660446167,155338,1603885018.4130785,/world,vicon/test_obj/test_obj,-0.3183839525909101,0.021240790260594083,1.3842803912601223,-0.0043149960965640334,0.0016843761071942895,0.01721192532846562,0.9998411340369546,1965957.0,0.01,0.11,-1.0,-0.12,-0.06,-0.06,-21.76,7.05,-54.31,1966096.0,0.14,-0.06,0.99,-0.12,-0.06,0.0,12.6,181.7,86.27,122121,1603231971.889941,body_FLU,-0.015739335332466523,-0.014517426722271243,0.701863013039134,0.7119900480851428,-0.0005671821418218315,0.0067526777274906635,0.002512256847694516,-0.016782210081350057,-0.3865128697380424,9.976361858725548,5449,1603231971.8816032,rc,0.0,0.0,0.0,0.0,0.0,-10000.0
,,221251.991813,8.112233638763428,155348,1603885018.5132256,/world,vicon/test_obj/test_obj,-0.31840178941457753,0.021245446082740788,1.3842755677336671,-0.004326081767672989,0.0017419748657923721,0.01718907879594191,0.9998413804750498,1966057.0,0.02,0.11,-1.0,-0.06,-0.12,-0.18,-21.91,6.6,-55.21,1966196.0,0.14,-0.05,0.99,0.06,0.0,0.18,14.7,181.4,84.62,122127,1603231971.9786413,body_FLU,-0.015782284399481507,-0.014509199153973319,0.701857389928771,0.7119948081562233,-0.000655018026009202,-0.0005395434563979506,0.00028761441353708506,-0.08797154320590198,-0.41971809820085765,9.825908485293388,5450,1603231971.903768,rc,0.0,0.0,0.0,0.0,0.0,-10000.0
,,221252.092858,8.213213443756104,155358,1603885018.6131938,/world,vicon/test_obj/test_obj,-0.318393323773496,0.02124108830424134,1.3842721636078086,-0.0043564938433026555,0.0017100419028890932,0.01722982333022999,0.9998406022492249,1966156.0,0.02,0.12,-0.99,-0.06,-0.12,-0.06,-22.81,8.1,-55.66,1966296.0,0.14,-0.05,0.99,-0.12,-0.06,-0.06,15.15,182.3,85.52,122134,1603231972.8684192,body_FLU,-0.015797359590261476,-0.014471841997980121,0.7018529448891854,0.7119996158492922,-0.0017058339435607195,0.0035150074400007725,-8.388189598917961e-05,0.024994899052195253,-0.46971605664119126,9.809342163562775,5450,1603231971.903768,rc,0.0,0.0,0.0,0.0,0.0,-10000.0
,,221252.19232,8.312679290771484,155368,1603885018.7132323,/world,vicon/test_obj/test_obj,-0.3183995457408178,0.021246837153549344,1.384267390699545,-0.0043903470657955905,0.0017735423131483553,0.017233570024640137,0.999840278976853,1966256.0,0.0,0.11,-1.0,-0.18,0.0,-0.06,-22.81,4.95,-55.06,1966396.0,0.13,-0.06,0.99,0.0,0.0,-0.12,14.25,182.45,85.67,122143,1603231972.189451,body_FLU,-0.015817641291626303,-0.014458107514226081,0.7018573464364909,0.7119951057445577,0.00149116525426507,2.951943315565586e-06,-4.822162736672908e-05,-0.030453876269515606,-0.3472120711393654,9.748432101666927,5452,1603231972.1617148,rc,0.0,0.0,0.0,0.0,0.0,-10000.0
,,221252.292381,8.412741899490356,155378,1603885018.813173,/world,vicon/test_obj/test_obj,-0.3184009788179929,0.021245315002693565,1.384281408259017,-0.004361767976954924,0.0017646979852840854,0.01721181027835856,0.9998407945308482,1966357.0,0.02,0.12,-0.99,0.0,0.0,0.0,-23.71,5.85,-55.51,1966496.0,0.15,-0.06,0.99,0.06,0.0,0.06,13.35,182.6,85.52,122153,1603231972.2865005,body_FLU,-0.015850039781868396,-0.014486025711636343,0.7018684947165711,0.7119828280389139,0.0005713013233616948,0.004365782253444195,-0.0021824755240231752,-0.13304068612027914,-0.4916503094248474,9.927830095410346,5452,1603231972.1617148,rc,0.0,0.0,0.0,0.0,0.0,-10000.0
,,221252.392398,8.512750387191772,155388,1603885018.9131706,/world,vicon/test_obj/test_obj,-0.3183932165369611,0.021245526908952223,1.3842731803219719,-0.004420778307492855,0.00177893060845632,0.017228770244922226,0.9998402180353089,1966456.0,0.01,0.11,-0.98,-0.06,-0.06,0.0,-22.06,6.3,-55.36,1966596.0,0.14,-0.06,1.0,-0.12,0.0,0.0,14.4,182.6,85.07,122159,1603231972.3891592,body_FLU,-0.01586942521920581,-0.014485729270325836,0.7018658754806488,0.7119849842703856,0.004692533053457737,0.005159405525773764,-0.0003055947017855942,-0.12216814295109361,-0.3851369677260518,9.859841462373733,5453,1603231972.3613834,rc,0.0,0.0,0.0,0.0,0.0,-10000.0
,,221252.491632,8.61198902130127,155398,1603885019.1318314,/world,vicon/test_obj/test_obj,-0.3183999978434012,0.0212436417638153,1.3842812376822062,-0.004377343563831464,0.0017823692918397624,0.017211338825123774,0.999840703231709,1966557.0,0.02,0.11,-1.0,0.0,0.0,-0.06,-24.46,7.2,-55.51,1966696.0,0.14,-0.06,1.0,-0.06,-0.06,0.0,14.85,182.9,84.77,122168,1603231972.480661,body_FLU,-0.01588022569170103,-0.014501926513591615,0.7018586627252303,0.7119915239080634,-0.00044015629100613296,0.0072837648913264275,0.0006966507062315941,-0.12152239932026715,-0.42073797589167955,9.861518073678017,5453,1603231972.3613834,rc,0.0,0.0,0.0,0.0,0.0,-10000.0
,,221252.591729,8.712134599685669,155408,1603885019.1131947,/world,vicon/test_obj/test_obj,-0.3184004604396927,0.021245774293143106,1.3842688458446515,-0.004398963909884968,0.0017631310901251385,0.017237079549886482,0.9998401990187579,1966657.0,0.02,0.11,-1.01,0.06,-0.06,0.0,-22.21,5.85,-55.51,1966796.0,0.14,-0.07,0.99,0.06,0.0,0.06,13.2,181.4,86.27,122174,1603231972.5749385,body_FLU,-0.01591760800876861,-0.01450677726042406,0.7018449598075867,0.712004097994866,-0.0036538480781018734,0.004621799569576979,0.0016247346065938473,0.013819994442164899,-0.3477897206917405,9.79768182849884,5454,1603231972.5832567,rc,0.0,0.0,0.0,0.0,0.0,-10000.0
,,221252.692157,8.812507629394531,155418,1603885019.2133336,/world,vicon/test_obj/test_obj,-0.3183915878216366,0.02124412240657208,1.3842817631259943,-0.004388108979202576,0.0017393470548700044,0.017229248476150275,0.9998404233518249,1966756.0,0.01,0.11,-1.0,0.0,-0.06,0.06,-22.51,7.05,-56.11,1966896.0,0.15,-0.07,0.99,0.0,0.0,-0.06,13.2,181.4,86.27,122183,1603231972.680325,body_FLU,-0.015933181670785744,-0.014503462573202298,0.7018453255512631,0.7120034566609034,0.0014471567701548338,0.0017136295791715384,0.0003775353543460369,-0.09201924326363951,-0.3190498207546771,9.688602198064327,5454,1603231972.5832567,rc,0.0,0.0,0.0,0.0,0.0,-10000.0
