name,date,time,time_since_start,vicon_sequence,vicon_time_stamp,vicon_frame_id,vicon_child_frame_id,vicon_translation_x,vicon_translation_y,vicon_translation_z,vicon_rotation_x,vicon_rotation_y,vicon_rotation_z,vicon_rotation_w,int_imu_time_stamp,int_imu_acc_x,int_imu_acc_y,int_imu_acc_z,int_imu_gyro_x,int_imu_gyro_y,int_imu_gyro_z,int_imu_mag_x,int_imu_mag_y,int_imu_mag_z,ext_imu_time_stamp,ext_imu_acc_x,ext_imu_acc_y,ext_imu_acc_z,ext_imu_gyro_x,ext_imu_gyro_y,ext_imu_gyro_z,ext_imu_mag_x,ext_imu_mag_y,ext_imu_mag_z,dji_imu_sequence,dji_imu_time_stamp,dji_imu_frame_id,dji_imu_orientation_x,dji_imu_orientation_y,dji_imu_orientation_z,dji_imu_orientation_w,dji_imu_ang_vel_x,dji_imu_ang_vel_y,dji_imu_ang_vel_z,dji_imu_lin_acc_x,dji_imu_lin_acc_y,dji_imu_lin_acc_z,rc_sequence,rc_time_stamp,rc_frame_id,rc_roll,rc_pitch,rc_yaw,rc_throttle,rc_mode,rc_landing_gear
/root/Desktop/devel/VibrationTest/28102020/T000_2.csv,20201020,220414.836756,0.00024819374084472656,106324,1603884501.3570895,/world,vicon/test_obj/test_obj,-0.2550087173612998,-0.1683190885584895,1.3867169264694605,-0.005983344655167671,-0.00023012692043924458,-0.1513100480141541,0.9884682169894449,1434938.0,0.01,0.11,-1.0,0.06,-0.06,-0.12,-22.66,12.9,-55.81,1435136.0,0.14,-0.05,1.0,-0.06,-0.18,-0.06,13.05,176.29,84.77,86489,1603231454.8337917,body_FLU,-0.017971647088231985,-0.01453046160376663,0.5986692324950222,0.8006628726563625,-0.0017900445964187384,0.003084328956902027,0.0026672002859413624,0.06058892438001931,-0.4306722264736891,9.840003703951837,3833,1603231454.8060195,rc,0.0,0.0,0.0,0.0,0.0,-10000.0
,,220414.848061,0.01170969009399414,106325,1603884501.367201,/world,vicon/test_obj/test_obj,-0.2550116267165495,-0.16832045006472193,1.3867170971506801,-0.0060007371269291095,-0.00016328072129585954,-0.1513068027872372,0.9884686216181289,1440738.0,0.02,0.12,-1.01,-0.06,-0.12,-0.12,-24.46,13.35,-55.21,1435836.0,0.15,-0.06,0.99,0.0,0.0,0.0,14.1,177.34,85.07,86490,1603231454.8393064,body_FLU,-0.01797325181290826,-0.014526968202983123,0.5986681266845377,0.8006637268579897,-0.0011155697284266353,0.0058755455538630486,0.0017375159077346325,0.06803840743470937,-0.428425961650908,9.839564396739005,3833,1603231454.8060195,rc,0.0,0.0,0.0,0.0,0.0,-10000.0
,,220414.954788,0.11828207969665527,106336,1603884501.4772928,/world,vicon/test_obj/test_obj,-0.25501095034645677,-0.16831859212882738,1.3867226176599723,-0.0059857919374857295,-0.0002703866619778412,-0.15133701334824937,0.9884640638772692,1446539.0,0.01,0.12,-1.0,0.0,0.0,0.06,-22.96,10.5,-56.26,1449038.0,0.14,-0.07,1.01,-0.12,-0.06,0.06,14.1,175.24,84.77,86497,1603231454.9421172,body_FLU,-0.01798262098024479,-0.014491017601998394,0.5986622629081014,0.8006685523494043,0.005384948570281267,0.00883372314274311,-0.0007685648160986602,0.012767986569553615,-0.45987286591529847,9.742999764204026,3833,1603231454.8060195,rc,0.0,0.0,0.0,0.0,0.0,-10000.0
,,220415.049086,0.2125856876373291,106346,1603884501.577191,/world,vicon/test_obj/test_obj,-0.2550078026436048,-0.16832098106411014,1.3867335775163974,-0.005953720678093843,-0.00017447556164007836,-0.1513223104526838,0.9884665300998446,1449039.0,0.02,0.12,-1.0,-0.06,-0.12,0.0,-22.66,12.3,-55.51,1449137.0,0.14,-0.06,0.99,-0.12,-0.18,-0.06,13.2,176.14,84.62,86503,1603231455.4175622,body_FLU,-0.01800002232572089,-0.014496790544966364,0.5986888627659149,0.8006481673370797,-0.0008686193032190204,0.006293265148997307,-0.0006162330391816795,-0.00319572995044291,-0.4451054692491889,9.911915724277497,3833,1603231454.8060195,rc,0.0,0.0,0.0,0.0,0.0,-10000.0
,,220415.148544,0.31209492683410645,106355,1603884501.6675096,/world,vicon/test_obj/test_obj,-0.25501181052810085,-0.1683207930204364,1.3867233651686874,-0.0059660049670006285,-0.00024707299903652043,-0.1513000598177032,0.9884698466007076,1449139.0,0.01,0.12,-1.0,0.0,0.18,0.0,-24.16,11.4,-55.66,1449238.0,0.14,-0.05,1.0,-0.06,-0.18,-0.06,14.25,176.14,84.32,86509,1603231455.1415904,body_FLU,-0.017999212578834453,-0.014507240073835193,0.5987123776647675,0.8006304123395407,0.0043944683857262135,0.007628018036484718,0.0023426185362040997,0.061089424984529614,-0.6298648949861526,9.867573736667634,3833,1603231454.8060195,rc,0.0,0.0,0.0,0.0,0.0,-10000.0
,,220415.248542,0.41211915016174316,106365,1603884501.7676573,/world,vicon/test_obj/test_obj,-0.25500780834768316,-0.16831862047286383,1.386730472825507,-0.005955227267420529,-0.00022824364655732308,-0.15131693590463918,0.9884673328347592,1449239.0,0.02,0.12,-1.0,-0.06,-0.12,0.0,-24.46,13.65,-53.86,1449337.0,0.14,-0.06,0.99,-0.12,-0.06,0.0,13.35,176.59,83.72,86518,1603231455.2441993,body_FLU,-0.018001158098629108,-0.014563217517464182,0.5987002082560495,0.800638452509502,-0.0008458071388304234,0.002064680214971304,0.0005728242686018348,-0.03031757857790217,-0.4405619694516063,9.863922579646111,3833,1603231454.8060195,rc,0.0,0.0,0.0,0.0,0.0,-10000.0
,,220415.349249,0.5127508640289307,106376,1603884501.8771985,/world,vicon/test_obj/test_obj,-0.2550072625061489,-0.16832599492493008,1.3867250835334224,-0.005983720780464628,-0.00023024445929699172,-0.15130903297270248,0.9884683700624801,1449339.0,0.01,0.11,-1.0,-0.12,-0.06,-0.06,-24.46,13.35,-55.51,1449437.0,0.14,-0.06,0.99,0.0,0.0,-0.06,13.05,174.94,83.72,86524,1603231455.338508,body_FLU,-0.01803739403848844,-0.014564418557927191,0.5987272673531153,0.8006173801862166,0.0004938240745104849,0.0005702025955542922,0.004946808330714703,0.05346411133557558,-0.4951643655002117,9.766415656507016,3834,1603231455.305236,rc,0.0,0.0,0.0,0.0,0.0,-10000.0
,,220415.448595,0.612215518951416,106385,1603884501.967252,/world,vicon/test_obj/test_obj,-0.2550175240286293,-0.16832258159507393,1.3867342266798213,-0.00599989490722996,-0.00024252351759417915,-0.15131478716456553,0.9884673882474767,1449439.0,0.01,0.11,-0.98,0.0,0.0,0.06,-23.86,12.45,-55.66,1449538.0,0.14,-0.06,1.0,0.12,0.0,-0.12,13.65,176.74,85.67,86534,1603231455.4438808,body_FLU,-0.018064649659174464,-0.014555918188024753,0.5987190469652808,0.8006230676662899,-0.001135526574216783,-0.0008696573204360902,-0.0004352443211246282,0.09485161919519305,-0.5373462555930019,9.8166888756752,3834,1603231455.305236,rc,0.0,0.0,0.0,0.0,0.0,-10000.0
,,220415.548068,0.7115721702575684,106395,1603884502.6752665,/world,vicon/test_obj/test_obj,-0.2549986140646825,-0.16832265496986756,1.3867332960327767,-0.005943695922534623,-0.00021209252242867187,-0.1513280875700399,0.9884656986501538,1449539.0,0.02,0.12,-1.01,0.0,-0.06,0.0,-23.71,11.85,-56.26,1449637.0,0.14,-0.06,0.99,-0.06,-0.06,0.0,12.0,175.99,86.12,86540,1603231455.543734,body_FLU,-0.01812334279340343,-0.01454260204870634,0.5987227888271155,0.8006191849504526,0.005199948325753212,0.0024255169555544853,0.003119026543572545,0.07862111263163388,-0.47390327653661374,9.741025218486786,3834,1603231455.305236,rc,0.0,0.0,0.0,0.0,0.0,-10000.0
,,220415.6481,0.8116030693054199,106405,1603884502.167355,/world,vicon/test_obj/test_obj,-0.2550051403436678,-0.16832165129536497,1.3867284121702625,-0.005928441644428002,-0.0002574697425262619,-0.15132295777987684,0.9884665648051784,1449639.0,0.0,0.11,-1.01,-0.06,-0.06,0.06,-24.76,13.35,-56.26,1449737.0,0.14,-0.05,1.0,-0.06,0.06,0.0,12.75,177.04,85.82,86546,1603231455.6435666,body_FLU,-0.018183294848021486,-0.014561183290719556,0.5987279408185564,0.8006136350405326,-0.002134905429556966,0.0034842388704419136,0.0039006052538752556,-0.09579918572120369,-0.42803178273886444,9.946193370580673,3834,1603231455.305236,rc,0.0,0.0,0.0,0.0,0.0,-10000.0
,,220415.749667,0.913165807723999,106416,1603884502.2772138,/world,vicon/test_obj/test_obj,-0.25499673972453396,-0.16832073087205335,1.386721817473669,-0.005956125262967151,-0.00023624759983940658,-0.15131413836701424,0.9884677537932998,1449739.0,0.02,0.12,-1.0,0.12,0.0,0.0,-22.81,11.4,-55.66,1449837.0,0.14,-0.05,1.01,-0.12,-0.12,-0.12,12.75,174.94,84.17,86552,1603231455.743414,body_FLU,-0.01822403517082076,-0.014594196358447928,0.5987328334562889,0.8006084486914609,0.005368889309465885,0.005868235602974892,0.002791806124150753,0.0014264705367386342,-0.35897511325031517,9.93661974477768,3834,1603231455.305236,rc,0.0,0.0,0.0,0.0,0.0,-10000.0
,,220415.847804,1.0114078521728516,106425,1603884502.367349,/world,vicon/test_obj/test_obj,-0.2550051737615908,-0.16832402187330456,1.3867310052031743,-0.005965036956839713,-0.00016057498119838258,-0.151320764971504,0.9884667008241693,1449839.0,0.02,0.12,-1.0,-0.06,-0.06,0.12,-24.16,14.25,-54.31,1449938.0,0.14,-0.05,0.99,-0.06,-0.12,-0.06,12.6,176.74,84.32,86557,1603231455.8432896,body_FLU,-0.01829097776651979,-0.014608160321936455,0.5987319454855955,0.8006073314924035,-0.0017380854114890099,0.005376014858484268,-0.000500932801514864,-0.024144868622068317,-0.3780482098571956,9.843813759326935,3834,1603231455.305236,rc,0.0,0.0,0.0,0.0,0.0,-10000.0
,,220415.948096,1.1117150783538818,106435,1603884502.4675007,/world,vicon/test_obj/test_obj,-0.2550056751778079,-0.1683258285191026,1.3867402658686632,-0.006005466928295606,-0.00023798673006015947,-0.15131251525474337,0.988467703294636,1449939.0,0.02,0.11,-0.99,-0.06,-0.06,0.06,-22.96,12.3,-57.61,1450037.0,0.14,-0.06,0.99,0.0,-0.12,-0.12,14.25,176.14,86.27,86564,1603231455.9403079,body_FLU,-0.01831944859553815,-0.014625165927018029,0.5987402117567129,0.8006001880778503,0.0014589037746191025,0.005835091695189476,-0.00021452357759699225,0.03401259055919945,-0.43230429366230966,9.794859630167485,3835,1603231455.9070098,rc,0.0,0.0,0.0,0.0,0.0,-10000.0
,,220416.049225,1.2127315998077393,106446,1603884502.5771759,/world,vicon/test_obj/test_obj,-0.25500641129805035,-0.16832330460447692,1.3867306332847367,-0.00594901099116221,-0.00019342826008741451,-0.15131473878632584,0.9884677140300341,1450039.0,0.01,0.11,-0.99,0.0,0.06,-0.06,-23.71,13.35,-54.46,1450138.0,0.14,-0.06,1.01,-0.12,-0.24,-0.24,13.65,175.69,84.62,86572,1603231456.4293861,body_FLU,-0.018334398692940942,-0.0146271283789176,0.5987424602883119,0.8005981283939241,-0.0019882137421518564,0.007959924638271332,-0.00017412420129403472,-0.05666317753074691,-0.38869896349310873,9.883268454194068,3835,1603231455.9070098,rc,0.0,0.0,0.0,0.0,0.0,-10000.0
,,220416.149091,1.3125908374786377,106456,1603884502.6771834,/world,vicon/test_obj/test_obj,-0.25500047689276867,-0.16832022517991238,1.3867169404858273,-0.005947253491911918,-0.0002633232304234986,-0.15132181176830434,0.9884666256985802,1450139.0,0.03,0.12,-0.98,-0.06,-0.06,0.06,-23.86,12.15,-55.66,1450237.0,0.14,-0.06,0.99,-0.06,-0.06,-0.06,13.05,175.54,84.77,86579,1603231456.1400466,body_FLU,-0.018303138739811868,-0.014636151493332703,0.5987300642522624,0.8006079492124826,0.005158333573490381,0.00749049661681056,0.00199480215087533,0.007280635298229754,-0.45839385522902015,9.827692586660385,3836,1603231456.1067235,rc,0.0,0.0,0.0,0.0,0.0,-10000.0
,,220416.248895,1.4124000072479248,106466,1603884502.777336,/world,vicon/test_obj/test_obj,-0.25499971211623673,-0.16831362846847395,1.3867104314494052,-0.005980577878220392,-0.0002526446686366808,-0.1513055184936872,0.9884689215813871,1450239.0,0.02,0.11,-0.98,-0.06,-0.12,0.0,-23.41,12.3,-54.46,1450337.0,0.14,-0.05,1.0,-0.06,-0.06,-0.06,12.15,176.74,85.97,86586,1603231456.2398186,body_FLU,-0.01830255548614224,-0.014649311592543575,0.5987358616191434,0.8006033862929405,-0.00043650262523442507,0.004746418446302414,0.002359797479584813,0.03475446002651006,-0.4454760251753032,9.889062402248383,3836,1603231456.1067235,rc,0.0,0.0,0.0,0.0,0.0,-10000.0
,,220416.348244,1.5117661952972412,106475,1603884502.867445,/world,vicon/test_obj/test_obj,-0.2550054086264365,-0.16831947489457572,1.3867160864355705,-0.0059888373563759655,-0.0002486441149397853,-0.15130308754823188,0.9884692446918089,1450339.0,0.02,0.11,-1.01,-0.06,0.0,0.0,-22.51,12.15,-55.66,1450438.0,0.14,-0.06,1.0,-0.06,-0.12,-0.06,11.7,175.54,85.82,86592,1603231456.3424408,body_FLU,-0.018263811184761034,-0.014649749664580488,0.5987670443218558,0.800580941985157,0.004666891880333424,0.005667937453836203,0.0017640427686274052,-0.08574285870417953,-0.3554345862865448,9.81623905313015,3836,1603231456.1067235,rc,0.0,0.0,0.0,0.0,0.0,-10000.0
,,220416.447952,1.6114940643310547,106485,1603884502.9672863,/world,vicon/test_obj/test_obj,-0.2549952541461982,-0.16832322288686397,1.3867173738387408,-0.006053411833669299,-0.00017359892483414957,-0.1513281907077504,0.9884650245535773,1450439.0,0.02,0.11,-1.0,0.0,0.0,0.06,-24.46,11.85,-54.16,1450537.0,0.14,-0.05,1.0,-0.06,-0.06,-0.06,12.15,177.49,85.67,86597,1603231456.4423091,body_FLU,-0.01825894102555673,-0.014599212980587336,0.5987732739675271,0.8005773169626912,9.658292401582003e-05,0.007170555181801319,0.001398177701048553,0.06058433305006474,-0.35146661837026477,9.679222521722316,3836,1603231456.1067235,rc,0.0,0.0,0.0,0.0,0.0,-10000.0
,,220416.549573,1.7130682468414307,106496,1603884503.7708776,/world,vicon/test_obj/test_obj,-0.2550033093684491,-0.16832398186231787,1.386723190683658,-0.005972167063512355,-0.00022107109625735076,-0.15133985530568417,0.9884637234335869,1450539.0,0.02,0.11,-1.0,0.0,0.06,0.0,-24.91,11.7,-55.66,1450637.0,0.13,-0.06,0.99,-0.06,-0.12,-0.06,13.95,175.69,85.67,86605,1603231456.5393476,body_FLU,-0.018256587017487436,-0.014505843258515685,0.5987764136149094,0.8005767196467176,0.004731052555143833,0.008369475603103638,-0.0020105368457734585,0.018069357030093672,-0.3874047743752599,9.85616460120678,3837,1603231456.5060868,rc,0.0,0.0,0.0,0.0,0.0,-10000.0
,,220416.649,1.812504768371582,106506,1603884503.17721,/world,vicon/test_obj/test_obj,-0.25499731158217165,-0.16832623469643004,1.386716807044871,-0.005957439176621931,-0.0002625174393289519,-0.15132633420613473,0.9884658722377744,1450639.0,0.02,0.11,-0.99,0.0,0.0,0.0,-24.76,12.6,-54.16,1450738.0,0.14,-0.06,0.98,0.0,-0.12,-0.06,13.8,174.94,86.42,86611,1603231456.6419957,body_FLU,-0.01828145509945848,-0.014467175806758922,0.5987923484718363,0.8005649334283921,-0.0014456948265433311,0.007200932130217552,-0.0018046811455860734,-0.027478571232408287,-0.44015114126354454,9.873607200622558,3837,1603231456.5060868,rc,0.0,0.0,0.0,0.0,0.0,-10000.0
,,220416.748833,1.9123382568359375,106516,1603884503.277093,/world,vicon/test_obj/test_obj,-0.2550011675992149,-0.1683283928091855,1.3867207904973515,-0.006001567872232742,-0.0002034582948468234,-0.1513172250323717,0.9884670137117879,1450739.0,0.01,0.11,-1.0,-0.06,-0.06,0.12,-23.41,11.55,-55.81,1450837.0,0.14,-0.06,0.99,-0.12,-0.06,0.0,11.85,176.74,84.92,86617,1603231456.7421489,body_FLU,-0.018272265097735167,-0.014401139243017157,0.5987933081286,0.800565616084721,0.004916249308735132,0.00670476583763957,0.0007276181131601334,0.08897682539653033,-0.3889184710532427,9.825361688017844,3837,1603231456.5060868,rc,0.0,0.0,0.0,0.0,0.0,-10000.0
,,220416.847875,2.0114669799804688,106525,1603884503.3671563,/world,vicon/test_obj/test_obj,-0.2550064400804992,-0.16831997424747877,1.3867205829285,-0.006007647864677425,-0.00018868276210004146,-0.1513175142877736,0.9884669354286559,1450839.0,0.02,0.11,-1.01,0.0,-0.12,0.0,-23.56,13.5,-54.31,1450937.0,0.14,-0.06,1.0,-0.06,-0.06,-0.18,13.35,175.24,84.77,86623,1603231456.8416913,body_FLU,-0.01827500658810598,-0.014370399595077925,0.5988094010753263,0.8005540687133452,0.0006864247261546552,0.005931783001869917,0.0022953725419938564,-0.0051553378715179865,-0.4836341211609542,9.856128381729127,3837,1603231456.5060868,rc,0.0,0.0,0.0,0.0,0.0,-10000.0
,,220416.948538,2.1120429039001465,106536,1603884503.4770467,/world,vicon/test_obj/test_obj,-0.25499689740368087,-0.16832442919904542,1.3867216907629003,-0.0060059788344067975,-0.00021188821004964527,-0.15130458794472365,0.988468919586501,1450939.0,0.02,0.12,-0.98,-0.06,-0.12,-0.06,-24.61,11.7,-55.66,1451037.0,0.14,-0.05,1.0,-0.06,-0.06,-0.12,13.35,176.59,84.17,86629,1603231456.9415238,body_FLU,-0.018342938861135014,-0.014363358894796131,0.598791971825509,0.8005656781254832,0.0004890273557975888,0.0074865566566586494,-0.0015463810414075851,-0.06334287345875055,-0.4699404932633042,9.964168746829033,3837,1603231456.5060868,rc,0.0,0.0,0.0,0.0,0.0,-10000.0
,,220417.048204,2.2117528915405273,106545,1603884503.567555,/world,vicon/test_obj/test_obj,-0.2550013656947621,-0.16832205725794946,1.3867287910777737,-0.005959806865356511,-0.0002802775209813299,-0.1513041723391671,0.988469245641663,1451039.0,0.02,0.12,-1.0,0.0,0.06,0.06,-24.01,12.6,-55.81,1451138.0,0.13,-0.06,1.0,0.0,-0.12,0.0,13.65,176.14,86.72,86635,1603231457.413303,body_FLU,-0.018379652861321805,-0.014354513295129495,0.5988026190376157,0.8005570309118829,-0.003488680813461542,0.0054562883451581,-0.0014330851845443249,0.09233641927409918,-0.4253937122561038,9.81674963092804,3837,1603231456.5060868,rc,0.0,0.0,0.0,0.0,0.0,-10000.0
,,220417.147835,2.311412811279297,106555,1603884503.667452,/world,vicon/test_obj/test_obj,-0.25500635963700596,-0.16832590385609492,1.3867223698951805,-0.005982839800300878,-0.00022406580852667488,-0.1513176417806852,0.9884670589900149,1451139.0,0.02,0.12,-1.0,-0.06,-0.06,-0.06,-23.86,11.7,-56.11,1451238.0,0.14,-0.06,0.99,-0.12,-0.12,-0.12,13.2,176.44,86.27,86643,1603231457.1411667,body_FLU,-0.01842765785404025,-0.014379555923779683,0.5988163448759009,0.8005452110324035,-0.0005840421654284,0.004431035369634628,0.000251331424806267,0.1244353745430708,-0.5156404922157526,9.752440195798874,3839,1603231457.1273062,rc,0.0,0.0,0.0,0.0,0.0,-10000.0
,,220417.247636,2.4111313819885254,106565,1603884503.7671463,/world,vicon/test_obj/test_obj,-0.25499074968917657,-0.1683243778049889,1.3867321329027862,-0.006006266250637721,-0.0002137757474946223,-0.15131500810536988,0.9884673223671727,1451239.0,0.01,0.11,-1.0,-0.06,-0.06,0.0,-23.41,12.3,-55.51,1451337.0,0.15,-0.06,0.99,-0.06,0.0,-0.06,13.8,175.99,85.07,86651,1603231457.2410328,body_FLU,-0.018497335899686447,-0.014350465158313244,0.5988215206283812,0.8005402545448089,0.0007878091419115663,0.006831505335867405,-0.000652624643407762,0.11158647833392024,-0.3600091939419508,9.853062578201294,3839,1603231457.1273062,rc,0.0,0.0,0.0,0.0,0.0,-10000.0
,,220417.349255,2.512758255004883,106576,1603884503.8772027,/world,vicon/test_obj/test_obj,-0.25499552706337175,-0.16832401574963266,1.3867280954776298,-0.005977032399272626,-0.00024196119813866464,-0.15130424197446285,0.9884691410959726,1451339.0,0.01,0.11,-1.0,0.0,0.0,0.0,-23.11,12.15,-55.36,1451437.0,0.13,-0.06,1.0,0.0,0.0,-0.06,13.8,176.29,84.47,86660,1603231457.3436713,body_FLU,-0.018535017276567,-0.014345122036041987,0.5988379414112265,0.800527195374831,-0.0023117682430893183,0.006132033653557301,0.0017623985186219215,0.022045540049672126,-0.4332584140151739,9.823882531285285,3839,1603231457.1273062,rc,0.0,0.0,0.0,0.0,0.0,-10000.0
,,220417.447752,2.611363172531128,106585,1603884503.9672718,/world,vicon/test_obj/test_obj,-0.25500011483837615,-0.16832188504294027,1.3867263192286716,-0.005967716238146792,-0.00030848680901711666,-0.15133108160803738,0.9884650701659271,1451439.0,0.02,0.11,-1.0,-0.12,-0.06,-0.12,-22.66,12.3,-56.26,1451537.0,0.15,-0.07,1.0,-0.12,0.0,-0.06,13.35,175.54,85.82,86667,1603231457.4406893,body_FLU,-0.01853211281437392,-0.014333154021327234,0.5988521196538913,0.8005168707007227,0.003584939753636718,0.0012797074159607291,0.004593576304614544,0.00944985157996416,-0.4907518327049911,9.788933072090149,3840,1603231457.3852694,rc,0.0,0.0,0.0,0.0,0.0,-10000.0
,,220417.547874,2.711568593978882,106595,1603884504.6741848,/world,vicon/test_obj/test_obj,-0.2549998440686609,-0.16832563113107482,1.3867191058382997,-0.006005496849616736,-0.00017940930434912238,-0.15130863517662327,0.9884683094266999,1451539.0,0.03,0.11,-1.0,-0.06,-0.06,0.06,-23.41,12.3,-55.81,1451638.0,0.14,-0.06,0.99,0.0,0.0,-0.12,13.65,175.39,87.02,86675,1603231457.5405543,body_FLU,-0.018457238342284084,-0.014363826505617086,0.598848133861087,0.8005210324607257,-0.004629360046237707,0.0001062768860720098,0.002628035843372345,0.040269943462684754,-0.4496624783277512,9.780535410940647,3842,1603231457.5072873,rc,0.0,0.0,0.0,0.0,0.0,-10000.0
,,220417.648056,2.8115570545196533,106605,1603884504.1675372,/world,vicon/test_obj/test_obj,-0.2549935385655673,-0.16832312805446006,1.3867267352085768,-0.005994676732776317,-0.00022895236686738365,-0.15130254402055113,0.9884692972493341,1451639.0,0.02,0.12,-1.0,0.0,0.06,0.0,-24.16,10.95,-56.11,1451738.0,0.14,-0.06,1.01,-0.12,-0.12,-0.12,13.8,175.99,85.52,86684,1603231457.6403883,body_FLU,-0.01837105126437205,-0.014359596765854288,0.5988384059036704,0.8005303679879451,0.0030731481965631247,0.0005078811664134264,-0.0027734064497053623,-0.10470518833491951,-0.4151669674851,9.825220315217972,3843,1603231457.6070936,rc,0.0,0.0,0.0,0.0,0.0,-10000.0
,,220417.748807,2.9123148918151855,106616,1603884504.2771497,/world,vicon/test_obj/test_obj,-0.25499592716651154,-0.1683222647255496,1.3867302428981516,-0.00599004418028966,-0.00018398507507658203,-0.15131364537343983,0.9884676354054346,1451739.0,0.02,0.12,-1.0,-0.06,-0.12,-0.06,-23.71,12.9,-56.26,1451837.0,0.14,-0.06,0.99,0.0,0.0,-0.06,13.95,177.19,83.87,86693,1603231457.7402706,body_FLU,-0.018307071993702396,-0.014373557638298987,0.5988463030418847,0.8005256755962941,-0.0016415141290053725,0.005065304227173328,-0.002370588481426239,-0.018524482880719007,-0.45448613140359523,9.781803092658519,3844,1603231457.7069461,rc,0.0,0.0,0.0,0.0,0.0,-10000.0
,,220417.849408,3.0129096508026123,106626,1603884504.3771043,/world,vicon/test_obj/test_obj,-0.2549944035546184,-0.1683185442946439,1.3867178409959426,-0.005999487549082965,-0.0002716512744354094,-0.15131704755210867,0.9884670371210394,1451839.0,0.02,0.1,-0.99,-0.12,-0.12,-0.06,-25.36,12.15,-55.06,1451937.0,0.14,-0.07,1.0,-0.06,-0.06,-0.18,12.6,176.14,85.22,86701,1603231457.842871,body_FLU,-0.01823783907590799,-0.014351976735565194,0.5988604862101483,0.8005170329516842,0.0045956508256495,0.0016710542840883136,0.004757939372211695,0.10558409485314041,-0.3761008652597666,9.8495317633152,3844,1603231457.7069461,rc,0.0,0.0,0.0,0.0,0.0,-10000.0
,,220417.948785,3.1122915744781494,106636,1603884504.4769857,/world,vicon/test_obj/test_obj,-0.25498498655064306,-0.16832101429273924,1.3867208445594996,-0.0059556240340932955,-0.00021617338437239853,-0.15130484774115882,0.9884691835669219,1451939.0,0.01,0.11,-0.99,-0.06,-0.06,0.0,-22.66,11.25,-55.81,1452038.0,0.14,-0.06,0.99,-0.18,-0.12,-0.06,13.8,174.94,84.77,86706,1603231457.9426847,body_FLU,-0.018197283088876744,-0.014408216565678866,0.5988536828279376,0.8005220351414417,-0.0036110826767981052,0.005678396672010422,0.0012647610856220126,0.06634554848168045,-0.4506425218954682,9.941002301573754,3844,1603231457.7069461,rc,0.0,0.0,0.0,0.0,0.0,-10000.0
,,220418.047805,3.2114076614379883,106645,1603884504.567218,/world,vicon/test_obj/test_obj,-0.2549891867101522,-0.16831588735918573,1.386728518193232,-0.005973846325033599,-0.0002278572457173093,-0.15133421296314217,0.9884645756060187,1452040.0,0.02,0.11,-1.0,0.0,0.06,0.0,-23.86,12.45,-56.11,1452137.0,0.14,-0.06,1.0,0.0,-0.06,0.0,14.25,176.14,86.72,86711,1603231458.4255009,body_FLU,-0.01816986505385378,-0.0144592125059445,0.5988521919694996,0.8005228537343317,-0.0006387516623362899,0.007916225120425224,0.0038605567533522844,0.16410012047365308,-0.5777139587849379,9.821634586930275,3844,1603231457.7069461,rc,0.0,0.0,0.0,0.0,0.0,-10000.0
,,220418.149363,3.312861680984497,106656,1603884504.6772337,/world,vicon/test_obj/test_obj,-0.2549866731450801,-0.16832240852448244,1.3867188952875125,-0.006012864959597811,-0.0001826018639425893,-0.15130791814579708,0.9884683738076406,1452139.0,0.02,0.11,-1.0,-0.06,-0.12,0.0,-24.16,12.75,-55.36,1452237.0,0.14,-0.05,0.99,-0.18,-0.12,-0.12,14.1,174.19,86.12,86716,1603231458.139598,body_FLU,-0.01815128394538376,-0.014476490384392937,0.5988515407853928,0.800523450135126,0.0016091899015009403,0.005132659338414669,0.0017429725266993046,0.07734600080922246,-0.518981848563999,9.917841698169708,3844,1603231457.7069461,rc,0.0,0.0,0.0,0.0,0.0,-10000.0
,,220418.249187,3.4126877784729004,106666,1603884504.777103,/world,vicon/test_obj/test_obj,-0.25498964984389844,-0.16832158648405338,1.3867298279127065,-0.005944051366849271,-0.00019312091020937417,-0.15134968407922272,0.9884623938657362,1452239.0,0.02,0.12,-1.0,-0.12,-0.06,0.06,-23.11,12.45,-53.71,1452337.0,0.13,-0.06,1.0,0.0,0.0,0.0,13.8,176.29,85.82,86722,1603231458.2422185,body_FLU,-0.018119659172349707,-0.01450057965813908,0.5988407612091188,0.8005317944064052,-0.000489110650960356,0.005795450881123543,-0.00198679743334651,-0.06693918553786353,-0.598124656766653,9.838792104005813,3844,1603231457.7069461,rc,0.0,0.0,0.0,0.0,0.0,-10000.0
,,220418.348953,3.5124566555023193,106676,1603884504.8770812,/world,vicon/test_obj/test_obj,-0.25498565866545353,-0.16832519445346286,1.3867254084638512,-0.005955666398007506,-0.00018467130547148442,-0.15132266685427317,0.9884664619653897,1452339.0,0.01,0.12,-1.01,0.0,0.0,-0.06,-23.86,12.75,-56.41,1452437.0,0.14,-0.05,0.99,-0.18,-0.18,0.0,13.2,174.64,84.92,86727,1603231458.3420637,body_FLU,-0.018090524127615387,-0.014524011321284109,0.5988427771608028,0.8005305205139055,0.002950269728899002,0.006296207197010517,-0.0034294012002646923,-0.0261079131946899,-0.5250552196651698,9.796941665947438,3844,1603231457.7069461,rc,0.0,0.0,0.0,0.0,0.0,-10000.0
,,220418.448208,3.611753463745117,106685,1603884504.9672632,/world,vicon/test_obj/test_obj,-0.2549794529470475,-0.1683266700270545,1.3867153875433784,-0.005959540165310912,-0.000266452222032675,-0.1512996537129068,0.9884699427249095,1452439.0,0.01,0.12,-1.0,0.0,0.0,-0.06,-23.11,11.4,-56.11,1452537.0,0.12,-0.06,0.99,-0.12,-0.06,-0.06,12.9,175.69,85.67,86733,1603231458.4419196,body_FLU,-0.01808526310756388,-0.014583339941370708,0.5988435410352204,0.8005289893657086,0.00020930013852193952,0.003431282937526703,-0.0029645273461937904,-0.08077351533528418,-0.31745641931891444,9.943902196526528,3844,1603231457.7069461,rc,0.0,0.0,0.0,0.0,0.0,-10000.0
,,220418.549076,3.712578296661377,106696,1603884505.771513,/world,vicon/test_obj/test_obj,-0.25499068721408946,-0.16832402354998532,1.386714629537071,-0.00600177278287963,-0.00023028021935270364,-0.15129963468401716,0.9884696992012281,1452539.0,0.02,0.12,-0.99,-0.06,-0.06,0.0,-23.86,12.45,-54.61,1452638.0,0.14,-0.06,1.0,0.0,-0.06,-0.06,13.65,175.39,84.32,86739,1603231458.541754,body_FLU,-0.018096536462112525,-0.014623205141131333,0.5988391746535662,0.8005312736799928,0.0039047771133482456,0.005014793947339058,0.0021458789706230164,0.04658283959235996,-0.4818522469997406,9.859247930288316,3844,1603231457.7069461,rc,0.0,0.0,0.0,0.0,0.0,-10000.0
,,220418.648614,3.812120199203491,106706,1603884505.1771545,/world,vicon/test_obj/test_obj,-0.25498865204807775,-0.1683266473583408,1.3867219180581418,-0.005987467075642154,-0.0002317391129403186,-0.1513154742461272,0.9884673610133373,1452639.0,0.02,0.12,-0.99,-0.12,-0.06,-0.06,-24.16,11.7,-55.36,1452737.0,0.14,-0.06,0.99,-0.18,-0.06,-0.06,12.9,177.19,83.87,86745,1603231458.6415653,body_FLU,-0.01813691163724464,-0.014689223181205718,0.5988417020064666,0.8005272606829787,-0.0012907071504741907,0.003456574399024248,0.0018937108106911182,0.009855221288278699,-0.43631581988185647,9.866240626215935,3844,1603231457.7069461,rc,0.0,0.0,0.0,0.0,0.0,-10000.0
,,220418.747892,3.911557674407959,106715,1603884505.2671719,/world,vicon/test_obj/test_obj,-0.2549819349440427,-0.16832610572863216,1.3867236280294808,-0.0060015252608053085,-0.0001623669125555312,-0.15131587411247477,0.9884672283758866,1452739.0,0.01,0.12,-0.99,-0.06,-0.18,0.0,-24.91,12.45,-54.91,1452837.0,0.14,-0.05,0.99,-0.18,-0.06,0.0,12.0,174.94,85.82,86751,1603231458.7414117,body_FLU,-0.018158344679589922,-0.014714392371805008,0.5988178649493087,0.8005441435631,0.005273604765534401,0.0006095412536524236,-0.001952892285771668,-0.058588884458877145,-0.46433114770799877,9.863161970615387,3844,1603231457.7069461,rc,0.0,0.0,0.0,0.0,0.0,-10000.0
,,220418.848695,4.012205600738525,106726,1603884505.3770952,/world,vicon/test_obj/test_obj,-0.25498722039511545,-0.1683234363866213,1.3867152854129206,-0.005993837226321128,-0.0001756856888994927,-0.15131754140436574,0.9884670175140803,1452839.0,0.02,0.11,-1.01,-0.12,-0.18,-0.06,-23.56,12.15,-55.66,1452938.0,0.13,-0.06,0.99,-0.12,-0.06,-0.12,14.4,175.99,85.52,86758,1603231458.838496,body_FLU,-0.01820458704302891,-0.014723633450955585,0.5988240033302741,0.8005383317893644,-0.0029162480495870113,0.0018592425622045994,-0.004919085651636124,0.10507464891392738,-0.5174117415100337,9.88245760524273,3845,1603231458.8051825,rc,0.0,0.0,0.0,0.0,0.0,-10000.0
,,220418.949269,4.11281418800354,106736,1603884505.4770699,/world,vicon/test_obj/test_obj,-0.254983601746534,-0.16832469961204036,1.386710539885041,-0.006020028434748791,-0.0001622747082251268,-0.15131421302317916,0.9884673701553025,1452939.0,0.02,0.12,-1.0,-0.06,-0.06,-0.12,-22.66,11.85,-54.91,1453037.0,0.13,-0.06,1.0,-0.06,-0.12,0.0,12.6,175.39,43.96,86765,1603231458.9411097,body_FLU,-0.01817106011522785,-0.01471399010035635,0.5988357689699705,0.8005304696710548,0.002076038857921958,0.0021252320148050785,0.0038446211256086826,0.04642891594022513,-0.37081745849177244,9.829382050037385,3845,1603231458.8051825,rc,0.0,0.0,0.0,0.0,0.0,-10000.0
,,220419.049819,4.213316440582275,106746,1603884505.577098,/world,vicon/test_obj/test_obj,-0.25498112028657416,-0.16832843631816977,1.386705293566155,-0.005976539599301908,-0.00021709471815385643,-0.15129907003070595,0.988469941501584,1453039.0,0.03,0.11,-0.98,0.06,0.06,-0.06,-22.96,11.55,-56.56,1453137.0,0.14,-0.06,1.01,0.0,-0.06,-0.06,14.7,175.09,84.62,86774,1603231459.4374032,body_FLU,-0.018149792925250846,-0.014719527488448656,0.5988415389584855,0.8005265340668728,-0.0011654447298496962,0.0024714006576687098,0.0011960773263126612,0.0657456633830443,-0.5152626704871655,9.76174100714922,3845,1603231458.8051825,rc,0.0,0.0,0.0,0.0,0.0,-10000.0
,,220419.148359,4.311884641647339,106755,1603884505.667208,/world,vicon/test_obj/test_obj,-0.25497781692690286,-0.16832929741619856,1.386710529662201,-0.006033826597030714,-0.0001769662614456598,-0.15129696833956102,0.9884699231594237,1453139.0,0.02,0.11,-1.0,-0.06,-0.06,0.0,-23.71,12.3,-55.81,1453237.0,0.13,-0.06,1.0,-0.06,-0.12,-0.12,13.35,175.54,86.12,86780,1603231459.1435287,body_FLU,-0.01812389938349403,-0.014696814163946881,0.5988283495689389,0.8005374042960817,0.0005584366153925657,0.004126432351768017,0.0006327638402581215,-0.023572458480019123,-0.3250465905815363,9.886794595599175,3845,1603231458.8051825,rc,0.0,0.0,0.0,0.0,0.0,-10000.0
,,220419.248123,4.411855936050415,106765,1603884505.7671943,/world,vicon/test_obj/test_obj,-0.2549800453701434,-0.16832425032440265,1.3867167067072181,-0.0059969397108323936,-0.00013203838287391154,-0.15132703388802787,0.9884655523055023,1453239.0,0.01,0.12,-1.0,0.06,0.06,0.06,-23.41,11.85,-56.26,1453338.0,0.15,-0.07,1.01,-0.12,-0.12,-0.12,13.65,176.44,85.22,86785,1603231459.2433999,body_FLU,-0.01815759937152518,-0.014716730462749034,0.5988218315270164,0.8005411504202513,-0.0007198660168796778,0.004025472793728113,2.5074114091694355e-05,0.1662189051490277,-0.5002012096345425,9.86588544166088,3845,1603231458.8051825,rc,0.0,0.0,0.0,0.0,0.0,-10000.0
,,220419.349001,4.512500524520874,106776,1603884505.8771868,/world,vicon/test_obj/test_obj,-0.2549829217496588,-0.16832620494222544,1.386714763621977,-0.006007563901434926,-0.00024128014630445205,-0.15130413554977845,0.9884689724646877,1453339.0,0.02,0.12,-0.99,0.0,0.06,-0.06,-24.01,12.9,-54.46,1453437.0,0.14,-0.06,0.99,-0.06,-0.06,-0.06,12.9,176.14,85.67,86792,1603231459.3404818,body_FLU,-0.018153613010428383,-0.014763167992844375,0.5988223146851727,0.8005400243838997,0.0003676608903333545,0.010069413110613823,-0.0004410106921568513,0.024085642291232945,-0.5505333219654858,9.758203766226769,3846,1603231459.3071613,rc,0.0,0.0,0.0,0.0,0.0,-10000.0
,,220419.449517,4.613023996353149,106786,1603884505.9770772,/world,vicon/test_obj/test_obj,-0.25498570124324904,-0.1683310623988524,1.3867253083548865,-0.0059929448838585515,-0.0001834812791598974,-0.15130162776076347,0.9884694574862607,1453439.0,0.02,0.12,-1.0,-0.12,-0.12,0.06,-22.96,12.6,-54.46,1453538.0,0.14,-0.06,1.0,-0.12,-0.06,-0.06,13.05,176.29,83.72,86800,1603231459.4430776,body_FLU,-0.018161595231473267,-0.01476631433657904,0.5988543473705186,0.8005158231134422,-0.003041047602891922,0.0056655495427548885,0.0037270481698215008,-0.03871150185540319,-0.4596835169121623,9.796605175316333,3846,1603231459.3071613,rc,0.0,0.0,0.0,0.0,0.0,-10000.0
,,220419.548246,4.711763143539429,106795,1603884506.6713412,/world,vicon/test_obj/test_obj,-0.2549842193053104,-0.16832883582325572,1.3867135910140864,-0.0060690342206110295,-0.0002145212074395557,-0.15132586535724846,0.9884652767184897,1453539.0,0.02,0.12,-0.99,-0.06,-0.06,0.06,-22.81,12.15,-56.41,1453638.0,0.14,-0.05,1.0,0.0,0.06,0.0,13.2,174.64,84.32,86807,1603231459.5401297,body_FLU,-0.01813699480162406,-0.014731415681877583,0.5988725172160018,0.8005034309326495,0.002330021932721138,0.008916584774851799,0.003253735601902008,0.05152365829702467,-0.43856628353521226,9.876544483423233,3847,1603231459.5068343,rc,0.0,0.0,0.0,0.0,0.0,-10000.0
,,220419.648967,4.8124706745147705,106806,1603884506.17711,/world,vicon/test_obj/test_obj,-0.25497768954536665,-0.16832330768399878,1.3867174926699661,-0.005948885846315714,-0.00023945890489793852,-0.15129654127122177,0.988470490209994,1453639.0,0.01,0.11,-0.99,-0.06,-0.06,0.0,-23.11,12.45,-55.36,1453738.0,0.13,-0.06,0.98,-0.18,-0.18,-0.06,13.8,176.29,84.17,86815,1603231459.6427853,body_FLU,-0.018141500564477775,-0.01470417607230715,0.598870783478806,0.8005051266911317,-0.0009508716175332665,0.004443028010427952,-0.0005748847033828497,0.007318589075468481,-0.5955031260252,9.875516317605973,3847,1603231459.5068343,rc,0.0,0.0,0.0,0.0,0.0,-10000.0
,,220419.748747,4.9122536182403564,106816,1603884506.277122,/world,vicon/test_obj/test_obj,-0.2549856499222096,-0.1683270671696569,1.386710104521136,-0.006019055180148864,-0.0002039534676354365,-0.15130717630124552,0.9884684455143044,1453739.0,0.02,0.12,-1.01,0.0,0.12,0.12,-22.81,10.95,-57.46,1453837.0,0.14,-0.06,0.99,-0.06,-0.12,-0.12,13.2,174.64,83.87,86820,1603231459.742611,body_FLU,-0.018149558793199305,-0.01467164007863024,0.5988756650847707,0.8005018889810872,-0.0005143103189766407,0.007863259874284267,-0.0018652565777301788,0.03311218785401434,-0.4167215936332941,9.802440600514412,3847,1603231459.5068343,rc,0.0,0.0,0.0,0.0,0.0,-10000.0
,,220419.848788,5.012293100357056,106826,1603884506.3770113,/world,vicon/test_obj/test_obj,-0.25498040138788436,-0.16832663713780527,1.3867189889416378,-0.006011977875682106,-0.0002660588424253897,-0.15133364519707593,0.9884644218008457,1453839.0,0.03,0.12,-0.99,0.0,0.0,0.0,-24.01,12.6,-55.51,1453938.0,0.14,-0.07,1.0,-0.18,-0.06,0.0,12.6,175.39,84.62,86825,1603231459.8396595,body_FLU,-0.01813181795804148,-0.014636037752466392,0.5988768799290194,0.8005020338905627,0.0006307655712589622,0.007333499379456043,0.00029562751296907663,0.08927685922477395,-0.39910961704328657,9.82576944923401,3847,1603231459.5068343,rc,0.0,0.0,0.0,0.0,0.0,-10000.0
,,220419.948018,5.1115546226501465,106835,1603884506.4671237,/world,vicon/test_obj/test_obj,-0.2549827676063382,-0.1683289739328333,1.386704656161071,-0.0060218052228011324,-0.00022152569306468345,-0.15129879119267034,0.988469708474601,1453939.0,0.02,0.12,-1.0,0.0,-0.06,-0.06,-22.96,11.25,-55.51,1454037.0,0.14,-0.07,1.0,-0.06,-0.18,0.0,13.05,177.34,84.47,86831,1603231459.9422843,body_FLU,-0.01810672730860275,-0.0146147119149394,0.5988777129477018,0.8005023682390611,0.0004428210377227515,0.0064066373743116856,-0.0036263903602957726,0.04024276972655207,-0.5986926672644913,9.69580227971077,3847,1603231459.5068343,rc,0.0,0.0,0.0,0.0,0.0,-10000.0
,,220420.048167,5.211726188659668,106845,1603884506.5670502,/world,vicon/test_obj/test_obj,-0.25498362793793533,-0.16832956090370585,1.3867114272365202,-0.006006966001157669,-0.00023649309812859398,-0.15130633515685973,0.9884686405606783,1454039.0,0.02,0.11,-1.0,0.0,0.0,0.06,-23.41,11.85,-54.46,1454137.0,0.14,-0.06,1.0,-0.12,-0.18,-0.06,13.95,177.19,85.67,86836,1603231460.421295,body_FLU,-0.018071014439340498,-0.014579740099499557,0.5988756886969453,0.8005053273423755,-0.0020958303939551115,0.005903696175664663,0.0014617987908422947,0.0067312913406640295,-0.49675579531118275,9.91542784523964,3847,1603231459.5068343,rc,0.0,0.0,0.0,0.0,0.0,-10000.0
,,220420.148832,5.312337160110474,106856,1603884506.6771526,/world,vicon/test_obj/test_obj,-0.2549817723675619,-0.16832637892984895,1.3867222498546576,-0.005938911240889249,-0.0002607478826546727,-0.1513162521273787,0.9884675276335273,1454139.0,0.01,0.12,-0.99,0.0,0.0,0.0,-24.46,12.3,-56.86,1454238.0,0.14,-0.05,1.01,-0.06,-0.12,-0.06,12.75,175.54,84.47,86842,1603231460.1419892,body_FLU,-0.018060664166820936,-0.014581821859222063,0.5988834214288477,0.8004997379255014,0.0008073418284766376,0.0038295448757708073,0.0034188658464699984,0.08449576038401574,-0.3067189507037401,9.755894482433796,3847,1603231459.5068343,rc,0.0,0.0,0.0,0.0,0.0,-10000.0
,,220420.248989,5.412492990493774,106866,1603884506.7772093,/world,vicon/test_obj/test_obj,-0.25498142459793327,-0.16832889451033184,1.3867245265697725,-0.005981825099795211,-0.000220316393967305,-0.15129748979757232,0.9884701506925313,1454239.0,0.02,0.12,-1.0,-0.06,-0.06,0.0,-24.46,10.5,-54.91,1454337.0,0.13,-0.06,0.99,-0.12,-0.06,-0.12,13.05,175.54,85.07,86848,1603231460.2418256,body_FLU,-0.018024612603972052,-0.014570313269299823,0.5988947471230768,0.8004922867711451,-0.0010099890641868114,0.0029778736643493176,0.003748360788449645,-0.0013593987822532654,-0.5209781916886568,9.851259782910347,3847,1603231459.5068343,rc,0.0,0.0,0.0,0.0,0.0,-10000.0
,,220420.347985,5.511509418487549,106875,1603884506.8672218,/world,vicon/test_obj/test_obj,-0.25497794923451716,-0.16833137813683707,1.386715676614008,-0.00596679217660803,-0.00019080152106435637,-0.15130468374006567,0.9884691465413675,1454339.0,0.01,0.12,-0.98,0.0,0.06,0.0,-22.66,11.55,-55.81,1454438.0,0.15,-0.06,1.01,-0.06,-0.18,0.06,14.1,176.59,84.77,86854,1603231460.341646,body_FLU,-0.017986533427029997,-0.014565323051298072,0.5989002575986389,0.8004891113737737,0.0044427188113331795,0.00040991255082190037,-0.0024525285698473454,0.016348256377503277,-0.4877273967862129,9.772806641757489,3847,1603231459.5068343,rc,0.0,0.0,0.0,0.0,0.0,-10000.0
,,220420.448362,5.611889600753784,106885,1603884506.9671423,/world,vicon/test_obj/test_obj,-0.25497543730411854,-0.16832198632115739,1.3867127019561938,-0.00592268986532079,-0.0002881094323040672,-0.15131447657778452,0.9884678891677288,1454439.0,0.02,0.12,-1.0,0.06,0.0,0.06,-23.86,12.45,-54.61,1454538.0,0.13,-0.06,0.99,-0.06,-0.06,-0.06,12.9,175.39,84.62,86860,1603231460.441476,body_FLU,-0.01795855929643738,-0.014574333167251709,0.5988953054304995,0.8004932804802518,-0.001621661358512938,0.0022565554827451706,-0.0036389792803674936,-0.11439544122107327,-0.4810016369484365,9.75007132512331,3847,1603231459.5068343,rc,0.0,0.0,0.0,0.0,0.0,-10000.0
,,220420.548554,5.7120561599731445,106896,1603884507.770075,/world,vicon/test_obj/test_obj,-0.2549779987607834,-0.1683232865370013,1.386719153124084,-0.005939283340877574,-0.00021916099541995941,-0.15130705347973922,0.9884689435936438,1454540.0,0.02,0.12,-1.01,-0.18,-0.12,-0.12,-22.81,11.7,-55.66,1454637.0,0.14,-0.06,0.99,-0.06,-0.06,0.0,12.75,174.94,86.42,86867,1603231460.53859,body_FLU,-0.01796512085084685,-0.014559946879512455,0.5988976536342308,0.8004916382143497,0.0049222493544220924,0.004822712391614914,-0.000236044405028224,-0.21056558449566365,-0.3881048837341368,9.975653826355934,3848,1603231460.5052786,rc,0.0,0.0,0.0,0.0,0.0,-10000.0
,,220420.648987,5.812495470046997,106906,1603884507.1770558,/world,vicon/test_obj/test_obj,-0.25497767585771525,-0.16833190817481508,1.3867165281773615,-0.0059725821665188,-0.0002546188132809076,-0.1513371890104132,0.9884641210756971,1454640.0,0.02,0.1,-1.01,-0.06,-0.06,-0.06,-24.16,12.15,-55.06,1454738.0,0.13,-0.06,0.99,0.0,0.0,-0.06,14.4,177.04,86.12,86874,1603231460.641182,body_FLU,-0.017951041066079632,-0.01456313738046036,0.5989020549427057,0.8004886031291677,-0.0008857387001626194,0.007717982865869999,0.0031193739268928766,-0.08586125659849494,-0.3736756207197905,9.885003484010696,3848,1603231460.5052786,rc,0.0,0.0,0.0,0.0,0.0,-10000.0
,,220420.749154,5.91269850730896,106916,1603884507.2770374,/world,vicon/test_obj/test_obj,-0.25498414748779996,-0.16832365221202977,1.3867148885703768,-0.005977118168995253,-0.00022649433422889103,-0.15133142873071875,0.9884649824030337,1454739.0,0.02,0.1,-1.0,0.0,0.0,0.0,-24.16,10.65,-55.66,1454838.0,0.14,-0.06,1.0,0.0,0.06,-0.12,14.1,174.49,83.72,86883,1603231460.7438116,body_FLU,-0.01791778088469837,-0.014586742042508684,0.5988996990094035,0.8004906811520038,0.005201603285968304,0.003852659836411476,0.0023784199729561806,0.003012752216309309,-0.439629902087152,9.763847578704357,3848,1603231460.5052786,rc,0.0,0.0,0.0,0.0,0.0,-10000.0
,,220420.848195,6.01169753074646,106925,1603884507.3672223,/world,vicon/test_obj/test_obj,-0.25498045390648577,-0.16832872749634537,1.3867078842818819,-0.006025142190022149,-0.00020382883909978363,-0.15129342939972518,0.9884705126284065,1454840.0,0.02,0.11,-0.99,0.12,0.06,0.0,-24.61,12.15,-55.36,1454938.0,0.14,-0.05,0.99,-0.06,0.0,0.0,12.75,176.29,83.72,86889,1603231460.8436692,body_FLU,-0.017907415816256992,-0.014585201989367287,0.5988744676271353,0.8005098177824107,-0.0004419360775500536,0.006316731683909893,-0.0030359511729329824,0.010011089181527495,-0.49821596602723,9.812468722343445,3848,1603231460.5052786,rc,0.0,0.0,0.0,0.0,0.0,-10000.0
,,220420.948455,6.111964225769043,106936,1603884507.477024,/world,vicon/test_obj/test_obj,-0.2549827305999822,-0.16833125546970457,1.3866998253985443,-0.005966055406606868,-0.00023086122474387077,-0.15132890328201312,0.9884654348622633,1454939.0,0.02,0.11,-1.0,-0.06,-0.06,0.12,-23.71,12.3,-55.21,1455038.0,0.13,-0.06,0.99,0.0,0.0,0.0,13.05,175.54,85.82,86895,1603231460.943506,body_FLU,-0.017863207299697842,-0.014512445472815995,0.5988716019926129,0.8005142716267887,0.0019868507515639067,0.006827924866229296,0.0031599397771060467,0.06197709427960217,-0.35531413461640476,9.854572112560273,3848,1603231460.5052786,rc,0.0,0.0,0.0,0.0,0.0,-10000.0
,,220421.047959,6.211496353149414,106945,1603884507.5671425,/world,vicon/test_obj/test_obj,-0.2549805296178654,-0.16833056276123817,1.38671910730328,-0.0059641906319837625,-0.00023529550340679612,-0.1513096949695674,0.9884683855715103,1455039.0,0.02,0.12,-1.0,0.0,-0.06,0.0,-23.11,12.75,-55.66,1455138.0,0.15,-0.06,0.99,0.0,-0.06,0.06,11.55,176.14,84.32,86900,1603231461.4331422,body_FLU,-0.017893472727317637,-0.014437544316107952,0.5989015616588306,0.8004925361241609,-0.002637332072481513,0.007229756563901901,0.005311079788953066,0.09661060060188174,-0.33284506035223604,9.858118116259575,3848,1603231460.5052786,rc,0.0,0.0,0.0,0.0,0.0,-10000.0
,,220421.147822,6.311407089233398,106955,1603884507.6672683,/world,vicon/test_obj/test_obj,-0.25497144164672725,-0.16833135089902673,1.3867102014897301,-0.0060013333942243036,-0.00020507417566466608,-0.15132253314458394,0.9884662022066207,1455139.0,0.02,0.12,-1.0,0.06,0.06,0.06,-24.01,13.35,-54.91,1455238.0,0.14,-0.06,1.0,-0.12,-0.06,-0.12,12.75,175.99,84.47,86907,1603231461.1403835,body_FLU,-0.017933947489233826,-0.014367235926465192,0.5989112475714085,0.8004856485857481,0.003427634947001934,0.007476398255676031,0.004394677933305502,-0.1098960747839883,-0.5346347603425383,9.815339408040046,3849,1603231461.1070967,rc,0.0,0.0,0.0,0.0,0.0,-10000.0
,,220421.24941,6.412909269332886,106966,1603884507.7771487,/world,vicon/test_obj/test_obj,-0.254982131343057,-0.1683328363413759,1.3867141346987333,-0.006045042932085029,-0.00021080102898456417,-0.15133409973979603,0.9884641638799158,1455239.0,0.02,0.11,-1.0,-0.06,-0.18,-0.06,-24.16,11.4,-55.06,1455338.0,0.13,-0.06,1.0,-0.06,-0.12,-0.06,12.9,175.09,86.27,86915,1603231461.2429905,body_FLU,-0.01793107614987191,-0.014277096922094203,0.5989099170946145,0.8004883210998813,0.001227068598382175,0.0060296207666397095,0.0005948685575276613,0.025659227072261273,-0.34905517520383,9.834505353569984,3849,1603231461.1070967,rc,0.0,0.0,0.0,0.0,0.0,-10000.0
,,220421.347779,6.511500358581543,106975,1603884507.867211,/world,vicon/test_obj/test_obj,-0.2549777240646387,-0.16832545048073594,1.3867141937292977,-0.005991174914283535,-0.00022387598143484982,-0.1513135044536642,0.9884676418945855,1455340.0,0.02,0.11,-0.99,0.06,0.0,0.0,-22.06,12.45,-54.31,1455438.0,0.14,-0.06,0.98,-0.18,-0.18,0.0,14.7,175.39,85.22,86922,1603231461.3400433,body_FLU,-0.017908097156823063,-0.014246895820703348,0.5989440105746335,0.8004638644014288,0.0010863963980227709,0.004004213958978653,0.0025155458133667707,-0.04372412056289613,-0.5098143044449389,9.85173530960083,3850,1603231461.3068225,rc,0.0,0.0,0.0,0.0,0.0,-10000.0
,,220421.448016,6.611551523208618,106985,1603884507.967243,/world,vicon/test_obj/test_obj,-0.2549743245473551,-0.16832980127666133,1.3867154952868956,-0.006044520395399035,-0.00019855164189666456,-0.15130513054046965,0.9884686043686802,1455439.0,0.01,0.11,-1.0,-0.06,-0.18,0.06,-24.76,12.3,-56.26,1455538.0,0.14,-0.06,1.0,0.0,0.0,0.0,12.6,176.44,84.62,86929,1603231461.4399438,body_FLU,-0.017892511861063387,-0.014202742041385939,0.5989427731291277,0.8004659234809424,-0.0015357963275164366,0.004865540657192469,-0.0009513217955827713,0.006480310807004571,-0.42406965667381885,9.801697517037391,3850,1603231461.3068225,rc,0.0,0.0,0.0,0.0,0.0,-10000.0
,,220421.548222,6.711769104003906,106995,1603884508.6705112,/world,vicon/test_obj/test_obj,-0.2549738848499472,-0.1683270531209011,1.386714247933381,-0.005957898258965495,-0.00023558291958563257,-0.1512991546565994,0.988470036849485,1455540.0,0.01,0.11,-0.99,-0.12,-0.12,0.06,-24.16,12.45,-54.61,1455638.0,0.14,-0.07,0.99,-0.06,-0.06,-0.12,13.2,176.14,85.67,86935,1603231461.5426,body_FLU,-0.017853183352486507,-0.014184879496710353,0.5989446514405918,0.8004657129125233,0.0003685427363961935,0.0021760156378149986,-0.0024780926760286093,-0.017990263841114938,-0.5578613401539624,9.832373077869416,3850,1603231461.3068225,rc,0.0,0.0,0.0,0.0,0.0,-10000.0
,,220421.648072,6.811611652374268,107005,1603884508.1670258,/world,vicon/test_obj/test_obj,-0.2549730992864888,-0.16832818956616782,1.3867054122740534,-0.005978127164796562,-0.00029059731966717876,-0.151307731354485,0.9884685872505804,1455640.0,0.01,0.12,-0.98,-0.12,-0.12,-0.06,-23.71,12.3,-55.21,1455737.0,0.14,-0.05,1.0,0.0,-0.12,-0.06,12.9,174.34,85.22,86940,1603231461.642346,body_FLU,-0.0178420461689562,-0.014167907855365782,0.5989595101926113,0.8004551436060199,0.0003231774899177253,0.003088131546974182,-0.0014374172315001488,0.08391514426656067,-0.5070148528218269,9.904817875027657,3850,1603231461.3068225,rc,0.0,0.0,0.0,0.0,0.0,-10000.0
,,220421.749195,6.912697792053223,107016,1603884508.2770636,/world,vicon/test_obj/test_obj,-0.2549768823919796,-0.1683294105672082,1.3867019879535114,-0.0060114343626649965,-0.00019196341481200616,-0.15133644698225346,0.988464013316488,1455739.0,0.02,0.11,-1.0,0.06,0.0,0.06,-24.01,13.65,-53.41,1455838.0,0.14,-0.06,1.01,-0.06,-0.18,-0.06,12.15,175.69,86.27,86948,1603231461.739419,body_FLU,-0.017804999765735532,-0.014132676557146959,0.5989838254892659,0.8004383962797623,0.0016253702342510223,0.0008494176436215639,-0.001377189764752984,0.06140020234230906,-0.4018267350755632,9.819230080962182,3851,1603231461.706147,rc,0.0,0.0,0.0,0.0,0.0,-10000.0
,,220421.848152,7.011675834655762,107025,1603884508.3669975,/world,vicon/test_obj/test_obj,-0.2549716193968804,-0.16832948729507777,1.3867110299009562,-0.006022285731646137,-0.00017027580497104344,-0.15131006122002247,0.9884679906068328,1455839.0,0.02,0.12,-1.0,-0.06,-0.06,0.06,-22.96,12.3,-55.21,1455938.0,0.15,-0.05,0.99,-0.24,-0.18,-0.12,14.1,177.04,85.07,86954,1603231461.8420477,body_FLU,-0.017825278791720297,-0.014124670411052767,0.5990082120346553,0.800419836733712,-0.0004656389937736094,0.0040642013773322105,0.0015224316157400608,-0.020287914135027677,-0.5606056593060493,9.806737866282463,3851,1603231461.706147,rc,0.0,0.0,0.0,0.0,0.0,-10000.0
,,220421.949543,7.113038778305054,107036,1603884508.4769647,/world,vicon/test_obj/test_obj,-0.2549700634463547,-0.16832681878782357,1.3867019404623107,-0.005988317508972898,-0.0002292025091426905,-0.1513322243541079,0.9884647921861757,1455940.0,0.02,0.12,-1.01,0.06,0.06,0.0,-24.76,11.85,-55.51,1456038.0,0.15,-0.06,1.0,-0.06,-0.06,0.06,13.65,176.14,84.32,86960,1603231461.9419124,body_FLU,-0.017875121920733157,-0.014126276952082137,0.5990455092336743,0.8003907834194244,0.001584229408763349,0.004460285417735577,0.004520644433796406,0.03562916771415621,-0.542465433318168,9.808259084343911,3851,1603231461.706147,rc,0.0,0.0,0.0,0.0,0.0,-10000.0
,,220422.048343,7.211865186691284,107045,1603884508.5671992,/world,vicon/test_obj/test_obj,-0.254975599198928,-0.16831970002758864,1.3867093136678794,-0.005950928213255215,-0.00023684901948690902,-0.1513082923470281,0.9884686798391585,1456039.0,0.02,0.13,-1.0,0.0,0.0,-0.06,-23.41,12.3,-55.21,1456138.0,0.14,-0.06,0.99,-0.06,-0.18,0.0,13.2,176.74,85.22,86966,1603231462.4172304,body_FLU,-0.017945338762098834,-0.014138050701409596,0.5990206059285961,0.8004076423998059,-0.0036540571600198746,0.0034860684536397457,-0.00030114036053419113,0.006638387650251388,-0.47177147548645737,9.923400803804398,3851,1603231461.706147,rc,0.0,0.0,0.0,0.0,0.0,-10000.0
,,220422.148698,7.312199592590332,107056,1603884508.6770313,/world,vicon/test_obj/test_obj,-0.2549699764404956,-0.1683237114300387,1.3867078161688748,-0.0059363183523281895,-0.00027623703245910206,-0.1513087719399205,0.9884686840520315,1456139.0,0.02,0.12,-0.99,0.06,0.0,0.06,-24.76,12.9,-54.91,1456238.0,0.14,-0.06,1.01,-0.18,-0.06,0.0,14.25,176.74,85.22,86972,1603231462.1416018,body_FLU,-0.017931451823464596,-0.014104402358213253,0.5990054745902404,0.8004198712429254,-0.0036417334340512753,0.0037606663536280394,-0.004013603553175926,0.1463955779252574,-0.4769707230851054,9.70511068546772,3851,1603231461.706147,rc,0.0,0.0,0.0,0.0,0.0,-10000.0
,,220422.248954,7.4124579429626465,107066,1603884508.7772293,/world,vicon/test_obj/test_obj,-0.2549677108603513,-0.1683271048654038,1.386713386408873,-0.005991638090417258,-0.0002268192456418681,-0.151321668916392,0.9884663885749384,1456239.0,0.02,0.11,-0.99,-0.06,-0.06,-0.06,-25.51,11.55,-56.26,1456337.0,0.13,-0.06,1.0,-0.06,-0.06,-0.24,11.7,176.59,84.77,86979,1603231462.2414205,body_FLU,-0.017932118543287415,-0.01413138824032588,0.5989920566958506,0.8004294216270573,-0.0002796257031150162,0.0035069198347628117,-0.0012578221503645182,-0.039401415358297526,-0.6075426702573895,9.831700096607209,3852,1603231462.2053702,rc,0.0,0.0,0.0,0.0,0.0,-10000.0
,,220422.348045,7.511570453643799,107075,1603884508.866925,/world,vicon/test_obj/test_obj,-0.2549620090342935,-0.16833268618532332,1.386716704375705,-0.005973934267363965,-0.00018348347445911448,-0.15132239812523635,0.9884663930902311,1456339.0,0.01,0.11,-0.99,0.06,0.0,-0.06,-24.61,11.7,-56.41,1456438.0,0.14,-0.06,1.0,0.0,0.0,-0.12,14.1,176.29,85.07,86989,1603231462.3440378,body_FLU,-0.017924157733492468,-0.014195578217084816,0.5989851447698951,0.8004336365206146,-0.002989620203152299,0.004284178372472525,0.00359505508095026,0.054042618909850716,-0.3927443724498153,9.782789781332015,3852,1603231462.2053702,rc,0.0,0.0,0.0,0.0,0.0,-10000.0
,,220422.447946,7.611447811126709,107085,1603884508.967236,/world,vicon/test_obj/test_obj,-0.25497388248001684,-0.16833049058034993,1.386709004713402,-0.006033892407533896,-0.000201239562756477,-0.15133037898708562,0.9884648036428397,1456439.0,0.02,0.11,-1.0,-0.12,-0.24,-0.06,-23.71,12.9,-55.21,1456538.0,0.14,-0.06,1.0,-0.06,-0.06,0.0,13.2,178.24,85.67,86995,1603231462.4438727,body_FLU,-0.017929087379451494,-0.014274527147031707,0.5989679058638459,0.8004450221255347,0.0016808382933959365,0.0036293440498411655,0.0009792185155674815,0.09881889339163899,-0.4827139930799604,9.75447374421358,3852,1603231462.2053702,rc,0.0,0.0,0.0,0.0,0.0,-10000.0
,,220422.549238,7.712738037109375,107096,1603884509.771126,/world,vicon/test_obj/test_obj,-0.2549622793131167,-0.16833095177827628,1.386703605983212,-0.006006232497007736,-0.00022000987216942377,-0.15132067007585467,0.9884664544508541,1456539.0,0.01,0.11,-1.0,-0.06,-0.12,-0.06,-23.11,12.15,-56.71,1456638.0,0.14,-0.06,1.0,-0.12,-0.12,-0.18,13.95,175.69,84.62,87001,1603231462.5437043,body_FLU,-0.017931766712261425,-0.01436085357140774,0.5989505392021054,0.8004564130649369,-0.001809190376661718,0.005955127067863941,-0.001973578706383705,-0.07310436954628677,-0.48740273590385913,9.835485616207123,3852,1603231462.2053702,rc,0.0,0.0,0.0,0.0,0.0,-10000.0
,,220422.647971,7.811599969863892,107105,1603884509.1670613,/world,vicon/test_obj/test_obj,-0.2549573861626949,-0.16833299101905075,1.3867194153501716,-0.0059945201352705774,-0.00026267353863340583,-0.15131647411260005,0.9884671574681128,1456639.0,0.02,0.11,-1.0,0.06,0.06,0.06,-23.41,12.6,-55.21,1456738.0,0.14,-0.06,0.99,0.0,0.06,-0.06,13.05,175.54,85.52,87007,1603231462.6407883,body_FLU,-0.017955543283143714,-0.01444315910770168,0.5989602893466698,0.8004471034404149,-0.0006687353015877306,0.005894872359931469,-0.003062474075704813,-0.04019934377772734,-0.6087009633108974,9.898568262577058,3853,1603231462.6269472,rc,0.0,0.0,0.0,0.0,0.0,-10000.0
,,220422.749786,7.9132866859436035,107116,1603884509.2772167,/world,vicon/test_obj/test_obj,-0.2549672511127516,-0.1683322577708529,1.386698280894783,-0.005974265406284627,-0.0001895995098123492,-0.1513077983836132,0.9884686248704028,1456739.0,0.02,0.12,-0.99,-0.06,-0.06,0.0,-24.16,10.95,-55.66,1456838.0,0.14,-0.06,1.0,-0.06,-0.06,0.0,13.2,174.64,84.32,87016,1603231462.7434118,body_FLU,-0.017979363994488507,-0.014532076844900944,0.5989666174630106,0.800440224112861,0.001860446180216968,0.008231466636061668,-0.0006618432234972715,-0.028839293559081852,-0.40943315398693086,9.850917450428009,3853,1603231462.6269472,rc,0.0,0.0,0.0,0.0,0.0,-10000.0
,,220422.847887,8.01144289970398,107125,1603884509.3671882,/world,vicon/test_obj/test_obj,-0.2549669667675285,-0.1683285549830784,1.386707249928012,-0.005952568793725938,-0.0002832089500992049,-0.15131376699387966,0.9884678197268582,1456839.0,0.01,0.12,-0.97,-0.06,-0.06,-0.06,-23.11,11.4,-56.11,1456938.0,0.13,-0.07,0.99,-0.06,-0.18,0.0,14.25,176.74,85.67,87023,1603231462.8405101,body_FLU,-0.01802158548184214,-0.014575081659553332,0.5989540912899203,0.8004478658716031,0.0004084276151843369,0.0055402833968400955,0.003187771886587143,-0.006517630195710808,-0.39736695630848407,9.792224955260753,3854,1603231462.8071778,rc,0.0,0.0,0.0,0.0,0.0,-10000.0
,,220422.949378,8.112872123718262,107136,1603884509.4769828,/world,vicon/test_obj/test_obj,-0.25497213200245256,-0.16833634013432644,1.3867065110305263,-0.006004431731908217,-0.000150292284674516,-0.15131164618861334,0.9884678598414305,1456939.0,0.02,0.12,-0.99,-0.06,-0.12,-0.06,-24.16,13.2,-55.66,1457038.0,0.14,-0.06,0.99,0.0,-0.06,-0.06,14.1,174.19,84.47,87031,1603231462.9430656,body_FLU,-0.01802400158654303,-0.014588121547744087,0.5989449730649139,0.800454396775223,-0.0004613295313902199,0.006202332675457001,0.0004345517372712493,0.1544970115777105,-0.4399188911654055,9.775889970839025,3854,1603231462.8071778,rc,0.0,0.0,0.0,0.0,0.0,-10000.0
,,220423.047983,8.211511611938477,107145,1603884509.5672936,/world,vicon/test_obj/test_obj,-0.25496775411877365,-0.16832947056063194,1.3867091379326446,-0.005990330484423861,-0.00020962400660545126,-0.15130327984222897,0.9884692152553095,1457039.0,0.03,0.11,-1.0,-0.06,-0.12,0.06,-25.81,12.6,-54.16,1457138.0,0.14,-0.06,0.99,-0.06,-0.06,-0.06,12.75,175.54,84.77,87038,1603231463.4018784,body_FLU,-0.01802071998773314,-0.014626516607760601,0.5989330431239156,0.8004626965183153,-0.002067321678623557,0.0006884803296998143,0.0018270332366228104,0.11913478908129037,-0.5612077350988984,9.70739076000452,3855,1603231463.6854389,rc,0.0,0.0,0.0,0.0,0.0,-10000.0
,,220423.148384,8.311902523040771,107155,1603884509.667124,/world,vicon/test_obj/test_obj,-0.2549594402925997,-0.16833392302182468,1.3867030361894925,-0.0060078373429721475,-0.0002591006214771921,-0.15131392975812863,0.9884674670511319,1457139.0,0.02,0.12,-0.99,-0.06,-0.06,-0.12,-24.01,11.55,-55.81,1457238.0,0.14,-0.06,1.01,0.0,0.0,0.0,12.6,176.44,84.62,87046,1603231463.1427872,body_FLU,-0.017997462232101226,-0.014651238231686193,0.5989504951563015,0.8004497091782242,0.003592565655708313,0.0023230139631778,-0.00011644327605608851,0.07104780971445143,-0.46310183965042234,9.872430651783944,3855,1603231463.6854389,rc,0.0,0.0,0.0,0.0,0.0,-10000.0
,,220423.248126,8.411651134490967,107165,1603884509.7672844,/world,vicon/test_obj/test_obj,-0.25496201435098587,-0.16833177356967569,1.3867040291876278,-0.006004436317673182,-0.0002211820499786914,-0.15131050215344416,0.9884680216178369,1457239.0,0.01,0.11,-1.0,-0.12,-0.06,0.06,-24.16,11.7,-56.11,1457338.0,0.13,-0.06,0.99,-0.06,-0.18,-0.12,12.75,174.94,85.52,87053,1603231463.2398162,body_FLU,-0.017985750003394717,-0.01469031307859752,0.5989477331920992,0.8004513229438216,-0.002919889986515045,0.009526919573545456,-0.0016182567924261093,-0.0467094343341887,-0.5352819644361735,9.789055750966073,3856,1603231463.2065492,rc,0.0,0.0,0.0,0.0,0.0,-10000.0
,,220423.347848,8.511481523513794,107175,1603884509.8671982,/world,vicon/test_obj/test_obj,-0.2549663828130992,-0.16833218298212185,1.3867031146873994,-0.005951878864530311,-0.0002754667335148064,-0.15131005350033616,0.9884683945204248,1457339.0,0.02,0.11,-0.99,-0.06,-0.06,-0.06,-22.81,11.4,-56.41,1457438.0,0.14,-0.05,1.0,-0.06,-0.12,0.0,14.25,176.74,84.62,87059,1603231463.3424582,body_FLU,-0.01792415451969868,-0.014730093486984461,0.5989557312415372,0.8004459888359328,0.004779219161719084,0.005159744061529636,0.002477470552548766,-0.03919285214133561,-0.3926516330614686,9.900101164340972,3856,1603231463.2065492,rc,0.0,0.0,0.0,0.0,0.0,-10000.0
,,220423.448732,8.612237930297852,107186,1603884509.977075,/world,vicon/test_obj/test_obj,-0.254969066834416,-0.16833111627323114,1.386712173742184,-0.006000414508222896,-0.00019410019472595306,-0.15131861662113671,0.9884668095665677,1457440.0,0.02,0.11,-0.99,0.06,0.0,0.0,-24.01,10.8,-56.26,1457538.0,0.14,-0.07,1.0,-0.12,-0.18,-0.24,13.35,176.59,84.77,87064,1603231463.439495,body_FLU,-0.01790053934053734,-0.014758483042407167,0.5989537986323287,0.8004474404815776,0.002161022974178195,0.007133596111088991,0.006183779798448086,0.01771754979528487,-0.5153210889995098,9.747562834203244,3856,1603231463.2065492,rc,0.0,0.0,0.0,0.0,0.0,-10000.0
,,220423.548227,8.711758613586426,107195,1603884510.670281,/world,vicon/test_obj/test_obj,-0.25496223121724093,-0.16833309301204943,1.3867026855185205,-0.005974949348261101,-0.00029981446198188685,-0.15130626500060143,0.9884688281696808,1457539.0,0.02,0.11,-1.01,-0.12,-0.12,-0.06,-23.11,10.95,-54.61,1457638.0,0.14,-0.06,0.98,0.06,0.0,-0.06,13.35,175.24,85.07,87070,1603231463.542145,body_FLU,-0.017884063837443676,-0.014782321605924773,0.5989521646812727,0.8004485915111694,0.003637916874140501,0.008418912999331951,0.0014984605368226767,0.08594906692486257,-0.4045738291069865,9.812396283388138,3856,1603231463.2065492,rc,0.0,0.0,0.0,0.0,0.0,-10000.0
,,220423.648356,8.811902523040771,107205,1603884510.1671507,/world,vicon/test_obj/test_obj,-0.25496208587856195,-0.16833134232184682,1.3867022124167194,-0.0060356496527689315,-0.00022216328508644137,-0.1513167521859222,0.9884668745510129,1457639.0,0.02,0.11,-1.0,-0.12,0.0,0.0,-24.91,12.75,-55.36,1457738.0,0.15,-0.06,1.01,0.06,0.0,-0.12,12.3,176.29,84.77,87076,1603231463.6419742,body_FLU,-0.0178963104869573,-0.01486333130086524,0.5989680063203848,0.8004349635405607,-0.0011847554706037045,0.0023430713918060064,0.0006128603126853704,0.0652359344791621,-0.3844475562572479,9.750156616151333,3856,1603231463.2065492,rc,0.0,0.0,0.0,0.0,0.0,-10000.0
