name,date,time,time_since_start,vicon_sequence,vicon_time_stamp,vicon_frame_id,vicon_child_frame_id,vicon_translation_x,vicon_translation_y,vicon_translation_z,vicon_rotation_x,vicon_rotation_y,vicon_rotation_z,vicon_rotation_w,int_imu_time_stamp,int_imu_acc_x,int_imu_acc_y,int_imu_acc_z,int_imu_gyro_x,int_imu_gyro_y,int_imu_gyro_z,int_imu_mag_x,int_imu_mag_y,int_imu_mag_z,ext_imu_time_stamp,ext_imu_acc_x,ext_imu_acc_y,ext_imu_acc_z,ext_imu_gyro_x,ext_imu_gyro_y,ext_imu_gyro_z,ext_imu_mag_x,ext_imu_mag_y,ext_imu_mag_z,dji_imu_sequence,dji_imu_time_stamp,dji_imu_frame_id,dji_imu_orientation_x,dji_imu_orientation_y,dji_imu_orientation_z,dji_imu_orientation_w,dji_imu_ang_vel_x,dji_imu_ang_vel_y,dji_imu_ang_vel_z,dji_imu_lin_acc_x,dji_imu_lin_acc_y,dji_imu_lin_acc_z,rc_sequence,rc_time_stamp,rc_frame_id,rc_roll,rc_pitch,rc_yaw,rc_throttle,rc_mode,rc_landing_gear
/root/Desktop/devel/VibrationTest/26102020/T000_4.csv,20201020,193853.275618,0.0002524852752685547,65481,1603717864.9599638,/world,vicon/test_obj/test_obj,-0.29528697773192925,-0.06136228150659051,1.3819692469973732,0.0026273427652531134,-0.0013644488264160071,-0.09829473406830973,0.9951529433227007,2036706.0,0.15,-0.05,0.99,-0.06,-0.06,0.0,14.7,177.79,87.62,2036714.0,0.14,-0.05,0.99,-0.06,-0.18,0.0,12.15,177.79,86.72,51240,1603222733.2581263,body_FLU,-0.016171698194654402,-0.01548541668523072,0.6241638175192595,0.7809726031989664,0.0010537166381254792,0.005237906239926815,-0.0016756905242800713,0.07400475399568678,-0.37831733664125206,9.816358226895332,4794,1603222733.224853,rc,0.0,0.0,0.0,0.0,0.0,-10000.0
,,193853.335807,0.06045961380004883,65487,1603717865.1994681,/world,vicon/test_obj/test_obj,-0.2952876399255377,-0.06136606677677071,1.381976207678603,0.002664132304260256,-0.0013581813266006755,-0.09829893214191686,0.9951524394193627,2036755.0,0.14,-0.05,0.99,-0.12,-0.06,0.06,12.75,178.39,85.52,2036774.0,0.14,-0.06,1.0,0.0,0.0,-0.12,13.05,176.59,85.52,51246,1603222733.3275094,body_FLU,-0.016126664480314516,-0.015472690673264816,0.6241662968692926,0.7809718051175362,0.005825992673635483,0.006264358758926392,-0.0022276504896581173,0.06827754909172654,-0.4120426724217832,9.937247159600258,4794,1603222733.224853,rc,0.0,0.0,0.0,0.0,0.0,-10000.0
,,193853.416878,0.1415266990661621,65495,1603717865.1000366,/world,vicon/test_obj/test_obj,-0.29528793639317497,-0.06136146979016805,1.3819781005238245,0.002628585675484321,-0.001380775940400193,-0.09830198994095483,0.9951522008058855,2036835.0,0.14,-0.06,1.02,-0.06,-0.06,0.0,12.15,176.74,84.62,2036855.0,0.15,-0.05,0.99,-0.06,-0.06,-0.06,12.3,176.29,84.47,51252,1603222733.4079282,body_FLU,-0.016134408079755934,-0.01546737377222593,0.6241934154693655,0.7809500760670904,0.004299242980778217,0.002928046975284815,0.0028123613446950912,0.06936752899736166,-0.43449947879835965,9.839097048640252,4794,1603222733.224853,rc,0.0,0.0,0.0,0.0,0.0,-10000.0
,,193853.5494,0.27404212951660156,65508,1603717865.2301495,/world,vicon/test_obj/test_obj,-0.2952822609115912,-0.06136023280132627,1.3819730475243273,0.0026090929138852027,-0.001376913603168275,-0.09827872489452995,0.9951545553210323,2036935.0,0.14,-0.06,0.98,0.06,0.0,-0.06,12.0,175.99,84.47,2036988.0,0.14,-0.05,0.99,-0.12,-0.12,0.06,14.25,176.74,85.67,51262,1603222733.5382519,body_FLU,-0.016119528921002185,-0.01546994244018157,0.6241696674814011,0.7809693130107096,0.0005595280672423542,0.004728208761662245,-0.004094608593732119,-0.09124336326867342,-0.5152177612558008,9.977068722724916,4795,1603222733.5244138,rc,0.0,0.0,0.0,0.0,0.0,-10000.0
,,193853.61591,0.34055137634277344,65515,1603717865.2999964,/world,vicon/test_obj/test_obj,-0.2952898812543144,-0.061360942792876294,1.3819907470315669,0.0025863851050448037,-0.0013923302721182925,-0.09827414445312344,0.9951550454881432,2037034.0,0.14,-0.05,0.99,-0.06,-0.18,-0.12,12.0,175.54,84.47,2037055.0,0.14,-0.06,0.98,0.12,0.06,-0.06,13.35,176.59,85.07,51267,1603222733.6076126,body_FLU,-0.016115049867388157,-0.015500169028767222,0.6241610961339069,0.7809756564712955,0.003280678065493703,0.003324557561427355,0.0006863812450319529,0.15930742920935154,-0.3792453147098422,9.73989774119854,4795,1603222733.5244138,rc,0.0,0.0,0.0,0.0,0.0,-10000.0
,,193853.715833,0.4404735565185547,65525,1603717865.400301,/world,vicon/test_obj/test_obj,-0.2952830531536074,-0.06135917088496737,1.381988588552609,0.002619331653552402,-0.0014056660632941044,-0.09827695349128193,0.9951546631640127,2037134.0,0.14,-0.05,1.0,-0.06,0.0,-0.06,12.6,177.19,85.97,2037154.0,0.13,-0.05,0.99,-0.06,-0.06,0.0,13.35,177.04,83.42,51273,1603222733.707444,body_FLU,-0.016112319765167676,-0.015526029388932477,0.6241424469320213,0.7809901033309629,-0.00035217864206060767,0.0074469344690442085,-4.888279363512993e-06,0.07739376707095653,-0.33433699613437057,9.898171016693116,4795,1603222733.5244138,rc,0.0,0.0,0.0,0.0,0.0,-10000.0
,,193853.839098,0.5637462139129639,65537,1603717865.5200565,/world,vicon/test_obj/test_obj,-0.29528570554587974,-0.06136172902802091,1.381975713190205,0.0026471370455975196,-0.0013729184165552847,-0.09826225343179985,0.9951560869084749,2037270.0,0.14,-0.06,1.0,0.0,0.0,-0.06,13.2,176.74,84.32,2037279.0,0.14,-0.05,0.98,-0.06,-0.06,0.0,14.1,177.64,86.12,51281,1603222733.8267252,body_FLU,-0.01605797867958726,-0.015507988233996513,0.6241512293173187,0.7809845623079498,0.0013002955820411444,0.0020323616918176413,0.0020177611149847507,0.1644028013907373,-0.39371338952332735,9.827186682343482,4795,1603222733.5244138,rc,0.0,0.0,0.0,0.0,0.0,-10000.0
,,193853.916484,0.6412844657897949,65545,1603717865.6003282,/world,vicon/test_obj/test_obj,-0.2952767501982815,-0.0613847398970151,1.3818666669064679,0.0028946976599604655,-0.0024195317084969937,-0.09823764914543287,0.9951558324615034,2037335.0,0.14,-0.05,0.99,-0.06,-0.18,-0.06,11.7,177.34,84.77,2037355.0,0.14,-0.05,1.0,0.0,0.0,-0.06,12.75,175.99,85.52,51286,1603222733.9098992,body_FLU,-0.016056865357016198,-0.015488773582542447,0.6241454336596371,0.7809895982723707,-0.0001608880702406168,0.006116580218076706,0.0001140528402174823,0.12365583426319063,-0.3492131607681513,9.852776327490806,4795,1603222733.5244138,rc,0.0,0.0,0.0,0.0,0.0,-10000.0
,,193854.016402,0.7410478591918945,65555,1603717865.7002597,/world,vicon/test_obj/test_obj,-0.295287571992818,-0.061363752184824545,1.3819628578971443,0.0025729884220774303,-0.0013464617280844278,-0.09828996295968864,0.9951535810882548,2037435.0,0.15,-0.06,0.99,-0.06,-0.06,-0.06,12.9,176.74,84.92,2037455.0,0.14,-0.05,1.0,0.0,-0.06,-0.06,10.95,177.04,84.77,51292,1603222734.9760435,body_FLU,-0.01606504288111127,-0.015456502791526815,0.6241722335453214,0.7809686509647672,-4.039093619212508e-05,0.004863890819251537,-0.0028392672538757324,0.14279425919707864,-0.5080077484622598,9.854285861849785,4795,1603222733.5244138,rc,0.0,0.0,0.0,0.0,0.0,-10000.0
,,193854.119269,0.8439145088195801,65565,1603717865.8002603,/world,vicon/test_obj/test_obj,-0.29529665740019295,-0.061366862947165195,1.3819669613239056,0.002583472979119046,-0.001326244597906479,-0.09828298007291028,0.9951542707392762,2037549.0,0.14,-0.05,1.0,-0.06,-0.18,0.0,15.15,177.34,85.52,2037557.0,0.15,-0.05,1.0,-0.06,-0.06,0.0,13.2,177.79,85.22,51297,1603222734.1178994,body_FLU,-0.016092348605088697,-0.015401786703798222,0.6241874819996981,0.7809569825525472,0.003986263647675514,0.007545155007392168,8.737446478335187e-05,0.0946348043633625,-0.48071713879331945,9.872658483982086,4795,1603222733.5244138,rc,0.0,0.0,0.0,0.0,0.0,-10000.0
,,193854.216466,0.9411113262176514,65575,1603717865.9000602,/world,vicon/test_obj/test_obj,-0.29530346318350803,-0.061366269826611405,1.381982229006685,0.0025854400882219675,-0.0013542864810838307,-0.09829666737386979,0.9951528759898493,2037634.0,0.14,-0.05,0.99,-0.06,-0.06,0.0,13.05,177.04,85.82,2037654.0,0.15,-0.05,0.99,-0.06,-0.12,0.06,12.3,176.59,86.12,51302,1603222734.209412,body_FLU,-0.01605670523197733,-0.015425902381938698,0.6241974180917884,0.78094929861057,-0.00027655440499074757,0.0022151386365294456,0.004048163071274757,0.11500324020255358,-0.3900075746811926,9.74002684611082,4796,1603222734.1262193,rc,0.0,0.0,0.0,0.0,0.0,-10000.0
,,193854.315825,1.0404713153839111,65585,1603717866.357956,/world,vicon/test_obj/test_obj,-0.29529263436739106,-0.06136495522242125,1.3819697918734184,0.0026309041183612335,-0.0013470775579798276,-0.09828716191811043,0.9951537054785335,2037734.0,0.14,-0.05,0.99,0.0,0.0,-0.12,13.35,177.04,85.82,2037754.0,0.14,-0.06,0.99,-0.12,-0.06,0.0,12.6,176.44,85.97,51307,1603222734.298145,body_FLU,-0.016018184652332814,-0.015445790459304271,0.6242257945807573,0.7809270149620599,-0.0038298177532851696,0.007556026801466942,0.00028975040186196566,-0.06229499595751986,-0.34652240408957,9.86867083632946,4796,1603222734.1262193,rc,0.0,0.0,0.0,0.0,0.0,-10000.0
,,193854.408968,1.133643388748169,65594,1603717866.9003065,/world,vicon/test_obj/test_obj,-0.2952909266230908,-0.06136097942222302,1.3819825084332333,0.0026313992731164157,-0.0013926784319799618,-0.09828540857964223,0.9951538145658606,2037838.0,0.14,-0.05,1.01,0.0,0.0,0.0,14.25,179.59,85.97,2037847.0,0.15,-0.05,1.0,-0.12,-0.12,-0.06,12.9,177.19,85.22,51311,1603222734.3979974,body_FLU,-0.015987065567347827,-0.015480788646394274,0.6242218915560427,0.7809300794691079,0.007731749676167965,0.006091822404414415,-0.0007210783660411835,-0.026035232350230218,-0.47874244702979923,9.73990767234564,4797,1603222734.3841667,rc,0.0,0.0,0.0,0.0,0.0,-10000.0
,,193854.515793,1.2404370307922363,65605,1603717866.200272,/world,vicon/test_obj/test_obj,-0.2952965428317565,-0.0613614820676471,1.3819615414994062,0.0026038965816299327,-0.001376401899664308,-0.0982874084199245,0.995153712039752,2037934.0,0.14,-0.06,1.0,-0.06,-0.06,-0.06,11.25,176.29,85.52,2037955.0,0.14,-0.06,1.0,-0.06,-0.12,-0.12,13.05,177.64,84.17,51316,1603222734.489553,body_FLU,-0.015982751505860666,-0.015518723006578312,0.6242017457813903,0.7809455175964656,-0.0009648671257309616,-0.00117100914940238,3.746373113244772e-05,-0.016495548615697773,-0.3346277012564242,9.784757316827774,4797,1603222734.3841667,rc,0.0,0.0,0.0,0.0,0.0,-10000.0
,,193854.616283,1.3409361839294434,65615,1603717866.3003933,/world,vicon/test_obj/test_obj,-0.29529491377418765,-0.0613629267087458,1.381970689631368,0.0026474831878999395,-0.0014053287796716777,-0.09828795190698812,0.9951535029299351,2038035.0,0.14,-0.05,1.0,0.0,-0.06,0.0,13.2,177.19,84.92,2038055.0,0.14,-0.05,0.99,0.0,0.0,0.06,12.9,177.19,85.22,51324,1603222734.6115723,body_FLU,-0.01595898536917313,-0.015569753153359308,0.6242233461016176,0.7809277224906478,-0.002955871867015958,0.006321012508124113,0.001351615646854043,-0.022813446830492468,-0.5028032797090709,9.850536561727523,4797,1603222734.3841667,rc,0.0,0.0,0.0,0.0,0.0,-10000.0
,,193854.718382,1.4430267810821533,65625,1603717866.4003055,/world,vicon/test_obj/test_obj,-0.29529882802855023,-0.061360006606645714,1.381969833622729,0.002621429833938759,-0.0013899409362591938,-0.09830300597829045,0.99515210655731,2038135.0,0.15,-0.05,0.99,0.0,-0.06,-0.06,12.15,174.34,86.27,2038155.0,0.15,-0.06,0.98,-0.06,-0.18,-0.06,13.2,177.19,84.92,51331,1603222734.7169569,body_FLU,-0.01593069853560917,-0.015577904122789242,0.6242266926475747,0.7809254624697411,0.002538999542593956,0.005362160969525576,-0.0015413236105814576,-0.071091842668131,-0.4466878076791763,9.796592323243619,4799,1603222734.686448,rc,0.0,0.0,0.0,0.0,0.0,-10000.0
,,193854.815783,1.5404222011566162,65635,1603717866.5003257,/world,vicon/test_obj/test_obj,-0.29528817513012257,-0.06136159737828798,1.3819758924131167,0.002639881073941101,-0.0013437148952492365,-0.09830397672301422,0.9951520253803621,2038235.0,0.13,-0.06,1.0,-0.12,-0.06,-0.12,13.2,177.19,84.62,2038255.0,0.13,-0.05,1.0,0.0,0.12,0.12,12.3,178.09,84.47,51336,1603222734.80849,body_FLU,-0.01592315946031413,-0.015579536515151652,0.6242357262312729,0.780918362654695,-0.0002511922502890229,0.004422352649271488,0.0032400512136518955,0.09787051448319108,-0.34232404816523193,9.70869174027443,4800,1603222734.7252648,rc,0.0,0.0,0.0,0.0,0.0,-10000.0
,,193854.948848,1.6734905242919922,65648,1603717866.6301866,/world,vicon/test_obj/test_obj,-0.2952925039150849,-0.06136518148029359,1.3819779298919554,0.002565034001964074,-0.0013492294688756234,-0.09824100279361997,0.9951584323867798,2038335.0,0.14,-0.05,0.99,0.06,0.0,0.0,13.2,177.19,84.62,2038388.0,0.14,-0.05,0.99,-0.06,-0.12,-0.06,13.8,179.14,86.12,51347,1603222734.938803,body_FLU,-0.01595395027651765,-0.015551595388368434,0.6242395892315317,0.780915203199105,-9.345065336674452e-05,0.0005424630944617093,0.0013389639789238572,0.06402327569760383,-0.49459157198667525,9.8883426861763,4801,1603222734.9249723,rc,0.0,0.0,0.0,0.0,0.0,-10000.0
,,193855.015828,1.7404708862304688,65655,1603717866.7001317,/world,vicon/test_obj/test_obj,-0.2952948209815547,-0.061357640116347825,1.3819768576997304,0.00264469692251212,-0.0013710689914796783,-0.09827712642336643,0.995154627266524,2038435.0,0.14,-0.05,1.0,0.0,0.0,-0.06,12.75,178.39,84.77,2038455.0,0.14,-0.05,1.0,-0.3,-0.18,-0.12,12.75,177.34,85.07,51352,1603222735.8164744,body_FLU,-0.015935463191481883,-0.015556313395341166,0.6242515701624988,0.7809059093617321,-0.0008834368200041354,0.0024153972044587135,0.0011662341421470046,0.15810214576497675,-0.4456734067238867,9.728379947304726,4801,1603222734.9249723,rc,0.0,0.0,0.0,0.0,0.0,-10000.0
,,193855.115708,1.8403480052947998,65665,1603717866.8003032,/world,vicon/test_obj/test_obj,-0.2952898659521082,-0.06136120894776426,1.381966124350435,0.002650458291637954,-0.001424759121845201,-0.09826202147160941,0.9951560281024288,2038535.0,0.15,-0.05,0.99,0.06,0.0,0.06,11.85,175.39,84.32,2038555.0,0.14,-0.05,0.98,-0.12,-0.06,-0.06,13.65,177.19,84.32,51360,1603222735.1079838,body_FLU,-0.015923315750662734,-0.015547607744185857,0.6242592582367518,0.7809001846680779,0.004887448623776436,0.00046974391443654895,0.0011822734959423542,0.09578701824042946,-0.4608618913292885,9.850867210507394,4801,1603222734.9249723,rc,0.0,0.0,0.0,0.0,0.0,-10000.0
,,193855.236467,1.961108922958374,65677,1603717866.9200487,/world,vicon/test_obj/test_obj,-0.2952929650636874,-0.06136532491886851,1.3819727684966023,0.0026276677624884393,-0.00138057779929857,-0.09825751603764243,0.9951565956718482,2038667.0,0.13,-0.06,1.0,-0.12,-0.18,0.0,14.4,177.04,86.12,2038676.0,0.14,-0.05,0.99,0.06,-0.06,-0.06,13.2,177.49,85.22,51369,1603222735.2105606,body_FLU,-0.015912236417001086,-0.015551121553285153,0.6242790376391232,0.7808845282850817,-0.003750643925741315,0.004957984667271376,0.004132821224629879,0.05210880184918642,-0.5664989918544888,9.897299412488938,4802,1603222735.2244966,rc,0.0,0.0,0.0,0.0,0.0,-10000.0
,,193855.315389,2.0400283336639404,65685,1603717867.211604,/world,vicon/test_obj/test_obj,-0.29529568454439525,-0.06136068596173439,1.3819740768061737,0.0025944802125445303,-0.0013710085865738862,-0.0982846656036594,0.9951540149720841,2038735.0,0.15,-0.05,0.99,-0.06,-0.18,0.0,12.15,177.79,84.92,2038755.0,0.14,-0.05,0.99,0.0,0.0,0.0,12.75,177.64,84.77,51373,1603222735.291081,body_FLU,-0.01590017238273556,-0.015554287023031278,0.6242860436496286,0.7808791099636988,-0.0009433290688320994,0.0016115405596792698,-0.0009490228840149939,-0.028783462804276495,-0.3857849020510912,9.803700103640557,4802,1603222735.2244966,rc,0.0,0.0,0.0,0.0,0.0,-10000.0
,,193855.416507,2.1413064002990723,65695,1603717867.1002696,/world,vicon/test_obj/test_obj,-0.29530052848516997,-0.0613578195167147,1.3819737675987884,0.002623625437307864,-0.001426073208148056,-0.09829614118804207,0.9951527277419835,2038835.0,0.13,-0.06,0.98,-0.18,-0.06,-0.06,12.0,177.04,84.47,2038855.0,0.15,-0.05,0.99,-0.06,-0.06,-0.12,13.35,177.34,84.17,51379,1603222735.4103785,body_FLU,-0.015887405459006493,-0.015578132792072336,0.6242819611394846,0.7808821582814738,-0.000502929906360805,0.009144600480794907,-0.0007382864714600146,0.16963549358770252,-0.35683330802991986,9.76036700373888,4803,1603222735.3464808,rc,0.0,0.0,0.0,0.0,0.0,-10000.0
,,193855.517675,2.242316961288452,65705,1603717867.2000525,/world,vicon/test_obj/test_obj,-0.2953357112051658,-0.06131520518540963,1.3820625747461366,0.0021610394064180646,-0.0020240351329014776,-0.09824390308240447,0.9951579616812598,2038948.0,0.14,-0.06,1.01,0.0,0.06,-0.06,14.7,176.74,86.27,2038957.0,0.13,-0.06,0.99,-0.06,-0.06,0.0,13.05,177.64,85.82,51388,1603222735.5101702,body_FLU,-0.015902643546512184,-0.015604571049391674,0.6242916649676089,0.780873562327838,-7.630838081240654e-05,0.004735789727419615,-0.0005567596526816487,0.07362598296627403,-0.41593422162160276,9.667911529362202,4803,1603222735.3464808,rc,0.0,0.0,0.0,0.0,0.0,-10000.0
,,193855.615109,2.339752435684204,65715,1603717867.3002973,/world,vicon/test_obj/test_obj,-0.29529205596286107,-0.061360657476893184,1.3819762139669896,0.0025942556414686995,-0.0013647825311869572,-0.09828739506207404,0.9951537545415889,2039035.0,0.14,-0.05,0.99,-0.06,-0.12,0.0,12.3,176.59,85.07,2039055.0,0.14,-0.05,0.99,0.0,0.0,0.0,13.2,176.44,83.87,51394,1603222735.6100276,body_FLU,-0.015946124302820632,-0.015659846616263445,0.6242816483924657,0.7808795770181597,-0.0022711576893925667,0.0016215734649449587,-0.0007779075531288981,0.02678898633364588,-0.28786178352311254,9.885662444829942,4804,1603222735.5463016,rc,0.0,0.0,0.0,0.0,0.0,-10000.0
,,193855.715596,2.4402413368225098,65725,1603717867.4002523,/world,vicon/test_obj/test_obj,-0.2952997899778377,-0.061361028621266224,1.3819769273063187,0.0025856607225392472,-0.0013840960238369403,-0.09829193922131366,0.9951533014168914,2039135.0,0.13,-0.06,0.99,-0.06,-0.06,-0.06,12.15,177.49,85.22,2039155.0,0.14,-0.04,0.99,-0.12,-0.06,0.06,13.05,177.64,85.82,51398,1603222735.6904693,body_FLU,-0.01597462582914152,-0.015678008387611315,0.6242936794143206,0.7808690115672067,-0.001645175158046186,0.006344829685986042,-0.0014875889755785465,0.12306228392198681,-0.45169982394576075,9.796960359871388,4804,1603222735.5463016,rc,0.0,0.0,0.0,0.0,0.0,-10000.0
,,193855.80608,2.5307199954986572,65734,1603717867.489988,/world,vicon/test_obj/test_obj,-0.2952997057800021,-0.06136229319218765,1.3819829921109374,0.002646156938131505,-0.0013580256160557853,-0.09830833001097067,0.9951515592462984,2039236.0,0.15,-0.05,0.98,0.06,0.06,0.06,13.35,177.04,85.82,2039245.0,0.14,-0.05,1.0,0.0,-0.06,0.06,12.0,177.04,85.07,51403,1603222735.7986581,body_FLU,-0.016026813192783,-0.01568279971433449,0.6242972846462721,0.7808649636366684,-0.0012706485576927662,0.007033202331513166,0.0033678922336548567,0.08116130472254009,-0.5225756459087133,9.814807799577713,4805,1603222735.7265413,rc,0.0,0.0,0.0,0.0,0.0,-10000.0
,,193855.916381,2.6410250663757324,65745,1603717867.6001704,/world,vicon/test_obj/test_obj,-0.295300553600296,-0.06136300663554187,1.3819718237568885,0.0026507615645438567,-0.0013899286586709922,-0.09829709258519442,0.9951526129949866,2039335.0,0.15,-0.06,0.98,-0.06,-0.12,0.0,12.15,176.44,84.92,2039355.0,0.14,-0.06,0.99,-0.06,-0.18,0.0,12.75,175.99,85.07,51411,1603222735.9095805,body_FLU,-0.016091925252435947,-0.01571068389256568,0.6243036440123966,0.7808579796775728,0.004819005727767944,0.004849880468100309,0.003436838276684284,0.16653536918386816,-0.40651679231598975,9.798634634435176,4805,1603222735.7265413,rc,0.0,0.0,0.0,0.0,0.0,-10000.0
,,193856.015788,2.7404308319091797,65755,1603717867.7000623,/world,vicon/test_obj/test_obj,-0.2952939508726368,-0.06136071074944508,1.3819766471129196,0.002586036299163382,-0.0013905944529263253,-0.09829828343568195,0.9951526647388959,2039435.0,0.15,-0.06,0.99,-0.06,-0.06,-0.06,12.6,178.24,84.92,2039455.0,0.14,-0.06,0.99,-0.06,-0.06,-0.06,12.9,178.24,83.87,51418,1603222735.9983191,body_FLU,-0.016054810689255256,-0.015744792171826536,0.6242759443467458,0.7808802020048765,0.0006450051441788673,0.0037530444096773863,-0.0030321874655783176,0.0804144696816802,-0.4964755324982107,9.821378713846206,4806,1603222735.965034,rc,0.0,0.0,0.0,0.0,0.0,-10000.0
,,193856.115794,2.840435266494751,65765,1603717867.8004065,/world,vicon/test_obj/test_obj,-0.29530549750339646,-0.06136302518253121,1.3819683135377385,0.002594998190456391,-0.0013630130311173467,-0.09828645939501932,0.9951538474424242,2039536.0,0.14,-0.05,1.0,0.0,0.0,0.0,12.6,176.44,84.62,2039555.0,0.14,-0.06,1.0,-0.06,-0.06,0.0,12.15,177.49,84.92,51422,1603222736.9818552,body_FLU,-0.01605485731234012,-0.01574823499937361,0.6242719081941639,0.7808833583133287,0.0018585671205073595,0.0024008345790207386,-0.0009667389094829559,0.02184372234530747,-0.39693860256671903,9.903835275650025,4807,1603222736.8430138,rc,0.0,0.0,0.0,0.0,0.0,-10000.0
,,193856.215688,2.9403302669525146,65775,1603717867.9002779,/world,vicon/test_obj/test_obj,-0.29529872373231814,-0.06136225434587466,1.381975372183358,0.00261331272022374,-0.0013429379132693503,-0.09828775083507708,0.9951536992596517,2039635.0,0.14,-0.05,0.98,-0.06,-0.06,-0.12,12.0,176.29,84.77,2039655.0,0.14,-0.04,0.99,-0.06,-0.18,-0.06,12.3,176.59,85.07,51428,1603222736.1980214,body_FLU,-0.016027532960468122,-0.01576979917492058,0.6242683470844468,0.7808863313246278,0.0006292090401984751,-8.897727821022272e-05,0.003100468311458826,0.023610526355914773,-0.5067826392352581,9.787955146193504,4807,1603222736.8430138,rc,0.0,0.0,0.0,0.0,0.0,-10000.0
,,193856.345378,3.0700204372406006,65788,1603717868.302006,/world,vicon/test_obj/test_obj,-0.2952943357031477,-0.061364039493090355,1.3819716455710855,0.0026359780294390013,-0.001402917402203736,-0.09828978673462156,0.9951533556524108,2039735.0,0.14,-0.05,0.99,0.0,0.0,0.0,13.8,176.59,85.07,2039785.0,0.14,-0.05,0.99,0.0,0.0,0.0,13.05,176.59,85.67,51436,1603222736.3394837,body_FLU,-0.01600978634955904,-0.01581078605245409,0.6242733676224075,0.7808818529475656,0.002709314925596118,0.0032162037678062916,0.004414336755871773,0.044348824401386086,-0.48526805043965576,9.77820509648323,4807,1603222736.8430138,rc,0.0,0.0,0.0,0.0,0.0,-10000.0
,,193856.41629,3.140933036804199,65795,1603717868.100106,/world,vicon/test_obj/test_obj,-0.2952998679030196,-0.06135934619344851,1.3819725611017752,0.002584266951750167,-0.0013533054917601996,-0.09827134718215273,0.9951553810594468,2039835.0,0.15,-0.06,0.99,0.0,0.06,-0.06,12.75,177.34,85.52,2039855.0,0.15,-0.05,0.98,-0.06,-0.18,0.06,13.35,177.04,84.77,51441,1603222736.4115503,body_FLU,-0.015979185809799828,-0.015858801190059994,0.6242803112359636,0.7808759549690325,-7.429666584357619e-05,0.0016728707123547792,0.0017217688728123903,0.04614785900060087,-0.386451566811651,9.815092881917954,4807,1603222736.8430138,rc,0.0,0.0,0.0,0.0,0.0,-10000.0
,,193856.516362,3.240999460220337,65805,1603717868.2001088,/world,vicon/test_obj/test_obj,-0.29530838735861814,-0.06136671730645664,1.381972349085343,0.002633289750853532,-0.0013659689130360332,-0.09827361734520708,0.9951550110650624,2039936.0,0.15,-0.06,0.98,-0.06,-0.12,0.0,12.15,176.44,85.22,2039956.0,0.14,-0.05,1.0,-0.06,-0.12,0.0,12.6,175.39,84.32,51447,1603222736.511368,body_FLU,-0.01594531508366341,-0.01588505160897114,0.6242722958013069,0.7808825217388519,0.001311277854256332,0.0006951614050194621,4.5193592086434364e-05,0.04498130520433188,-0.4624451790601015,9.818635380506516,4809,1603222736.4864774,rc,0.0,0.0,0.0,0.0,0.0,-10000.0
,,193856.63693,3.361572504043579,65817,1603717868.3202517,/world,vicon/test_obj/test_obj,-0.2953001270558911,-0.061357613232665295,1.3819780382170341,0.002624408879278883,-0.0013895579632937206,-0.09828539287016815,0.9951538389390143,2040068.0,0.15,-0.06,1.0,0.0,0.0,0.06,14.25,178.24,86.27,2040076.0,0.14,-0.05,1.0,-0.06,-0.06,0.12,13.8,177.64,86.42,51455,1603222736.627888,body_FLU,-0.015913555212672733,-0.015841664377775122,0.6242765984394761,0.7808806112787486,-0.002383009996265173,0.004740486852824688,0.0027031339704990387,0.08174534379970283,-0.34064970057830213,9.825897969961167,4810,1603222736.525249,rc,0.0,0.0,0.0,0.0,0.0,-10000.0
,,193856.716058,3.440700054168701,65825,1603717868.4000635,/world,vicon/test_obj/test_obj,-0.2953004343281368,-0.061362700036083434,1.3819667366975692,0.0025813812193883202,-0.0013372335088974834,-0.09828035124915765,0.9951545210849846,2040135.0,0.14,-0.05,1.0,0.06,0.0,0.06,12.9,175.69,85.22,2040155.0,0.15,-0.06,0.99,-0.06,0.0,-0.12,11.1,177.19,83.57,51461,1603222736.7083008,body_FLU,-0.015896275940876965,-0.015821547975031578,0.6242671506521906,0.7808889240138321,0.0009134209831245244,0.005581618286669254,-0.0011761044152081013,0.0036010540192946794,-0.406830171123147,9.70542439287901,4810,1603222736.525249,rc,0.0,0.0,0.0,0.0,0.0,-10000.0
,,193856.815539,3.540180206298828,65835,1603717868.5000286,/world,vicon/test_obj/test_obj,-0.29535285788462534,-0.061306587376619176,1.38206405833575,0.002169625822029809,-0.0019431856637413196,-0.09825564815477786,0.995156944586608,2040235.0,0.14,-0.06,0.99,-0.06,-0.06,0.06,12.75,175.99,85.07,2040255.0,0.15,-0.06,0.99,-0.06,-0.12,0.12,13.2,176.74,84.92,51470,1603222736.7970643,body_FLU,-0.015882630439516765,-0.01579942094010788,0.6242615048124833,0.7808941630960836,-0.0018261880613863468,0.0037802825681865215,0.0016572738531976938,0.09811214805487543,-0.48428066804632547,9.785077450275422,4810,1603222736.525249,rc,0.0,0.0,0.0,0.0,0.0,-10000.0
,,193856.926231,3.6508917808532715,65846,1603717868.610259,/world,vicon/test_obj/test_obj,-0.2952978027786919,-0.06135821160841466,1.3819716585845796,0.002596810282075167,-0.0013274087580679508,-0.09827980264839602,0.9951545482756636,2040356.0,0.15,-0.06,1.0,-0.06,-0.06,-0.06,16.2,175.99,86.87,2040365.0,0.15,-0.05,0.99,0.0,0.0,-0.18,13.35,177.64,129.18,51477,1603222736.9218578,body_FLU,-0.015895850661248496,-0.015773177763020903,0.6242630732941009,0.780893170745151,-0.0027719081845134497,0.004503813572227955,0.0005518525140359998,0.07857003294490278,-0.3066606052145362,9.86301475596428,4811,1603222736.86639,rc,0.0,0.0,0.0,0.0,0.0,-10000.0
,,193857.015689,3.740328550338745,65855,1603717868.7003257,/world,vicon/test_obj/test_obj,-0.2953013387250504,-0.06136042689332671,1.381969399814276,0.002615955635524345,-0.0013531932954601808,-0.09828520536021189,0.9951539298276016,2040435.0,0.15,-0.06,0.98,-0.12,-0.18,0.0,13.2,176.44,85.22,2040455.0,0.14,-0.05,0.99,-0.06,-0.06,-0.06,13.05,179.14,84.77,51485,1603222736.9967477,body_FLU,-0.015877727139751874,-0.01573680473141733,0.6242605303281102,0.7808963061970439,-0.00037679652450606227,0.0033276528120040894,-0.0015376112423837185,-0.0671292419526726,-0.3048337122872472,9.80968215930462,4811,1603222736.86639,rc,0.0,0.0,0.0,0.0,0.0,-10000.0
,,193857.115622,3.8402650356292725,65865,1603717868.8003218,/world,vicon/test_obj/test_obj,-0.29530338191425964,-0.06135886526035496,1.3819770463607293,0.0026154752196292305,-0.001401153003702942,-0.09830184725192057,0.9951522209624494,2040535.0,0.14,-0.05,1.0,0.0,-0.06,-0.06,13.65,177.19,84.62,2040555.0,0.15,-0.06,1.0,0.0,-0.06,0.0,11.25,176.29,84.47,51490,1603222737.1076584,body_FLU,-0.015839755163884413,-0.01567460911413795,0.6243092189600575,0.7808594034184068,-0.0015716910129413009,0.00537418108433485,0.0003020771546289325,0.10011238878965378,-0.5557633853293955,9.750136169672013,4812,1603222737.4670966,rc,0.0,0.0,0.0,0.0,0.0,-10000.0
,,193857.205424,3.930063009262085,65874,1603717868.8899984,/world,vicon/test_obj/test_obj,-0.2953010287807388,-0.06136116681771901,1.3819774276383128,0.0026349886900573394,-0.0014057911553887945,-0.09826879373406715,0.995155427440298,2040637.0,0.14,-0.04,0.99,0.06,0.12,0.0,11.25,177.04,85.07,2040646.0,0.14,-0.06,1.0,-0.06,-0.06,0.0,13.95,177.19,83.57,51495,1603222737.1797998,body_FLU,-0.015809711815437888,-0.015677541137051255,0.6243068145945757,0.7808618757289812,0.006405112333595753,0.0053757671266794205,-0.002330612391233444,0.04416063464060426,-0.5009857702553272,9.880050762534141,4812,1603222737.4670966,rc,0.0,0.0,0.0,0.0,0.0,-10000.0
,,193857.316319,4.040963888168335,65885,1603717869.87382,/world,vicon/test_obj/test_obj,-0.2953135773549367,-0.061363144531892594,1.3819706001322865,0.0026569379768456784,-0.0013944541926256932,-0.09827718984298119,0.995154555903081,2040735.0,0.14,-0.06,0.98,-0.06,-0.06,-0.06,13.35,177.04,84.47,2040755.0,0.14,-0.06,1.0,-0.12,-0.12,-0.06,13.65,177.49,85.97,51503,1603222737.310117,body_FLU,-0.01570484159441097,-0.01568285481411081,0.6243164577753629,0.7808561753397341,0.0004188071470707655,0.0010885958326980472,-0.00011124691809527576,-0.024322086656000465,-0.352918975610286,9.780890011310577,4812,1603222737.4670966,rc,0.0,0.0,0.0,0.0,0.0,-10000.0
,,193857.416421,4.14106011390686,65895,1603717869.100186,/world,vicon/test_obj/test_obj,-0.2953007471075371,-0.06136054018243329,1.3819726429173322,0.0026194260155636005,-0.0013600430903938346,-0.09826190657875375,0.9951562121625175,2040835.0,0.15,-0.05,1.0,0.0,0.0,0.06,13.2,176.74,84.92,2040855.0,0.14,-0.05,0.99,-0.06,-0.06,0.06,12.0,177.04,85.07,51513,1603222737.4099612,body_FLU,-0.015641839308519406,-0.01565664762984008,0.6243280401222246,0.780848705297757,0.003344079479575157,0.0020964806899428368,0.0018264016835018992,0.08942778892815113,-0.3965389469191432,9.842929303050042,4812,1603222737.4670966,rc,0.0,0.0,0.0,0.0,0.0,-10000.0
,,193857.516232,4.240876197814941,65905,1603717869.2000742,/world,vicon/test_obj/test_obj,-0.29529617087715854,-0.06135823734729833,1.3819726921639772,0.0025442532163285065,-0.0013516514918965987,-0.09828943618717251,0.995153699961882,2040935.0,0.14,-0.05,0.98,-0.12,0.0,0.06,11.1,175.39,85.22,2040955.0,0.14,-0.05,1.0,0.0,0.12,-0.06,13.05,175.99,85.07,51523,1603222737.5097873,body_FLU,-0.015618635250983436,-0.01563556253659463,0.6243072262258502,0.7808662335504373,-0.0026551466435194016,0.00022002094192430377,0.0035671722143888474,0.05076565984357149,-0.46660428504645823,9.817391066193581,4812,1603222737.4670966,rc,0.0,0.0,0.0,0.0,0.0,-10000.0
,,193857.616099,4.340742588043213,65915,1603717869.3000474,/world,vicon/test_obj/test_obj,-0.2953064396340236,-0.061358564875612434,1.381979715389522,0.002613969572729685,-0.0013483141732186052,-0.09829166706779158,0.9951533034648469,2041035.0,0.14,-0.05,1.0,-0.12,-0.24,-0.06,12.75,177.64,84.77,2041055.0,0.15,-0.05,0.99,0.0,0.0,-0.06,11.1,177.49,84.92,51533,1603222737.609658,body_FLU,-0.015609097209544667,-0.015644714128610474,0.6243151811783921,0.780859880871292,0.00014002074021846056,0.00229082559235394,0.00037977605825290084,0.029386191241443156,-0.3531050020605326,9.933048036932945,4812,1603222737.4670966,rc,0.0,0.0,0.0,0.0,0.0,-10000.0
,,193857.750688,4.475339412689209,65928,1603717869.4299536,/world,vicon/test_obj/test_obj,-0.29530476206445366,-0.06135743416316383,1.3819746365304184,0.002601033561809502,-0.0013731410678488886,-0.09829572834334299,0.9951529022705354,2041135.0,0.14,-0.05,0.99,-0.12,-0.18,0.06,12.3,177.34,84.77,2041189.0,0.14,-0.05,0.99,-0.06,-0.18,-0.12,14.25,179.29,87.62,51547,1603222737.7483335,body_FLU,-0.015594705854517795,-0.01566380540787577,0.62428761234083,0.780881826800471,-0.0001029592240229249,0.0027371167670935392,-0.0003003524034284055,0.10964131530281157,-0.46943090127781034,9.799493386566638,4812,1603222737.4670966,rc,0.0,0.0,0.0,0.0,0.0,-10000.0
,,193857.815864,4.5405120849609375,65935,1603717869.5001297,/world,vicon/test_obj/test_obj,-0.29530257638704027,-0.06135720936995456,1.3819719243572968,0.0026377373147042195,-0.0014116815089177212,-0.09826762840529112,0.9951555268925434,2041235.0,0.15,-0.05,1.0,-0.12,-0.24,-0.06,13.2,177.49,84.62,2041255.0,0.14,-0.06,0.99,-0.12,-0.12,-0.06,12.15,177.19,84.92,51551,1603222737.7899015,body_FLU,-0.015588074331211984,-0.01565366194295069,0.6242782501485558,0.7808896472600195,0.0004882073844783008,0.002576522994786501,-0.0008874296327121556,0.034697182500734926,-0.385099506855011,9.935380103945732,4813,1603222737.8065338,rc,0.0,0.0,0.0,0.0,0.0,-10000.0
,,193857.915641,4.640284061431885,65945,1603717869.6000226,/world,vicon/test_obj/test_obj,-0.29530212064173444,-0.06135617428558399,1.3819686667461157,0.0025571088122444334,-0.001361145845741831,-0.09828565345061036,0.9951540276772715,2041335.0,0.16,-0.05,1.01,-0.12,-0.06,0.0,12.75,176.59,85.82,2041355.0,0.14,-0.06,1.0,-0.06,-0.06,0.0,13.2,177.49,85.67,51555,1603222737.898063,body_FLU,-0.01555230126711849,-0.015618848107938156,0.6242996419153114,0.7808739556506491,-0.002352527342736721,0.0029002237133681774,0.004679391160607338,0.03649545948486775,-0.45327467750385403,9.87982994055748,4814,1603222737.8842714,rc,0.0,0.0,0.0,0.0,0.0,-10000.0
,,193858.038708,4.763352394104004,65957,1603717869.7203794,/world,vicon/test_obj/test_obj,-0.2953004188506995,-0.06136217615546678,1.381968218771358,0.002598805043689261,-0.0013715428057390917,-0.09828991222100626,0.9951534847641663,2041469.0,0.14,-0.06,0.99,-0.12,-0.12,0.06,13.65,178.54,85.97,2041478.0,0.15,-0.06,0.99,-0.06,-0.12,-0.12,12.15,176.74,84.92,51564,1603222738.2843528,body_FLU,-0.015528041267817773,-0.015615652359548914,0.6242923563008738,0.7808803270668776,-0.0005523015861399472,0.001954716630280018,-0.0003549985121935606,0.12916546672023832,-0.5835385035350918,9.912201974987983,4814,1603222737.8842714,rc,0.0,0.0,0.0,0.0,0.0,-10000.0
,,193858.116283,4.840923547744751,65965,1603717869.800302,/world,vicon/test_obj/test_obj,-0.29530435448067205,-0.06135985126816261,1.3819805385230677,0.002592540433426163,-0.00140647183376795,-0.09827594637636292,0.995154831639234,2041536.0,0.14,-0.05,0.99,-0.12,-0.12,-0.06,13.05,176.29,85.82,2041556.0,0.15,-0.05,1.0,-0.12,-0.12,-0.06,13.65,176.14,85.22,51571,1603222738.111613,body_FLU,-0.015513941066344438,-0.015592493530863664,0.6243030898543339,0.780872488807495,0.0006692406022921205,0.004499508533626795,0.003519615391269326,-0.021546878715511412,-0.4731764407083392,9.861849890828132,4814,1603222737.8842714,rc,0.0,0.0,0.0,0.0,0.0,-10000.0
,,193858.216191,4.9408345222473145,65975,1603717869.9003794,/world,vicon/test_obj/test_obj,-0.29530330702114194,-0.06135581150476033,1.3819639582297045,0.00266832397288616,-0.001423491642232215,-0.09828510999649608,0.9951537021343471,2041635.0,0.15,-0.05,1.01,-0.06,-0.06,0.06,12.0,175.99,84.47,2041656.0,0.15,-0.05,1.0,-0.12,-0.06,0.0,12.15,176.74,87.02,51577,1603222738.2115066,body_FLU,-0.015520046304358777,-0.01560018369207169,0.62430720354224,0.7808689250039038,-0.001567383180372417,0.001305805635638535,-4.25174948759377e-06,0.044381766965612766,-0.4254482240304351,9.743729411423207,4816,1603222738.1865335,rc,0.0,0.0,0.0,0.0,0.0,-10000.0
,,193858.319458,5.04410195350647,65985,1603717870.248962,/world,vicon/test_obj/test_obj,-0.29530770377327253,-0.06136176343720487,1.3819646130618461,0.0026904439084712195,-0.0014026844751348522,-0.09829710079196162,0.9951524877945759,2041749.0,0.14,-0.05,1.0,-0.12,-0.12,0.0,13.65,178.54,85.97,2041758.0,0.14,-0.05,0.99,-0.12,-0.18,-0.06,13.8,177.04,85.52,51584,1603222738.3168838,body_FLU,-0.01555598063805743,-0.015620410463569078,0.6242837046501309,0.780886592503448,0.0028220703825354576,0.0052553219720721245,-0.00031655648490414023,0.06651047124434263,-0.4178429004661739,9.939271945238113,4818,1603222738.2863832,rc,0.0,0.0,0.0,0.0,0.0,-10000.0
,,193858.416215,5.140856504440308,65995,1603717870.1003158,/world,vicon/test_obj/test_obj,-0.29530855671701567,-0.06136238913828579,1.3819781056847789,0.0026366597857029714,-0.0013751588655654598,-0.09828141167577119,0.995154219748018,2041835.0,0.14,-0.06,1.01,-0.06,-0.12,0.0,12.0,177.34,84.17,2041855.0,0.15,-0.05,0.99,-0.18,-0.12,0.0,13.35,177.04,84.77,51589,1603222738.4111304,body_FLU,-0.01557139245941886,-0.015632161145843874,0.6242854836601159,0.7808846279483547,0.0004683338338509202,8.199678268283606e-05,0.002030638512223959,0.07005244041513652,-0.32142486188560726,9.69776338917017,4820,1603222738.3862424,rc,0.0,0.0,0.0,0.0,0.0,-10000.0
,,193858.515719,5.240362644195557,66005,1603717870.2000055,/world,vicon/test_obj/test_obj,-0.2953052253030749,-0.061363306123358115,1.3819722261797431,0.0026005138449700913,-0.0012905612478875351,-0.09826755226282155,0.9951557968236336,2041936.0,0.15,-0.05,0.99,-0.06,-0.06,0.06,13.65,177.79,85.22,2041956.0,0.14,-0.06,1.0,-0.12,-0.12,0.06,10.95,177.04,84.77,51596,1603222738.5082333,body_FLU,-0.015605950510902604,-0.01566930485781752,0.6242856147804497,0.7808830887989059,0.0002792901359498501,0.006157352589070797,4.984147381037474e-05,-0.06270585152925924,-0.43930717631801963,9.840649812698365,4821,1603222738.4250152,rc,0.0,0.0,0.0,0.0,0.0,-10000.0
,,193858.607605,5.332249879837036,66014,1603717870.2902417,/world,vicon/test_obj/test_obj,-0.29530655727426297,-0.061360692065462234,1.3819724140918546,0.002671295029155032,-0.0014004964783292026,-0.0982770126589039,0.9951545264808491,2042039.0,0.14,-0.05,0.99,-0.06,-0.12,0.0,12.75,177.04,86.12,2042048.0,0.14,-0.06,0.99,-0.12,-0.06,-0.06,12.0,177.34,85.52,51604,1603222738.5997548,body_FLU,-0.01565049151688414,-0.015664493813363902,0.6242971833473455,0.7808730451318076,0.0018666151445358992,0.005780602805316448,-0.0021501595620065928,0.022019991078414024,-0.36101147305592896,9.904293276786804,4821,1603222738.4250152,rc,0.0,0.0,0.0,0.0,0.0,-10000.0
,,193858.715542,5.44018292427063,66025,1603717870.400324,/world,vicon/test_obj/test_obj,-0.2953114043271528,-0.06136252617799021,1.381968943416098,0.002576380158896266,-0.001359007015364827,-0.09825249088115114,0.9951572556138343,2042135.0,0.14,-0.05,0.98,0.0,0.06,0.0,12.75,176.59,85.07,2042155.0,0.14,-0.05,1.01,-0.06,-0.18,0.0,12.6,177.79,84.32,51610,1603222738.7079113,body_FLU,-0.015680586015813108,-0.0156662260662729,0.6242843620457862,0.7808826569262035,0.0023460674565285444,0.007226876448839903,-0.001772184856235981,0.08364038557279856,-0.5035852114968002,9.833980755329133,4823,1603222738.6662855,rc,0.0,0.0,0.0,0.0,0.0,-10000.0
,,193858.814974,5.539618730545044,66035,1603717870.5001178,/world,vicon/test_obj/test_obj,-0.2953086664008118,-0.06135852003790011,1.3819738051603887,0.002645966385398898,-0.0013896046022690044,-0.09829783704163031,0.9951525526741485,2042235.0,0.15,-0.05,1.0,0.0,0.0,-0.06,13.65,178.24,84.32,2042255.0,0.14,-0.05,0.99,0.0,0.0,0.06,12.75,177.04,86.42,51619,1603222738.8105094,body_FLU,-0.0156648297193223,-0.01563962232143277,0.6242776430897877,0.7808888779216714,-0.0016984979156404734,0.007929754443466663,0.0014493415364995599,0.07407146063446998,-0.53044483859092,9.77667628401518,4823,1603222738.6662855,rc,0.0,0.0,0.0,0.0,0.0,-10000.0
,,193858.916323,5.640968322753906,66045,1603717870.6001306,/world,vicon/test_obj/test_obj,-0.2953069732857903,-0.061360821727281314,1.3819791081188855,0.002584365280561759,-0.0013824100089938817,-0.09829889956780419,0.9951526196229513,2042336.0,0.14,-0.06,0.99,0.06,0.06,0.0,12.3,175.99,85.07,2042356.0,0.14,-0.05,1.0,-0.06,-0.06,-0.06,14.1,176.59,84.77,51627,1603222738.9103498,body_FLU,-0.015622193775554674,-0.015617475480608278,0.6242689729874699,0.7808971064656478,0.00208178348839283,0.006583331618458033,-0.003695780411362648,0.1816772285141051,-0.3996405317857862,9.772765748798847,4824,1603222738.88544,rc,0.0,0.0,0.0,0.0,0.0,-10000.0
,,193859.016348,5.74099063873291,66055,1603717870.7002337,/world,vicon/test_obj/test_obj,-0.2953069704102659,-0.061357465071859754,1.3819701711788037,0.002592057372084102,-0.0014044002794948423,-0.09825577064602534,0.995156828059372,2042435.0,0.15,-0.06,1.0,-0.12,-0.06,0.12,12.0,177.64,85.07,2042455.0,0.14,-0.06,0.99,-0.06,-0.12,0.0,10.5,176.44,85.67,51636,1603222739.1018062,body_FLU,-0.015559893139824999,-0.015566685592621947,0.6242728452644726,0.7808962688414753,-0.000496809312608093,0.004243798088282347,0.0033280467614531517,0.010975168065167963,-0.4564606406092644,9.820142578125001,4824,1603222738.88544,rc,0.0,0.0,0.0,0.0,0.0,-10000.0
,,193859.147249,5.871913194656372,66068,1603717870.8302674,/world,vicon/test_obj/test_obj,-0.2953099796323612,-0.061352700539903375,1.3819779222081443,0.0025794807331492317,-0.0013851044451885087,-0.0982802801906935,0.995154467552883,2042536.0,0.14,-0.06,0.99,-0.12,-0.06,0.0,12.75,175.54,84.77,2042587.0,0.15,-0.05,1.0,0.0,0.0,0.0,13.2,176.74,87.32,51648,1603222739.1433365,body_FLU,-0.015513958726500833,-0.015546008230123254,0.6242551858203744,0.7809117118401485,0.001148240640759468,0.0006638578488491476,-0.002797842025756836,0.10199861301854253,-0.41351770334690807,9.826607170701028,4825,1603222739.8510337,rc,0.0,0.0,0.0,0.0,0.0,-10000.0
,,193859.216443,5.941084146499634,66075,1603717870.9002912,/world,vicon/test_obj/test_obj,-0.29531055969456677,-0.06135948405279309,1.3819711220237973,0.0026385640511704853,-0.0013755481321368586,-0.09827688084185036,0.99515466161752,2042635.0,0.15,-0.04,0.99,-0.12,-0.06,0.0,12.3,176.59,83.42,2042655.0,0.16,-0.06,1.0,-0.06,-0.12,-0.06,12.0,177.64,84.47,51655,1603222739.2098644,body_FLU,-0.01550745603519615,-0.015558473712006445,0.6242490074987563,0.7809165316087802,0.0010480687487870455,-0.0015248229028657079,-0.0011784854577854276,0.006654023730196059,-0.4510431633554399,9.769683003902436,4825,1603222739.8510337,rc,0.0,0.0,0.0,0.0,0.0,-10000.0
,,193859.316314,6.040959596633911,66085,1603717871.366863,/world,vicon/test_obj/test_obj,-0.29530385716642826,-0.06135568475923583,1.3819747277274046,0.002651443641869844,-0.0013916784125422921,-0.09828572116056977,0.9951537318895793,2042736.0,0.15,-0.05,0.99,0.0,0.0,0.0,12.6,178.24,83.27,2042755.0,0.15,-0.06,0.99,-0.06,-0.06,0.12,13.05,176.29,86.87,51665,1603222739.3097272,body_FLU,-0.015473180443539866,-0.015547131615007353,0.6242300874031633,0.7809325613432612,0.0009334213100373745,0.0041442932561039925,0.0004951417213305831,0.07238584010023624,-0.4099253299534321,9.844789348483086,4825,1603222739.8510337,rc,0.0,0.0,0.0,0.0,0.0,-10000.0
,,193859.446375,6.171252012252808,66098,1603717871.1299846,/world,vicon/test_obj/test_obj,-0.29529411320713617,-0.06136048596650766,1.3819709138809226,0.0026665731445863995,-0.0014153968147919385,-0.0982661723287668,0.9951555885465219,2042877.0,0.15,-0.06,0.99,0.0,-0.06,0.0,15.0,176.14,87.32,2042886.0,0.15,-0.07,1.0,-0.06,-0.06,0.0,13.65,177.19,83.57,51676,1603222739.4428554,body_FLU,-0.015525733064436826,-0.015518968294776368,0.6242249820975595,0.7809361593377393,-0.0028184845577925444,0.0057825190015137196,0.005549592897295952,0.008744082927703858,-0.29079848213866355,9.876376238107682,4826,1603222739.3651817,rc,0.0,0.0,0.0,0.0,0.0,-10000.0
,,193859.515634,6.240279912948608,66105,1603717871.2002861,/world,vicon/test_obj/test_obj,-0.2953004804576194,-0.06135388731422342,1.3819741778813561,0.002582643345247124,-0.0013784316874329691,-0.09828571589253773,0.9951539317768512,2042936.0,0.14,-0.05,0.99,0.0,0.0,-0.12,12.3,176.29,85.82,2042955.0,0.14,-0.07,0.99,-0.06,-0.06,-0.06,11.85,177.19,85.67,51682,1603222739.5011008,body_FLU,-0.0155446044251636,-0.015531210799994012,0.6242225431774547,0.7809374900422068,0.002197165507823229,0.006487947888672352,0.0006138811586424708,0.05721146721672267,-0.5083256912156939,9.851340400457383,4826,1603222739.3651817,rc,0.0,0.0,0.0,0.0,0.0,-10000.0
,,193859.615499,6.34014105796814,66115,1603717871.3000207,/world,vicon/test_obj/test_obj,-0.2953105460114214,-0.06136144699536247,1.3819707977813716,0.0025894663635191175,-0.0014130163941289732,-0.09827813605321363,0.9951546141291453,2043036.0,0.13,-0.05,0.98,-0.06,-0.12,0.0,14.4,176.59,84.77,2043056.0,0.15,-0.05,1.01,-0.06,-0.06,0.0,13.8,176.59,85.52,51687,1603222739.598142,body_FLU,-0.015534726436001595,-0.015534190907257286,0.6242272048214897,0.7809339011389923,-0.0001871574786491692,-0.0014400010695680976,0.0001649041660130024,-0.036137600457295777,-0.4435134187415242,9.784625875175,4827,1603222739.5260317,rc,0.0,0.0,0.0,0.0,0.0,-10000.0
,,193859.716249,6.44089150428772,66125,1603717871.400203,/world,vicon/test_obj/test_obj,-0.29530816473975824,-0.061359961433412165,1.3819747747318343,0.002557639624760269,-0.0013256070911234848,-0.09828401716443706,0.9951542358928139,2043149.0,0.14,-0.05,0.99,-0.06,-0.12,0.06,15.15,178.09,87.47,2043158.0,0.15,-0.06,0.99,0.0,0.0,-0.06,12.6,177.79,84.62,51692,1603222739.6896718,body_FLU,-0.015550050088238695,-0.015539988559820202,0.6242354593945059,0.7809268825775844,0.0009377755923196673,0.005070300307124853,0.006044397596269846,0.019075232533738017,-0.40769005511328577,9.71238671118021,4827,1603222739.5260317,rc,0.0,0.0,0.0,0.0,0.0,-10000.0
,,193859.816115,6.540757417678833,66135,1603717871.5003533,/world,vicon/test_obj/test_obj,-0.29529971730763327,-0.06136395357261562,1.3819706457876026,0.002602792154628959,-0.001389999951822663,-0.0982856575725545,0.9951538689512613,2043236.0,0.14,-0.06,0.99,-0.06,-0.06,0.0,12.9,177.49,84.62,2043256.0,0.14,-0.05,1.0,0.06,0.0,-0.06,13.05,177.64,84.77,51700,1603222739.8116891,body_FLU,-0.015534714438257005,-0.015505062236555315,0.6242161978193445,0.780943278396276,0.004572463687509298,0.001857481081970036,0.00045692402636632323,0.08402219619043172,-0.4358029783666134,9.81740625500679,4828,1603222739.7867503,rc,0.0,0.0,0.0,0.0,0.0,-10000.0
,,193859.916028,6.640671491622925,66145,1603717871.599947,/world,vicon/test_obj/test_obj,-0.2953090290941895,-0.061360566108526526,1.3819686995779914,0.002603485016440537,-0.0013498625810747724,-0.09827930382242961,0.9951545498951205,2043336.0,0.14,-0.05,0.99,0.0,0.0,0.0,12.3,175.99,85.82,2043356.0,0.15,-0.05,0.98,0.0,0.06,-0.06,13.8,175.99,85.07,51706,1603222739.9115248,body_FLU,-0.015545549630895435,-0.015489323205895541,0.6242373651357578,0.7809264553859495,-0.0002855120110325515,0.0007592608453705907,0.0005419526714831591,0.03122668472863734,-0.5229001242332161,9.866641377210618,4830,1603222739.88662,rc,0.0,0.0,0.0,0.0,0.0,-10000.0
,,193900.006096,6.730739593505859,66154,1603717871.6901815,/world,vicon/test_obj/test_obj,-0.295307297312027,-0.06135612639050103,1.3819733499073146,0.002600695575234651,-0.0013896947508568497,-0.09831539998171511,0.9951509369223644,2043437.0,0.14,-0.05,0.99,-0.06,-0.06,0.0,13.65,176.74,86.27,2043446.0,0.15,-0.06,0.99,-0.06,-0.12,-0.06,12.9,177.79,85.67,51711,1603222740.28396,body_FLU,-0.015559969086439227,-0.015491150413261632,0.6242454857161656,0.7809196406698268,0.0007142405956983566,0.005657707341015339,0.002258052583783865,0.02494976162351668,-0.3785330104865134,9.730036696314812,4832,1603222739.9864273,rc,0.0,0.0,0.0,0.0,0.0,-10000.0
,,193900.116164,6.840803384780884,66165,1603717871.8000307,/world,vicon/test_obj/test_obj,-0.29531005773248614,-0.06136065207606586,1.3819667378521696,0.0026244960383788314,-0.0013862165065676782,-0.09829535779222466,0.9951528591431771,2043536.0,0.15,-0.06,0.99,-0.06,-0.06,0.06,12.15,177.49,85.22,2043556.0,0.15,-0.05,0.99,0.0,0.0,0.0,13.8,177.34,85.52,51718,1603222740.1112313,body_FLU,-0.015568808201415422,-0.015514998026009334,0.6242571237684489,0.780909687782002,-0.0023697656579315662,0.0034682138357311487,0.0033426196314394474,0.1517316161217168,-0.3211653011329472,9.853616385698318,4834,1603222740.862897,rc,0.0,0.0,0.0,0.0,0.0,-10000.0
,,193900.215667,6.9403111934661865,66175,1603717871.9003336,/world,vicon/test_obj/test_obj,-0.2953038850965141,-0.06136441867637888,1.381973564006956,0.0026806668801412246,-0.0014282863564457518,-0.09829804439420231,0.9951523845579817,2043636.0,0.14,-0.06,0.99,-0.06,-0.06,-0.06,13.65,177.49,83.87,2043656.0,0.14,-0.05,0.99,0.0,0.06,0.0,12.9,176.74,85.22,51725,1603222740.208265,body_FLU,-0.015566750992258559,-0.015507298889834573,0.6242666354364821,0.7809022780255547,0.0049438150599598885,0.0038578473031520844,0.003728596493601799,0.025887524792924523,-0.3887576010748744,9.737907422482968,4835,1603222740.125132,rc,0.0,0.0,0.0,0.0,0.0,-10000.0
,,193900.315421,7.040064096450806,66185,1603717872.238288,/world,vicon/test_obj/test_obj,-0.29530938821021097,-0.06136420020016058,1.3819790661889224,0.0026370960641074756,-0.0013769428011073154,-0.09829884479714897,0.9951524942763381,2043736.0,0.14,-0.06,1.0,0.12,0.0,0.0,13.05,177.64,85.82,2043755.0,0.15,-0.06,0.99,-0.06,-0.06,-0.06,12.0,177.64,84.77,51733,1603222740.308182,body_FLU,-0.015581377661720767,-0.015534772094093381,0.6242637678124439,0.7809037326858916,-8.078161044977605e-05,0.007006761617958546,0.001740639447234571,0.00027736014313995837,-0.387366802342236,9.91340773308277,4835,1603222740.125132,rc,0.0,0.0,0.0,0.0,0.0,-10000.0
,,193900.416152,7.140800952911377,66195,1603717872.100279,/world,vicon/test_obj/test_obj,-0.29531034102593334,-0.061359245050561936,1.38197874929283,0.002569028251093971,-0.0014455126518947102,-0.09827902531753291,0.995154532607702,2043836.0,0.14,-0.05,0.99,-0.06,-0.06,-0.06,13.95,176.44,86.27,2043856.0,0.15,-0.06,0.98,-0.06,-0.06,0.12,13.35,176.29,86.42,51742,1603222740.4107466,body_FLU,-0.015577786763382864,-0.015594528270220885,0.6242372652457445,0.7809237990521853,0.0020641512237489223,0.005167755298316479,-0.0023788439575582743,-0.11343030350189656,-0.45774840369075537,9.745072453022003,4835,1603222740.125132,rc,0.0,0.0,0.0,0.0,0.0,-10000.0
,,193900.548096,7.2727367877960205,66208,1603717872.230254,/world,vicon/test_obj/test_obj,-0.2953056538889474,-0.06135950311853854,1.381984077566074,0.002569778306354525,-0.001407144797459594,-0.09825668406682149,0.9951567917766366,2043936.0,0.14,-0.05,0.99,0.0,0.0,0.0,13.35,175.99,85.07,2043988.0,0.15,-0.06,0.99,-0.06,-0.12,-0.06,13.65,178.24,86.72,51748,1603222740.5383525,body_FLU,-0.01556052716646655,-0.01569222465520642,0.6242491518207102,0.7809126843193138,0.0008012762991711497,0.001857909606769681,-0.004057237878441811,-0.06423161528119818,-0.48705332017689945,9.85189303958416,4837,1603222740.546761,rc,0.0,0.0,0.0,0.0,0.0,-10000.0
,,193900.616269,7.3409130573272705,66215,1603717872.2999113,/world,vicon/test_obj/test_obj,-0.29530711182181496,-0.06136137729819578,1.3819719592671165,0.0026278839056315174,-0.0013672560210625734,-0.09826496836658966,0.9951558776538801,2044036.0,0.14,-0.06,0.98,-0.06,-0.06,0.0,13.65,177.19,85.67,2044056.0,0.15,-0.06,1.0,-0.06,-0.06,-0.06,12.15,178.24,85.67,51752,1603222740.6105044,body_FLU,-0.01551933186127992,-0.015714880828002372,0.624262511348006,0.7809023689198425,0.0023093167692422867,0.0017972916830331087,-0.00022761570289731026,0.2641510420348495,-0.5456125481128693,9.848546827197074,4837,1603222740.546761,rc,0.0,0.0,0.0,0.0,0.0,-10000.0
,,193900.716281,7.440924406051636,66225,1603717872.4000852,/world,vicon/test_obj/test_obj,-0.29530593160110813,-0.06136045885531996,1.3819691244733108,0.0026599670654997784,-0.001440919606988551,-0.09829665809379148,0.995152558823766,2044136.0,0.15,-0.05,0.99,-0.12,-0.06,-0.06,15.0,177.49,84.92,2044156.0,0.13,-0.06,0.99,0.06,0.0,-0.06,12.9,177.19,86.27,51761,1603222740.710371,body_FLU,-0.015509530912806161,-0.015729727192367756,0.6242790469709155,0.7808890456693601,-0.002458183327689767,0.002158685587346554,0.001680842018686235,0.03529813556279987,-0.43983115386217836,9.849143864393234,4837,1603222740.546761,rc,0.0,0.0,0.0,0.0,0.0,-10000.0
,,193900.837516,7.562155723571777,66237,1603717872.5202835,/world,vicon/test_obj/test_obj,-0.29530575212861243,-0.06135734320476616,1.38196829023896,0.0026610182832784335,-0.0013790818088846985,-0.09831913379601018,0.9951504233253697,2044269.0,0.15,-0.06,1.0,-0.12,-0.12,0.0,15.9,178.69,86.87,2044278.0,0.14,-0.06,0.99,-0.18,-0.18,0.06,13.65,177.19,85.67,51770,1603222740.829623,body_FLU,-0.015526077870234705,-0.015679042341645626,0.6242783620574859,0.7808902837172702,0.002362447325140238,0.0019410356180742383,-0.0026020011864602566,0.07627288012113423,-0.5006488414853811,9.759277498483659,4838,1603222740.7852721,rc,0.0,0.0,0.0,0.0,0.0,-10000.0
,,193900.916425,7.641067981719971,66245,1603717872.5999358,/world,vicon/test_obj/test_obj,-0.2953068092755187,-0.06136254875889614,1.3819676933105176,0.0026512657321151015,-0.0013766527139507105,-0.09830078217310566,0.9951522656566072,2044336.0,0.14,-0.05,0.99,-0.06,-0.18,-0.06,12.15,175.69,85.22,2044356.0,0.15,-0.06,0.98,-0.06,-0.18,-0.06,13.65,178.24,83.87,51778,1603222740.9100606,body_FLU,-0.01555428363401365,-0.015661258489980373,0.6242880357662304,0.7808823455824088,-0.003910539671778679,0.005593285895884037,0.003030858002603054,-0.0063738658879883585,-0.5705886528342963,9.871472588181495,4838,1603222740.7852721,rc,0.0,0.0,0.0,0.0,0.0,-10000.0
,,193901.016085,7.740729570388794,66255,1603717872.700384,/world,vicon/test_obj/test_obj,-0.29530790613094904,-0.06135900512642556,1.3819729424221157,0.002622389429932215,-0.0013910433727939728,-0.09827985960855373,0.995154388659034,2044436.0,0.15,-0.06,1.0,0.0,-0.06,0.0,13.65,176.14,85.97,2044456.0,0.14,-0.04,1.0,0.0,0.0,-0.12,13.95,176.74,84.92,51786,1603222741.988803,body_FLU,-0.015534775479582912,-0.015699611858970012,0.6242551251672069,0.780908273512806,0.00391475111246109,0.005464612971991301,-0.003404124639928341,0.17241312954761087,-0.4410554233230651,9.822863712430001,4839,1603222740.9655237,rc,0.0,0.0,0.0,0.0,0.0,-10000.0
,,193901.11704,7.841684579849243,66265,1603717872.8001754,/world,vicon/test_obj/test_obj,-0.2953089829517503,-0.061355071339606736,1.3819767080089966,0.0026311166546201113,-0.0013942650115587817,-0.09827778930651916,0.9951545655722285,2044549.0,0.14,-0.05,0.98,-0.06,-0.12,0.0,15.45,176.59,86.12,2044557.0,0.14,-0.05,0.98,-0.12,-0.06,-0.12,13.65,177.19,84.92,51793,1603222741.1097224,body_FLU,-0.01554000143749233,-0.015723130866227928,0.6242349057487444,0.780923859256421,-0.0007404891075566411,0.002436554990708828,0.002311353338882327,0.07002560441102833,-0.48118733479455117,9.700431362628937,4839,1603222740.9655237,rc,0.0,0.0,0.0,0.0,0.0,-10000.0
,,193901.214435,7.939132452011108,66275,1603717872.9002345,/world,vicon/test_obj/test_obj,-0.2953074642916612,-0.061355446118844637,1.3819751194984797,0.002606243995831408,-0.0013598847402281852,-0.0982736735808387,0.9951550850428562,2044636.0,0.14,-0.05,0.99,-0.24,-0.12,0.0,12.3,177.64,85.07,2044656.0,0.15,-0.06,0.99,0.0,0.0,-0.06,12.3,176.59,85.97,51800,1603222741.198454,body_FLU,-0.015514384255651993,-0.015731188002416806,0.6242359787323695,0.7809233486464862,0.0007784327026456594,0.006515250541269779,0.004246769938617945,0.056703007089905444,-0.40336712171137334,9.843606957793236,4840,1603222741.165196,rc,0.0,0.0,0.0,0.0,0.0,-10000.0
,,193901.315311,8.039954900741577,66285,1603717872.9999292,/world,vicon/test_obj/test_obj,-0.2953090036393546,-0.06135166954232533,1.3819780923425045,0.0025630062445010696,-0.0013607981344274775,-0.09828185619682285,0.995154388007175,2044736.0,0.14,-0.06,0.99,0.0,0.0,-0.06,12.9,176.74,84.92,2044756.0,0.14,-0.06,0.98,0.0,0.0,0.12,11.85,175.39,83.87,51804,1603222741.2983212,body_FLU,-0.015472259073893845,-0.015730744359706342,0.6242484598026321,0.7809142163612348,-0.0009939976735040545,0.007226921617984772,0.004398468881845474,0.14545247493870556,-0.45325094498321417,9.735439824521542,4841,1603222741.2844558,rc,0.0,0.0,0.0,0.0,0.0,-10000.0
,,193901.406484,8.131300687789917,66294,1603717873.9019876,/world,vicon/test_obj/test_obj,-0.29530268594572084,-0.06135613667448229,1.3819810694928436,0.002591693167115662,-0.001345953963189049,-0.09829294898778727,0.995153238307418,2044839.0,0.14,-0.05,1.0,-0.06,-0.06,0.0,11.85,177.19,85.97,2044847.0,0.14,-0.06,0.99,-0.18,-0.12,-0.12,11.7,177.34,85.52,51810,1603222741.398141,body_FLU,-0.015505524380733568,-0.01570512678258624,0.6242409350154053,0.7809200873056819,-0.001487890724092722,0.008080985397100449,0.001196035766042769,0.03685748995933682,-0.31545982061326505,9.911104875326156,4841,1603222741.2844558,rc,0.0,0.0,0.0,0.0,0.0,-10000.0
,,193901.515611,8.240254402160645,66305,1603717873.2000263,/world,vicon/test_obj/test_obj,-0.29532016914880527,-0.06135615338514349,1.3819766429949414,0.0026377105305485375,-0.0013964667484900916,-0.09825184028340249,0.9951571073175843,2044936.0,0.15,-0.05,1.0,0.0,0.0,-0.06,13.05,178.69,84.77,2044956.0,0.15,-0.05,0.98,-0.06,-0.12,0.0,11.7,176.59,86.87,51815,1603222741.4897246,body_FLU,-0.015509069553395049,-0.01567997940262352,0.6242561479451603,0.780908361307645,0.0005431514582596719,0.004958188161253929,0.0012083753244951367,0.08975965171772987,-0.44477146140486,9.716899541258812,4841,1603222741.2844558,rc,0.0,0.0,0.0,0.0,0.0,-10000.0
,,193901.616262,8.340901613235474,66315,1603717873.3003268,/world,vicon/test_obj/test_obj,-0.29530876297460484,-0.061354782747358824,1.3819715927629659,0.0026394522992570597,-0.0013766163230848963,-0.09829115895609747,0.9951532476408476,2045036.0,0.14,-0.05,0.99,-0.12,-0.12,-0.12,12.75,177.64,84.47,2045056.0,0.15,-0.06,0.99,-0.12,-0.12,-0.12,11.7,177.64,85.07,51823,1603222741.6116824,body_FLU,-0.015564879262779522,-0.015648942544833896,0.6242246113378034,0.780933082748408,0.0008159027202054858,0.0030327262356877327,0.0011597133707255125,-0.06418373035686091,-0.38826513301581145,9.858624020576476,4841,1603222741.2844558,rc,0.0,0.0,0.0,0.0,0.0,-10000.0
,,193901.716326,8.440967798233032,66325,1603717873.4002023,/world,vicon/test_obj/test_obj,-0.29530971502682307,-0.06135874321876453,1.3819774834474876,0.002632159997298036,-0.0013980854549640335,-0.0982995890284831,0.9951524043520372,2045136.0,0.15,-0.05,1.0,0.0,0.0,0.0,12.3,177.34,84.17,2045156.0,0.15,-0.06,1.0,-0.18,-0.12,-0.12,10.8,177.19,85.22,51829,1603222741.7115722,body_FLU,-0.01557417860086451,-0.015639270088592283,0.6242399030018242,0.7809208677531146,-0.00043154892046004534,0.0076004210859537125,-0.0014965106965973973,0.131875464996323,-0.34869710623472927,9.884437992811202,4843,1603222741.6866279,rc,0.0,0.0,0.0,0.0,0.0,-10000.0
,,193901.815016,8.539661407470703,66335,1603717873.5003164,/world,vicon/test_obj/test_obj,-0.29531668620026486,-0.06135305786026876,1.381969179076452,0.002636505641974597,-0.0013813988357956142,-0.09827075590978805,0.9951552638197595,2045236.0,0.14,-0.06,0.99,0.0,0.0,-0.12,13.05,177.64,85.07,2045256.0,0.15,-0.06,1.0,0.0,0.0,-0.06,12.6,176.44,85.67,51835,1603222741.8086321,body_FLU,-0.015530377617934748,-0.015663631150947776,0.6242460416182917,0.7809163447861144,0.0018205814994871616,0.004471104126423597,-0.000761226867325604,-0.05250646305223927,-0.36456361069902776,9.77173641461134,4844,1603222741.725397,rc,0.0,0.0,0.0,0.0,0.0,-10000.0
,,193901.949598,8.674237489700317,66348,1603717873.630225,/world,vicon/test_obj/test_obj,-0.29530717976491194,-0.06135510552172349,1.3819761311924947,0.002646494643811925,-0.0013988144252548562,-0.09831320308705087,0.9951510204401482,2045336.0,0.15,-0.05,1.01,0.06,0.06,-0.12,13.2,177.49,83.57,2045390.0,0.16,-0.06,1.0,0.0,-0.12,0.06,13.35,177.04,85.07,51846,1603222741.9417448,body_FLU,-0.015531180725562923,-0.015634359227643304,0.6242555205978377,0.7809093380411926,-0.0005596050759777427,0.007375952787697315,0.0008082067361101508,-0.02909531725337729,-0.3238361224941909,9.816930728316308,4844,1603222741.725397,rc,0.0,0.0,0.0,0.0,0.0,-10000.0
,,193902.014307,8.738949298858643,66355,1603717873.7000592,/world,vicon/test_obj/test_obj,-0.2953139326466034,-0.06135859510058201,1.3819766516554324,0.0026467355683321755,-0.0014123346347892638,-0.09829696003480845,0.9951526052569154,2045436.0,0.15,-0.05,1.0,0.06,-0.06,-0.06,14.1,176.29,85.52,2045456.0,0.14,-0.05,0.99,0.12,0.06,0.0,13.2,176.74,84.92,51852,1603222741.9972064,body_FLU,-0.015498756351123903,-0.01561073901700047,0.6242525160235911,0.7809128566089355,0.0018478408455848694,0.0021759443916380405,0.0002749231643974781,0.07820687061175705,-0.35449120033532383,9.862178202867508,4844,1603222741.725397,rc,0.0,0.0,0.0,0.0,0.0,-10000.0
,,193902.115366,8.840009927749634,66365,1603717873.800155,/world,vicon/test_obj/test_obj,-0.29531174101204505,-0.061356281049192385,1.3819696455584556,0.002681507817701944,-0.0014080733593621652,-0.09828483866899637,0.9951537154294544,2045537.0,0.15,-0.05,0.99,0.0,0.12,0.06,12.9,176.74,85.67,2045557.0,0.16,-0.06,1.0,0.0,0.06,0.0,12.6,176.44,84.62,51858,1603222742.1081262,body_FLU,-0.015453249335651807,-0.01559048066598511,0.6242458945323327,0.7809194562546776,0.006361718755215406,0.006654942408204079,-0.0020692921243608,0.04798783219791949,-0.4790277849510312,9.77383831268549,4845,1603222742.665225,rc,0.0,0.0,0.0,0.0,0.0,-10000.0
