name,date,time,time_since_start,vicon_sequence,vicon_time_stamp,vicon_frame_id,vicon_child_frame_id,vicon_translation_x,vicon_translation_y,vicon_translation_z,vicon_rotation_x,vicon_rotation_y,vicon_rotation_z,vicon_rotation_w,int_imu_time_stamp,int_imu_acc_x,int_imu_acc_y,int_imu_acc_z,int_imu_gyro_x,int_imu_gyro_y,int_imu_gyro_z,int_imu_mag_x,int_imu_mag_y,int_imu_mag_z,ext_imu_time_stamp,ext_imu_acc_x,ext_imu_acc_y,ext_imu_acc_z,ext_imu_gyro_x,ext_imu_gyro_y,ext_imu_gyro_z,ext_imu_mag_x,ext_imu_mag_y,ext_imu_mag_z,dji_imu_sequence,dji_imu_time_stamp,dji_imu_frame_id,dji_imu_orientation_x,dji_imu_orientation_y,dji_imu_orientation_z,dji_imu_orientation_w,dji_imu_ang_vel_x,dji_imu_ang_vel_y,dji_imu_ang_vel_z,dji_imu_lin_acc_x,dji_imu_lin_acc_y,dji_imu_lin_acc_z,rc_sequence,rc_time_stamp,rc_frame_id,rc_roll,rc_pitch,rc_yaw,rc_throttle,rc_mode,rc_landing_gear
/root/Desktop/devel/VibrationTest/26102020/T000_1.csv,20201020,192945.166017,0.0002541542053222656,10669,1603717316.849065,/world,vicon/test_obj/test_obj,-0.30092127299779453,0.008066224963165721,1.3815172995243152,0.0007861530461563001,-0.00035533859459501896,0.0007213264904550674,0.9999993676927827,1488404.0,0.15,-0.04,0.99,0.0,-0.12,0.0,13.2,178.54,84.32,1488424.0,0.15,-0.05,1.01,-0.06,-0.12,-0.06,12.9,179.59,87.32,15580,1603222185.1621602,body_FLU,-0.012631145121894094,-0.01933610071742995,0.6860744318090368,0.727164660444842,-0.0002597152488306165,0.002159230876713991,0.0009845851454883814,0.1808173080123961,-0.41014206263422964,9.742975812613965,1353,1603222185.1482258,rc,0.0,0.0,0.0,0.0,0.0,-10000.0
,,192945.205805,0.040051937103271484,10673,1603717316.8890312,/world,vicon/test_obj/test_obj,-0.3009214736257562,0.008065179310893816,1.3815122424490212,0.0008248824145294022,-0.00038381063837927533,0.0007184014984119648,0.9999993280786158,1488444.0,0.15,-0.05,1.0,0.0,0.0,-0.12,13.95,178.84,85.22,1488464.0,0.15,-0.05,1.0,-0.06,0.06,0.0,13.2,180.35,86.72,15582,1603222185.2010155,body_FLU,-0.012630456573739738,-0.01935113836571852,0.6860609921467367,0.7271769523749533,-0.0036000018008053303,0.0015518215950578451,-0.0022926521487534046,-0.04804542919993401,-0.39438812334090473,9.810474314332009,1353,1603222185.1482258,rc,0.0,0.0,0.0,0.0,0.0,-10000.0
,,192945.304064,0.1383366584777832,10683,1603717316.98908,/world,vicon/test_obj/test_obj,-0.3009241060414313,0.008071485933042008,1.3815079676897035,0.0008845149854273867,-0.00038407726725108826,0.0007151050504346352,0.9999992793710705,1488544.0,0.14,-0.05,1.0,-0.06,-0.06,-0.12,12.75,178.09,86.42,1488563.0,0.15,-0.05,0.99,-0.06,0.0,-0.12,12.3,179.14,86.42,15590,1603222185.2842004,body_FLU,-0.012651574599037313,-0.01929678016468052,0.6860611521435439,0.7271778788267106,-0.002004485111683607,0.006941310130059719,-0.0015317441429942846,0.03841364959347993,-0.42793371266126634,9.877432444810868,1353,1603222185.1482258,rc,0.0,0.0,0.0,0.0,0.0,-10000.0
,,192945.403896,0.23813652992248535,10693,1603717317.8905673,/world,vicon/test_obj/test_obj,-0.30095404588859037,0.008042297193306446,1.381562216853796,0.0005567073453199822,0.0001496511641754081,0.0008810940073397813,0.9999994456772519,1488643.0,0.15,-0.05,0.99,-0.06,-0.06,0.0,12.6,180.65,85.22,1488663.0,0.15,-0.05,0.98,0.0,0.0,0.0,12.75,180.8,84.47,15599,1603222185.3924034,body_FLU,-0.012655756560579044,-0.01926123619660826,0.6860506515262645,0.7271886551277087,0.0005706719821318984,0.004128593951463699,-0.0019817957654595375,-0.005234723153058439,-0.39064353321120143,9.851495793700218,1353,1603222185.1482258,rc,0.0,0.0,0.0,0.0,0.0,-10000.0
,,192945.545287,0.37957024574279785,10707,1603717317.2292018,/world,vicon/test_obj/test_obj,-0.3009245051788658,0.008058413806697994,1.381510084365214,0.0008119490450836205,-0.0003666630409555046,0.0007403689409395427,0.9999993290751719,1488743.0,0.14,-0.05,1.0,-0.12,-0.06,0.06,12.3,180.5,85.82,1488804.0,0.15,-0.05,1.0,0.0,0.0,-0.06,14.25,178.84,87.62,15608,1603222185.5310001,body_FLU,-0.012687286529232051,-0.01919757398998824,0.6860352353634622,0.7272043328757215,0.0038035535253584385,0.002769856248050928,-0.0045659602619707584,0.0350231304159388,-0.4187184114083648,9.836261414051057,1354,1603222185.4478233,rc,0.0,0.0,0.0,0.0,0.0,-10000.0
,,192945.604639,0.43887996673583984,10713,1603717317.2892668,/world,vicon/test_obj/test_obj,-0.30091099151996714,0.008075273572507792,1.381516560402754,0.0008262031800347506,-0.0003650628815705662,0.0006477054144617087,0.9999993822973562,1488843.0,0.15,-0.04,0.99,-0.06,-0.06,0.0,12.6,181.1,86.27,1488863.0,0.14,-0.05,1.0,-0.12,-0.06,-0.06,12.75,179.74,85.82,15613,1603222185.6031137,body_FLU,-0.01267874253058159,-0.019212226691232924,0.6860344328469532,0.7272048520064806,0.0031408420763909817,0.0013248813338577747,0.00043255480704829097,0.07258051979262382,-0.31499773018062116,9.777825376152993,1354,1603222185.4478233,rc,0.0,0.0,0.0,0.0,0.0,-10000.0
,,192945.705746,0.5399949550628662,10723,1603717317.3892212,/world,vicon/test_obj/test_obj,-0.30091943511580094,0.008065169415187973,1.3815208035280944,0.0007795007469983027,-0.00034638253306986153,0.0007262493122252792,0.9999993724796344,1488944.0,0.15,-0.04,1.0,0.06,0.0,-0.18,12.0,179.74,87.47,1488964.0,0.15,-0.05,1.0,-0.12,-0.06,0.06,13.35,179.14,86.42,15619,1603222185.702967,body_FLU,-0.012679332946507011,-0.019201598328905327,0.6860631398446898,0.7271780396052212,-0.0019700201228260994,0.002939923433586955,0.002722659381106496,0.06527532133553177,-0.48282498825341463,9.914997884988784,1354,1603222185.4478233,rc,0.0,0.0,0.0,0.0,0.0,-10000.0
,,192945.825756,0.6600022315979004,10735,1603717317.5091808,/world,vicon/test_obj/test_obj,-0.3009103796864844,0.008072483190352853,1.381513506594941,0.0008168094602444743,-0.00038616093166283594,0.0006753189342361655,0.9999993638229864,1489076.0,0.15,-0.05,0.98,0.18,0.06,-0.06,14.7,180.65,86.27,1489084.0,0.15,-0.05,0.99,-0.06,-0.06,-0.12,13.35,180.8,85.82,15626,1603222185.822224,body_FLU,-0.012673664898919324,-0.019204403965916002,0.6860440675705909,0.7271960577709028,-0.0006220401846803725,0.001950145815499127,-0.0023139554541558027,0.048529718667268754,-0.39531150095164774,9.874906428337097,1354,1603222185.4478233,rc,0.0,0.0,0.0,0.0,0.0,-10000.0
,,192945.904814,0.739055871963501,10743,1603717317.589019,/world,vicon/test_obj/test_obj,-0.3009148059565058,0.008072158060537207,1.3815154043949356,0.0007957854705390828,-0.00033064904453237266,0.0007017187730189067,0.9999993824935383,1489143.0,0.15,-0.05,1.0,-0.06,-0.06,-0.12,12.6,179.59,84.92,1489163.0,0.14,-0.04,0.99,-0.06,-0.12,-0.06,12.9,181.4,83.57,15632,1603222185.9027052,body_FLU,-0.012703344711030537,-0.019192474726149655,0.6860452610728683,0.7271947288770035,0.000527604715898633,0.006423276849091053,-0.0013469497207552195,0.20783928380347788,-0.41938131547719243,9.779996208071708,1354,1603222185.4478233,rc,0.0,0.0,0.0,0.0,0.0,-10000.0
,,192946.004058,0.8383040428161621,10753,1603717317.6890645,/world,vicon/test_obj/test_obj,-0.30091838952933153,0.008075635490010884,1.3815177291137257,0.0008822233471793506,-0.00040896130810731413,0.0006860769015556515,0.999999291865299,1489244.0,0.14,-0.04,0.99,-0.06,-0.18,-0.06,12.15,178.84,85.67,1489263.0,0.15,-0.05,0.99,0.0,0.0,-0.06,11.55,180.05,85.97,15637,1603222185.9831264,body_FLU,-0.01270484712610151,-0.019135871267016377,0.686042249258335,0.7271990356999375,-0.0012773467460647225,0.004840649664402008,0.0026980843394994736,-0.07865590815804899,-0.44233150270208715,9.708841291666031,1354,1603222185.4478233,rc,0.0,0.0,0.0,0.0,0.0,-10000.0
,,192946.105621,0.9399051666259766,10763,1603717317.7890034,/world,vicon/test_obj/test_obj,-0.3009160932079854,0.00807258797094799,1.3815219058812485,0.0008277364549103879,-0.0003709109753900402,0.0006834596824203263,0.9999993550799281,1489355.0,0.15,-0.05,1.0,-0.12,-0.12,-0.06,14.4,178.39,86.12,1489364.0,0.15,-0.06,0.99,-0.06,-0.06,0.06,13.95,180.65,84.92,15642,1603222186.1023622,body_FLU,-0.012672849582769386,-0.01906866339886687,0.6860461596818975,0.7271976703382332,-0.001659058965742588,0.0025555791798979044,-0.0013388037914410233,0.17009626960381866,-0.3625220662504435,9.844979792833328,1355,1603222186.4963162,rc,0.0,0.0,0.0,0.0,0.0,-10000.0
,,192946.204838,1.0390849113464355,10773,1603717317.8892503,/world,vicon/test_obj/test_obj,-0.3009040372148483,0.008103822300595238,1.3816258011923648,0.00066564406828848,0.0005298070021568351,0.0004991179624907103,0.9999995135517689,1489444.0,0.15,-0.04,1.01,0.0,0.0,0.0,13.05,180.8,83.72,1489463.0,0.15,-0.05,0.99,-0.06,-0.06,0.06,13.2,179.59,85.97,15648,1603222186.2022157,body_FLU,-0.012710478567593544,-0.018966118754849277,0.686058852243406,0.7271877208344625,0.00635979138314724,0.0024381973780691624,-0.0015455865068361163,-0.03874502404080704,-0.32686512235924603,9.77177380245924,1355,1603222186.4963162,rc,0.0,0.0,0.0,0.0,0.0,-10000.0
,,192946.304158,1.1384036540985107,10783,1603717317.9892058,/world,vicon/test_obj/test_obj,-0.3009128993916765,0.008068787891416507,1.3815157472123494,0.0008866757125871226,-0.0003769744982632441,0.0006595580609400267,0.999999318339554,1489544.0,0.14,-0.05,0.99,-0.06,-0.12,-0.06,13.2,180.05,85.67,1489564.0,0.15,-0.05,0.99,0.0,0.0,0.0,13.8,180.8,85.82,15652,1603222186.2936952,body_FLU,-0.012772703116852241,-0.018913210463125267,0.6860605622855909,0.7271863952257668,-0.0016752015799283981,0.0026490988675504923,-0.0014869726728647947,0.20451682219281794,-0.45296615473553536,9.749240613877774,1355,1603222186.4963162,rc,0.0,0.0,0.0,0.0,0.0,-10000.0
,,192946.394074,1.2283446788787842,10792,1603717318.7915719,/world,vicon/test_obj/test_obj,-0.3009164893834353,0.008056492780432061,1.3815094405741684,0.0007614605162904458,-0.0003463398645207964,0.0007325971488232429,0.9999993817638079,1489645.0,0.16,-0.05,0.99,-0.06,-0.06,-0.18,13.35,181.25,86.12,1489653.0,0.14,-0.05,1.0,-0.06,-0.18,-0.06,13.65,181.1,85.22,15655,1603222186.363044,body_FLU,-0.01278492725565474,-0.018897516250340758,0.6860543897840762,0.7271924117952789,0.002523400355130434,0.0015837891260161996,-0.002914824290201068,0.05312420687265694,-0.5069060848541558,9.842770404696465,1356,1603222186.3075864,rc,0.0,0.0,0.0,0.0,0.0,-10000.0
,,192946.505058,1.339303731918335,10803,1603717318.1891088,/world,vicon/test_obj/test_obj,-0.3009063808923966,0.008073096426434799,1.3814943127670627,0.0008954438964923643,-0.00035812661955643063,0.0006354710812671161,0.9999993330508063,1489743.0,0.14,-0.05,0.99,-0.18,-0.12,0.0,12.9,179.59,84.62,1489763.0,0.14,-0.06,1.01,-0.06,-0.06,0.0,12.15,179.59,85.97,15662,1603222186.501729,body_FLU,-0.012854137447425447,-0.01891724049537968,0.6860269800797612,0.7272165370542434,-0.002479266608133912,0.0028653747867792845,-0.002535963198170066,0.07896361854393036,-0.35869506950676444,9.850089075922966,1357,1603222186.4074295,rc,0.0,0.0,0.0,0.0,0.0,-10000.0
,,192946.604952,1.4391980171203613,10813,1603717318.2890687,/world,vicon/test_obj/test_obj,-0.30091042398997647,0.008070369245910097,1.3815032849046254,0.0008203613135094931,-0.00033510014276206244,0.0006846562720688654,0.9999993729803028,1489843.0,0.15,-0.05,0.99,-0.06,0.0,0.06,12.15,181.4,87.32,1489863.0,0.15,-0.04,0.98,0.0,0.0,-0.12,12.75,179.14,85.82,15668,1603222186.6015573,body_FLU,-0.012870383088551056,-0.018916125590686943,0.686025602807214,0.7272175779811637,0.0020739303436130285,0.00388788478448987,0.0002283965004608035,0.12809359655342997,-0.3719859747849405,9.766073908209801,1359,1603222186.5488527,rc,0.0,0.0,0.0,0.0,0.0,-10000.0
,,192946.703905,1.5381512641906738,10823,1603717318.3891275,/world,vicon/test_obj/test_obj,-0.3009125225665428,0.00807436557265221,1.3815057193641689,0.0008201815090178669,-0.0003776317115682485,0.0006521581921054666,0.9999993796929452,1489944.0,0.14,-0.04,0.99,0.0,0.0,-0.12,13.35,179.14,85.82,1489964.0,0.15,-0.04,0.99,0.0,0.06,0.0,13.05,181.55,85.82,15676,1603222186.6930678,body_FLU,-0.012910254661956699,-0.018926299748675542,0.6860574401439118,0.7271865711944697,0.0005414363695308566,0.00872691348195076,0.0006067600916139781,0.04559861544985324,-0.29659045856818556,9.72465693551302,1359,1603222186.5488527,rc,0.0,0.0,0.0,0.0,0.0,-10000.0
,,192946.804784,1.6390252113342285,10833,1603717318.489137,/world,vicon/test_obj/test_obj,-0.3009122652547376,0.00807197017987846,1.3815170135647676,0.000829342332501654,-0.00034171917453767136,0.0006740541382648241,0.9999993705349619,1490044.0,0.13,-0.05,0.99,-0.06,-0.24,-0.06,13.65,179.29,85.97,1490064.0,0.14,-0.05,1.0,0.0,-0.06,0.0,12.15,179.29,85.97,15683,1603222186.8012207,body_FLU,-0.012949264443284298,-0.01894688012019566,0.6860581400032763,0.7271846813701,0.0031332126818597317,0.003269186709076166,0.0035988164599984884,0.1121529097063467,-0.5523401700407267,9.937664267778397,1360,1603222186.7485712,rc,0.0,0.0,0.0,0.0,0.0,-10000.0
,,192946.938368,1.7726109027862549,10847,1603717318.6289263,/world,vicon/test_obj/test_obj,-0.30092146438739403,0.008069612014045853,1.381510395814102,0.0008370282413671265,-0.00035640149253575963,0.000708389322299334,0.9999993352729127,1490144.0,0.14,-0.05,1.0,0.0,0.0,-0.06,12.9,178.84,84.32,1490197.0,0.13,-0.05,1.01,0.06,0.06,-0.06,14.1,179.74,87.17,15693,1603222186.9315748,body_FLU,-0.01299910392651865,-0.018977215117987216,0.6860460511071953,0.727194406169146,-0.0009249412105418742,0.0078049879521131516,-0.0034713454078882933,0.04041234771441669,-0.48729623165354136,9.83034829223156,1360,1603222186.7485712,rc,0.0,0.0,0.0,0.0,0.0,-10000.0
,,192947.004047,1.8382916450500488,10853,1603717318.6889715,/world,vicon/test_obj/test_obj,-0.300915318294841,0.008067663407330674,1.3815090124038387,0.0007937803315567714,-0.00036735595307356726,0.0007307781106371571,0.99999935046266,1490244.0,0.13,-0.06,0.98,0.06,-0.06,0.0,11.7,180.8,86.12,1490264.0,0.15,-0.04,0.99,-0.12,-0.06,0.0,11.25,180.2,86.12,15699,1603222186.9925919,body_FLU,-0.012977737730443088,-0.018965883140619796,0.6860399450558768,0.7272008439130319,0.0019501680508255959,0.006352275609970093,0.0002635446726344526,0.15170957226119935,-0.4115316199734807,9.895377443432809,1360,1603222186.7485712,rc,0.0,0.0,0.0,0.0,0.0,-10000.0
,,192947.103982,1.9382574558258057,10863,1603717318.7890973,/world,vicon/test_obj/test_obj,-0.30090744071981906,0.008071303058878617,1.381502140380783,0.0007750156182770363,-0.00035467330910259997,0.0006747031844461808,0.9999994091664495,1490343.0,0.14,-0.05,0.99,-0.06,-0.12,0.0,13.65,180.05,85.97,1490363.0,0.14,-0.05,1.0,0.0,0.0,-0.12,11.1,179.59,85.67,15705,1603222187.8136933,body_FLU,-0.012944638625024034,-0.01896732976026564,0.6860469831188541,0.7271947563659624,0.00033112079836428165,0.003734233556315303,0.004491953644901514,-0.05223726780898869,-0.34275784213095906,9.966462257623673,1361,1603222187.8971598,rc,0.0,0.0,0.0,0.0,0.0,-10000.0
,,192947.22689,2.0611531734466553,10875,1603717318.909114,/world,vicon/test_obj/test_obj,-0.3009190459986303,0.008067392241024837,1.3815097824898297,0.000790352137863693,-0.0003518156147872824,0.0006991331895503952,0.999999381390836,1490476.0,0.15,-0.04,1.0,0.0,0.06,-0.06,13.35,179.74,87.47,1490485.0,0.14,-0.05,1.0,-0.06,-0.12,-0.06,13.65,180.35,85.67,15717,1603222187.220017,body_FLU,-0.012897255264716141,-0.018928777283309845,0.6860418344310876,0.7272014601247881,0.0008442100370302796,0.003302913624793291,0.006100759841501713,-0.008008625804912298,-0.5000261001437902,9.760813905358315,1361,1603222187.8971598,rc,0.0,0.0,0.0,0.0,0.0,-10000.0
,,192947.304431,2.138679265975952,10883,1603717318.9891126,/world,vicon/test_obj/test_obj,-0.3009223684156497,0.008064645511361533,1.3815049517273363,0.0007718917638609619,-0.0003143082778432996,0.0007464935026020882,0.9999993740702351,1490543.0,0.14,-0.04,0.99,0.06,0.06,0.0,11.25,180.2,85.82,1490563.0,0.15,-0.04,0.98,0.06,0.0,0.0,12.9,179.29,85.22,15721,1603222187.3031998,body_FLU,-0.012855791350809173,-0.018891697156041293,0.6860454848391505,0.7271997147545671,0.0021146112121641636,0.00821598619222641,0.002950407564640045,0.1316037824023515,-0.33336100535094737,9.821195279717445,1362,1603222187.269961,rc,0.0,0.0,0.0,0.0,0.0,-10000.0
,,192947.404909,2.2391505241394043,10893,1603717319.8908706,/world,vicon/test_obj/test_obj,-0.30091529253378785,0.008081636069817497,1.3815048319581409,0.0008380444624385621,-0.00040248978649653697,0.0006706678747901576,0.9999993429438103,1490643.0,0.15,-0.05,0.99,0.0,0.0,0.0,12.75,180.5,85.52,1490664.0,0.15,-0.05,0.98,-0.18,-0.06,0.0,14.4,180.2,85.82,15727,1603222187.403083,body_FLU,-0.012885407702023463,-0.01891887175982214,0.6860231176321432,0.7272195848806348,-0.0018796187359839678,0.008490834385156631,-0.0008412151364609599,0.13266939083486795,-0.48320865183323625,9.832309985876083,1362,1603222187.269961,rc,0.0,0.0,0.0,0.0,0.0,-10000.0
,,192947.506624,2.3410110473632812,10903,1603717319.1889362,/world,vicon/test_obj/test_obj,-0.3009199188117961,0.008060477994386951,1.3815012302809488,0.0008019066374344294,-0.0003403427601076968,0.0007711105895814574,0.9999993232502755,1490757.0,0.14,-0.04,1.0,0.0,0.0,-0.06,13.65,179.59,87.32,1490766.0,0.15,-0.04,0.99,-0.12,-0.12,-0.06,13.2,180.05,85.22,15733,1603222187.502869,body_FLU,-0.012897306138335285,-0.01893693592584435,0.6860252945541552,0.7272168501788164,0.0029792836867272854,0.0053192442283034325,-0.0016962247900664806,0.26904392104782165,-0.5440343720018864,9.866599315881729,1362,1603222187.269961,rc,0.0,0.0,0.0,0.0,0.0,-10000.0
,,192947.604765,2.43900728225708,10913,1603717319.289014,/world,vicon/test_obj/test_obj,-0.30092196056846365,0.008067901455823078,1.3815139945953356,0.0008329886089489496,-0.00039160044545097795,0.0007178170513334865,0.9999993187586426,1490844.0,0.16,-0.05,1.0,-0.06,-0.06,0.0,13.35,179.14,86.12,1490864.0,0.15,-0.05,0.99,-0.06,-0.12,0.06,13.35,179.44,85.82,15740,1603222187.602722,body_FLU,-0.012977413367897681,-0.018897039998240297,0.6860489671625707,0.7271941303921213,0.00043882441241294146,0.008731544017791748,-0.0027436399832367897,0.014972062272951007,-0.41137462022155524,9.886821468114853,1362,1603222187.269961,rc,0.0,0.0,0.0,0.0,0.0,-10000.0
,,192947.704035,2.5382797718048096,10923,1603717319.3891556,/world,vicon/test_obj/test_obj,-0.30091561632922775,0.008064445813025702,1.3815165003851455,0.0008005132881337991,-0.00034890828061727224,0.0007043522229704808,0.9999993706645186,1490944.0,0.14,-0.05,0.99,0.0,-0.06,-0.06,13.65,180.05,86.72,1490964.0,0.15,-0.05,0.98,0.0,-0.06,-0.06,15.0,181.1,85.67,15745,1603222187.6831555,body_FLU,-0.013030265161449037,-0.01885258225204708,0.6860688518227103,0.7271755791354108,-0.00101666827686131,0.006054647266864777,0.0008544294396415353,0.024002049051225185,-0.44879715411365034,9.730983660399914,1362,1603222187.269961,rc,0.0,0.0,0.0,0.0,0.0,-10000.0
,,192947.804648,2.6388888359069824,10933,1603717319.4892228,/world,vicon/test_obj/test_obj,-0.30091866671533213,0.008061729438493433,1.3815087240494828,0.0007777435974482884,-0.00040370762957263497,0.0007270234038436604,0.9999993517857982,1491050.0,0.14,-0.05,0.99,-0.12,-0.06,0.0,13.65,180.65,84.92,1491064.0,0.14,-0.04,1.0,-0.06,-0.24,0.0,11.7,180.8,86.42,15750,1603222187.8024087,body_FLU,-0.013076087454190847,-0.018837076173003828,0.6860818385408165,0.7271629056288528,-0.0010959375649690628,0.007912572473287582,0.005371736362576485,0.29368691245839,-0.5292576283738017,9.738368928730488,1363,1603222187.7497518,rc,0.0,0.0,0.0,0.0,0.0,-10000.0
,,192947.904527,2.7387685775756836,10943,1603717319.588856,/world,vicon/test_obj/test_obj,-0.3009069478778764,0.008073141401632601,1.3815027929487065,0.0008941191409935173,-0.0004055711849153384,0.0006696803634359117,0.9999992937953439,1491144.0,0.15,-0.04,0.98,-0.12,-0.12,-0.06,10.8,180.35,85.97,1491164.0,0.14,-0.05,0.98,0.06,0.0,0.0,13.05,178.69,87.17,15756,1603222187.9022439,body_FLU,-0.013101504401156878,-0.01882170277085784,0.6860913935002259,0.7271538309409846,0.003870479529723525,0.0046255262568593025,0.0047651734203100204,0.14843573493417353,-0.5757438674792648,9.754802056252956,1363,1603222187.7497518,rc,0.0,0.0,0.0,0.0,0.0,-10000.0
,,192948.004111,2.83835768699646,10953,1603717319.6891356,/world,vicon/test_obj/test_obj,-0.30091300822485556,0.008072104076706135,1.381507612890059,0.0008578902063289034,-0.0003927171455636941,0.0006674424636926618,0.9999993321588746,1491244.0,0.15,-0.05,0.98,-0.06,-0.18,0.0,13.2,178.84,85.97,1491264.0,0.15,-0.05,0.99,-0.12,-0.12,-0.06,12.75,179.14,85.52,15760,1603222187.9937592,body_FLU,-0.01312651891710336,-0.018820168366013974,0.6860791030134215,0.7271650157784634,-0.0018682093359529972,0.003292663022875786,-0.0025971904397010803,0.04834593767859042,-0.35974963318929076,9.812761983275413,1363,1603222187.7497518,rc,0.0,0.0,0.0,0.0,0.0,-10000.0
,,192948.104041,2.938291072845459,10963,1603717319.7890606,/world,vicon/test_obj/test_obj,-0.30092047558974616,0.008063357296037353,1.3815082533433247,0.0008245679582150823,-0.00037568269427546726,0.0007473116337535977,0.9999993102375209,1491344.0,0.15,-0.05,1.0,-0.12,-0.12,0.0,12.3,180.8,87.17,1491364.0,0.15,-0.05,1.0,-0.12,-0.18,-0.06,11.85,180.05,84.92,15764,1603222188.9360118,body_FLU,-0.013169944087391024,-0.01883836416614818,0.6860706569438935,0.7271717281968908,0.0020774919539690018,0.0010570549638941884,0.0005832897149957716,0.06498678865190595,-0.5721182685568929,9.740917728424073,1364,1603222188.764805,rc,0.0,0.0,0.0,0.0,0.0,-10000.0
,,192948.205714,3.039958953857422,10973,1603717319.8889337,/world,vicon/test_obj/test_obj,-0.30092343453501624,0.008060566302352714,1.3815157178641662,0.0008691397006867092,-0.0003531659513832235,0.0007437406389414472,0.9999992833596699,1491443.0,0.15,-0.05,0.99,0.0,0.0,-0.12,14.4,179.14,85.07,1491464.0,0.16,-0.05,0.99,-0.06,-0.06,-0.06,14.25,180.05,85.22,15770,1603222188.2017872,body_FLU,-0.013190534031276163,-0.018858128532251273,0.6860590359768943,0.7271818066719526,-0.0006957901059649885,0.0007923354860395193,-0.0046498943120241165,0.001772563710808754,-0.5624367510639131,9.79060267317295,1365,1603222188.1075337,rc,0.0,0.0,0.0,0.0,0.0,-10000.0
,,192948.33962,3.1738650798797607,10987,1603717320.2895427,/world,vicon/test_obj/test_obj,-0.300929079242802,0.008056534002936374,1.3815012458334204,0.0007769161670356617,-0.0003037979651705681,0.0007474788376863553,0.9999993726915297,1491544.0,0.15,-0.05,1.0,-0.06,-0.06,0.0,12.15,179.59,86.72,1491597.0,0.15,-0.05,0.99,-0.06,-0.12,-0.06,15.15,180.5,88.22,15776,1603222188.334908,body_FLU,-0.013218685359402096,-0.0188722201611278,0.6860561591542291,0.727183644033683,0.005157267674803734,0.003378339344635606,0.0019198713125661016,0.09975720423460006,-0.3714829183705151,9.862896750569345,1367,1603222188.3099186,rc,0.0,0.0,0.0,0.0,0.0,-10000.0
,,192948.404625,3.238870859146118,10993,1603717320.8913326,/world,vicon/test_obj/test_obj,-0.30091491211010996,0.008063951048800793,1.3815124730979933,0.0008066759139759075,-0.00035106059175266097,0.0006978440943809415,0.9999993695218266,1491644.0,0.15,-0.05,1.0,-0.06,-0.06,0.0,13.2,180.05,85.97,1491664.0,0.15,-0.05,0.99,0.0,-0.06,-0.06,10.65,179.44,85.82,15780,1603222188.401443,body_FLU,-0.013233427522892385,-0.01889312916553353,0.6860641388317125,0.7271753045005253,-0.0009283500257879496,0.001529783010482788,0.005051014944911003,0.0038399674789980054,-0.40736521167308093,9.824437507152558,1368,1603222188.3487551,rc,0.0,0.0,0.0,0.0,0.0,-10000.0
,,192948.504716,3.338959217071533,11003,1603717320.1889267,/world,vicon/test_obj/test_obj,-0.3009187265426406,0.008069928594405251,1.3815025885823204,0.0007876081720913426,-0.00034739927323539397,0.0007202412570584628,0.9999993701196236,1491744.0,0.16,-0.05,1.0,-0.06,-0.06,0.0,13.65,180.05,85.97,1491764.0,0.16,-0.04,0.99,-0.24,-0.12,0.0,11.85,178.24,85.67,15786,1603222188.501327,body_FLU,-0.013196310245476543,-0.018895993837731523,0.6860582546209064,0.7271814560887159,-0.0017288774251937866,-0.0008583068265579641,0.003300176467746496,0.05693346812110394,-0.48299345263838767,9.859270129323006,1370,1603222188.4680052,rc,0.0,0.0,0.0,0.0,0.0,-10000.0
,,192948.62641,3.4608139991760254,11015,1603717320.3090348,/world,vicon/test_obj/test_obj,-0.3009126689795657,0.008074657380199022,1.381516015916367,0.0008527151228076679,-0.000369572340581471,0.0006603662342280601,0.9999993501046094,1491878.0,0.15,-0.05,1.0,-0.12,0.0,-0.12,13.65,180.35,87.02,1491886.0,0.14,-0.04,1.0,0.0,0.0,0.0,13.2,180.35,87.62,15793,1603222188.6233103,body_FLU,-0.013261372242600602,-0.01890411403024146,0.6860333184236107,0.7272035866878432,-0.0011756147723644972,0.0067815035581588745,0.0022391644306480885,0.12751050677709283,-0.3841518125385046,9.835403830289842,1373,1603222188.5900564,rc,0.0,0.0,0.0,0.0,0.0,-10000.0
,,192948.703811,3.5380566120147705,11023,1603717320.3890486,/world,vicon/test_obj/test_obj,-0.3009124097533901,0.008062370485149305,1.3815043838732934,0.0008531507454834649,-0.0004021988805358387,0.0007211958504885018,0.9999992951229572,1491944.0,0.14,-0.05,0.98,-0.12,-0.18,-0.06,12.9,180.65,84.62,1491964.0,0.14,-0.05,1.01,0.0,0.0,0.0,13.05,180.8,85.82,15800,1603222188.6926687,body_FLU,-0.013289687964575145,-0.018910857271971906,0.6860356577656154,0.7272006875307138,0.0027991551905870438,0.005666053853929043,0.006809873506426811,0.08906874327454715,-0.5327315217219293,9.782259925425052,1373,1603222188.5900564,rc,0.0,0.0,0.0,0.0,0.0,-10000.0
,,192948.804917,3.6391825675964355,11033,1603717320.4889836,/world,vicon/test_obj/test_obj,-0.3009141550549945,0.008069571927219145,1.381510921954987,0.000797503704093465,-0.0004053282863518006,0.0006681830607773948,0.9999993766139155,1492043.0,0.15,-0.04,0.99,-0.12,-0.06,0.0,12.6,180.35,43.36,1492063.0,0.15,-0.05,0.99,-0.12,-0.18,-0.06,12.75,179.74,85.52,15806,1603222188.8008587,body_FLU,-0.013308838104738544,-0.01899587169404954,0.6860198202671854,0.7272130622365522,0.002631912473589182,0.0014418272767215967,0.0020864715334028006,0.06056163198128343,-0.4812850762680173,9.860091493606568,1374,1603222188.7481306,rc,0.0,0.0,0.0,0.0,0.0,-10000.0
,,192948.906593,3.740901231765747,11043,1603717320.5888793,/world,vicon/test_obj/test_obj,-0.3009116510575418,0.008067411957108743,1.3815098850579344,0.0008446990233121487,-0.0004016295997452007,0.0006602988879184588,0.9999993445910869,1492157.0,0.14,-0.05,0.99,-0.18,-0.12,0.0,15.0,179.59,85.97,1492166.0,0.14,-0.05,0.99,-0.12,-0.12,0.0,12.6,179.59,84.92,15815,1603222188.903429,body_FLU,-0.013299154548886128,-0.019063912618359127,0.6860217249165875,0.7272096621102021,-0.00015658489428460598,-0.0013393356930464506,0.0030112576205283403,0.16914171111211182,-0.44104410473629835,9.939386445522308,1374,1603222188.7481306,rc,0.0,0.0,0.0,0.0,0.0,-10000.0
,,192949.024204,3.8584530353546143,11055,1603717320.7089093,/world,vicon/test_obj/test_obj,-0.3009108705043109,0.00806603707072697,1.3815098908049936,0.0008436393520419707,-0.00037622911795610035,0.0006815456894387272,0.9999993411096668,1492264.0,0.14,-0.05,0.99,0.0,0.06,-0.06,12.75,180.8,85.07,1492284.0,0.15,-0.04,0.99,-0.12,-0.06,0.0,13.2,180.05,84.92,15825,1603222189.1161625,body_FLU,-0.013282620462450559,-0.01908672369876968,0.6860287915374979,0.7272026994956067,0.00018311635358259082,0.004849412478506565,0.003621330950409174,0.22974407174997033,-0.43388221419230105,9.963061131834984,1374,1603222188.7481306,rc,0.0,0.0,0.0,0.0,0.0,-10000.0
,,192949.104567,3.938812017440796,11063,1603717320.7888727,/world,vicon/test_obj/test_obj,-0.3009174491794594,0.00805659285240374,1.3815047045474391,0.0008465657948611184,-0.0003699090194316665,0.0007117370554226597,0.9999993199617869,1492344.0,0.14,-0.04,0.99,-0.06,-0.12,-0.06,13.35,178.09,86.12,1492364.0,0.14,-0.04,0.98,-0.06,-0.06,-0.12,12.0,178.09,86.42,15831,1603222189.1031566,body_FLU,-0.013266870485443439,-0.019113059305153435,0.6860553748833248,0.7271772161620721,0.002637465950101614,0.0026205191388726234,-0.0025738996919244528,0.13919319604989142,-0.4819262194409967,9.93558690547943,1375,1603222189.698559,rc,0.0,0.0,0.0,0.0,0.0,-10000.0
,,192949.196481,4.030731916427612,11072,1603717320.8788035,/world,vicon/test_obj/test_obj,-0.30092009244914214,0.008060179298630904,1.3815099095855414,0.0008238259961419793,-0.0004173359791765514,0.0007237578501378103,0.9999993116577546,1492447.0,0.15,-0.05,0.98,-0.12,-0.06,-0.06,13.05,180.5,86.12,1492456.0,0.14,-0.05,0.98,-0.12,-0.12,0.06,12.9,179.29,85.67,15839,1603222189.1918557,body_FLU,-0.01327990537189475,-0.019071902706933774,0.6860873003321382,0.7271479374676169,0.002320095431059599,0.0081867016851902,-0.0027166535146534443,0.20900537207722664,-0.41058020147681235,9.80498998439312,1375,1603222189.698559,rc,0.0,0.0,0.0,0.0,0.0,-10000.0
,,192949.304764,4.139003753662109,11083,1603717320.9888792,/world,vicon/test_obj/test_obj,-0.30091789051253776,0.00806182487365403,1.3815070563031713,0.0008070175607248343,-0.00034812689876087235,0.0007179204242658827,0.9999993560600844,1492544.0,0.15,-0.05,0.99,-0.18,-0.06,0.0,12.0,180.8,86.42,1492564.0,0.15,-0.04,0.98,-0.06,-0.06,-0.06,13.05,180.5,87.47,15846,1603222189.3028042,body_FLU,-0.01328269427735615,-0.019008898823486355,0.6860936323030481,0.7271435618304426,0.006078456528484821,0.004794900305569172,-0.0008626349736005068,0.09332873072940856,-0.42396749730035665,9.845318620204926,1376,1603222189.2696493,rc,0.0,0.0,0.0,0.0,0.0,-10000.0
,,192949.40425,4.23849892616272,11093,1603717321.889278,/world,vicon/test_obj/test_obj,-0.30093309214828173,0.008089471260434347,1.381586012460372,0.0006206912587788631,0.00036395657575254993,0.000586238773709014,0.9999995693009435,1492644.0,0.15,-0.05,0.98,-0.18,-0.18,-0.06,13.8,180.5,84.17,1492664.0,0.14,-0.05,0.99,-0.06,-0.06,-0.12,13.35,180.2,85.82,15851,1603222189.383228,body_FLU,-0.013251503936959043,-0.019034520448123465,0.6860998555189324,0.7271375887214323,0.0034937828313559294,0.0034124937374144793,-0.0005095719825476408,0.05849192798417062,-0.4022741843685508,9.957985731482506,1376,1603222189.2696493,rc,0.0,0.0,0.0,0.0,0.0,-10000.0
,,192949.504908,4.339146137237549,11103,1603717321.188946,/world,vicon/test_obj/test_obj,-0.3009472266928955,0.008093319542546908,1.3816013731220709,0.0005440460381012709,0.0005947986901494269,0.0005838401232199148,0.9999995046794459,1492744.0,0.14,-0.05,1.0,-0.06,-0.06,0.0,13.35,180.2,85.82,1492764.0,0.15,-0.05,0.99,-0.06,-0.06,-0.06,12.0,179.14,86.42,15856,1603222189.5024827,body_FLU,-0.013227676326392435,-0.019090785978098605,0.686119764681806,0.7271177614270784,0.003259667195379734,0.005754594225436449,0.003929233644157648,0.14560938341170548,-0.5328363829515874,9.888049425244331,1377,1603222189.4498086,rc,0.0,0.0,0.0,0.0,0.0,-10000.0
,,192949.604463,4.438702821731567,11113,1603717321.288811,/world,vicon/test_obj/test_obj,-0.300912333252336,0.008067472321347954,1.3814975216773737,0.0008333786020774109,-0.0003500556493949354,0.0007156000748447249,0.9999993354286195,1492844.0,0.16,-0.06,1.0,0.06,0.0,0.06,13.2,181.4,85.97,1492864.0,0.14,-0.05,0.99,0.0,0.06,0.06,12.0,180.2,84.17,15863,1603222189.6023335,body_FLU,-0.013182677962452285,-0.019111520879702193,0.6861178828181274,0.727119809693405,0.0007889780681580305,0.005565737374126911,0.003799854777753353,0.20330962189100682,-0.42741145116090773,9.7901055316329,1377,1603222189.4498086,rc,0.0,0.0,0.0,0.0,0.0,-10000.0
,,192949.739729,4.573976755142212,11127,1603717321.4289153,/world,vicon/test_obj/test_obj,-0.30092016959590595,0.008065319763803822,1.381502215487195,0.0007967672856969211,-0.0003683699102669226,0.0006875099173654679,0.9999993783976143,1492944.0,0.14,-0.05,1.0,-0.06,-0.12,0.06,13.2,180.05,84.92,1492999.0,0.16,-0.04,0.99,0.12,0.06,0.0,13.35,181.85,85.82,15873,1603222189.7132514,body_FLU,-0.013105703085645895,-0.019166900155296297,0.6861081207356582,0.7271289549630459,-0.0026492485776543617,0.005018462426960468,0.003621409647166729,0.21245126105099918,-0.4860729845166206,9.841096130132675,1378,1603222189.7298965,rc,0.0,0.0,0.0,0.0,0.0,-10000.0
,,192949.804135,4.638387203216553,11133,1603717321.4891627,/world,vicon/test_obj/test_obj,-0.3009208719788237,0.008052802295097052,1.381505809235042,0.0007824508048587872,-0.00035575711107050485,0.000739675899510307,0.999999357043383,1493044.0,0.15,-0.05,0.99,-0.06,-0.06,0.06,13.65,179.59,86.72,1493064.0,0.15,-0.05,1.01,0.0,0.0,-0.06,12.6,180.05,84.92,15876,1603222189.793674,body_FLU,-0.013107538594018314,-0.019206580458559892,0.6861042667329383,0.7271315113993838,-0.0017035843338817358,0.005312296561896801,-0.0002458146773278713,-0.12426411702297628,-0.626578269481659,9.75897255384922,1378,1603222189.7298965,rc,0.0,0.0,0.0,0.0,0.0,-10000.0
,,192949.904888,4.739132404327393,11143,1603717321.588769,/world,vicon/test_obj/test_obj,-0.3009198918726711,0.008057643157907043,1.3815001972127205,0.0007722541757977105,-0.0003729932525914769,0.0007397262769937634,0.9999993586520727,1493144.0,0.14,-0.05,1.0,-0.06,0.0,-0.06,13.05,179.14,85.52,1493164.0,0.14,-0.05,1.0,-0.12,-0.18,0.0,12.15,180.35,85.97,15881,1603222189.9018831,body_FLU,-0.013071378469936995,-0.01923714168791817,0.6861125921174991,0.7271234987142012,0.0009893197566270828,0.007265002466738224,-0.0009597140015102923,0.08893502877652645,-0.49858126428723337,9.861244675040245,1379,1603222189.8075647,rc,0.0,0.0,0.0,0.0,0.0,-10000.0
,,192950.024862,4.8591084480285645,11155,1603717321.7087705,/world,vicon/test_obj/test_obj,-0.3009244742617896,0.008056489207124535,1.3815106280824823,0.0008238098708371359,-0.00042622221004182955,0.0007488956706637716,0.9999992894133469,1493276.0,0.14,-0.04,0.99,0.0,-0.06,0.0,14.7,180.05,86.72,1493285.0,0.15,-0.05,0.99,-0.06,-0.06,-0.06,14.25,180.35,85.97,15887,1603222190.127991,body_FLU,-0.013131582541180306,-0.01927930261680192,0.6861039088054153,0.7271294907734827,0.006241282448172569,0.0015523753827437758,-0.0005230744136497378,0.17919864057004453,-0.46731896252185107,9.904398430109024,1379,1603222189.8075647,rc,0.0,0.0,0.0,0.0,0.0,-10000.0
,,192950.104836,4.939080715179443,11163,1603717321.7888985,/world,vicon/test_obj/test_obj,-0.30091590317249045,0.008069623116496302,1.3815102153419034,0.000768234370501407,-0.000321130629288073,0.0006614264295816909,0.9999994346029147,1493344.0,0.15,-0.05,0.99,0.0,0.0,-0.12,14.1,180.2,85.82,1493364.0,0.14,-0.05,0.98,-0.06,-0.12,-0.12,13.05,180.2,85.07,15892,1603222190.1015496,body_FLU,-0.013208499120114271,-0.019324600912014364,0.6861067801740093,0.7271241857824832,-0.0007245576125569642,0.007554307114332914,0.0022889270912855864,0.08244789030589164,-0.41082066667824985,9.695638707876206,1380,1603222190.8765306,rc,0.0,0.0,0.0,0.0,0.0,-10000.0
,,192950.204656,5.038898229598999,11173,1603717321.8889372,/world,vicon/test_obj/test_obj,-0.3009151321276727,0.008064279754031624,1.3815062823692572,0.0008746725186654111,-0.00037429690796084907,0.0007076454147477558,0.9999992970436413,1493444.0,0.14,-0.05,0.99,0.0,0.0,0.12,12.0,179.44,85.52,1493464.0,0.14,-0.05,0.99,-0.06,-0.06,0.06,13.05,179.14,85.82,15898,1603222190.2013998,body_FLU,-0.013270034324039504,-0.019388586678608984,0.6861038207063973,0.7271241545346494,-0.0012859676498919725,0.004012550227344036,0.0020862482488155365,0.2280015205498785,-0.5212350140735507,9.827823444128036,1382,1603222190.1486814,rc,0.0,0.0,0.0,0.0,0.0,-10000.0
,,192950.305349,5.1395957469940186,11183,1603717321.9888532,/world,vicon/test_obj/test_obj,-0.3009210309367229,0.008055234402895977,1.381512227458509,0.0007925686136079082,-0.00037482586003882896,0.000749476546028784,0.9999993348125159,1493557.0,0.15,-0.05,0.99,-0.18,-0.12,-0.06,13.65,180.05,87.02,1493566.0,0.15,-0.05,1.0,-0.06,-0.06,0.0,13.05,181.25,86.87,15907,1603222190.3040233,body_FLU,-0.013311936302640678,-0.019418170278001665,0.6860910069437521,0.7271346898655278,0.002480077790096402,0.004671033006161451,-0.0031259581446647644,0.049702552453614775,-0.47965227884799244,9.837589851021766,1382,1603222190.1486814,rc,0.0,0.0,0.0,0.0,0.0,-10000.0
,,192950.40472,5.238964080810547,11193,1603717322.890143,/world,vicon/test_obj/test_obj,-0.30092780575891054,0.008052070957201313,1.3815045586461254,0.0007708825402306755,-0.00030738178715686613,0.0007373958292553289,0.9999993837517787,1493644.0,0.14,-0.04,0.99,-0.06,-0.06,0.0,12.9,180.65,86.72,1493664.0,0.15,-0.05,0.99,-0.06,-0.12,-0.06,13.65,180.65,85.97,15913,1603222190.4010425,body_FLU,-0.01334390130130274,-0.019458259546799122,0.6860852348432256,0.7271384785332066,-0.0022087721154093742,0.004994112066924572,-0.0016186508582904935,0.08228820695355535,-0.2710943743195385,9.777644862949849,1383,1603222190.3483922,rc,0.0,0.0,0.0,0.0,0.0,-10000.0
,,192950.52276,5.357008934020996,11205,1603717322.208745,/world,vicon/test_obj/test_obj,-0.3009214418632169,0.008058636966649817,1.3815044076919591,0.000798404937388516,-0.0003774524742821403,0.0007124883802244107,0.9999993562195396,1493764.0,0.14,-0.05,1.01,-0.12,-0.06,0.0,13.65,178.84,85.97,1493784.0,0.15,-0.05,0.99,0.0,0.0,0.0,12.9,179.59,84.92,15922,1603222190.5037258,body_FLU,-0.013371240415422356,-0.019491809173534214,0.6861013932819664,0.7271218312232414,0.001636980101466179,0.005698779597878456,-0.0007884864462539554,0.22585681265965105,-0.6000780622847378,9.84928056371212,1383,1603222190.3483922,rc,0.0,0.0,0.0,0.0,0.0,-10000.0
,,192950.59375,5.427994966506958,11212,1603717322.279059,/world,vicon/test_obj/test_obj,-0.30091386269767606,0.008067049770752434,1.3815031578864836,0.0008216711248062436,-0.0003634677415107971,0.0006652388777230288,0.9999993751023043,1493845.0,0.15,-0.05,1.0,-0.12,-0.12,0.06,14.1,180.5,86.87,1493853.0,0.15,-0.04,1.0,-0.06,-0.18,-0.06,14.1,180.5,86.87,15930,1603222190.5924375,body_FLU,-0.013386471700640692,-0.019554127824532228,0.6861099097458957,0.7271118416096031,-0.0008796402253210545,0.004520654212683439,0.004034438170492649,0.1357895327070728,-0.4511717205941677,9.841418600320816,1383,1603222190.3483922,rc,0.0,0.0,0.0,0.0,0.0,-10000.0
,,192950.704671,5.538917541503906,11223,1603717322.3887725,/world,vicon/test_obj/test_obj,-0.3009184510291549,0.008061073102366997,1.3815154170797155,0.0007558911254784833,-0.0003934908402266283,0.0007267459593851973,0.9999993728167411,1493944.0,0.15,-0.04,0.99,-0.06,-0.12,0.0,11.85,180.65,85.22,1493964.0,0.14,-0.04,1.0,-0.06,-0.06,-0.06,13.65,180.35,85.22,15937,1603222190.7006,body_FLU,-0.013410520480377403,-0.019627573543154045,0.6861251798779889,0.7270950101841236,-0.0005686703370884061,0.005424696020781994,0.004638467915356159,0.08054011512268335,-0.6418737694993615,9.749427553117275,1384,1603222190.6478975,rc,0.0,0.0,0.0,0.0,0.0,-10000.0
,,192950.804715,5.638957977294922,11233,1603717322.4890008,/world,vicon/test_obj/test_obj,-0.3009227265521347,0.008066891553004437,1.3815057252423066,0.0008175952836625425,-0.0003558467313472808,0.000707855685531331,0.9999993519254822,1494044.0,0.15,-0.04,1.0,0.0,0.0,0.0,12.6,179.59,87.02,1494064.0,0.14,-0.05,1.0,-0.06,-0.06,-0.06,10.8,179.29,85.67,15944,1603222190.803205,body_FLU,-0.013396847553921122,-0.019640120108326286,0.686129025544555,0.7270912944486593,-0.0016380007145926356,0.0030507459305226803,-0.0004779462469741702,0.21713113156333566,-0.34117156045138836,9.837165732622147,1384,1603222190.6478975,rc,0.0,0.0,0.0,0.0,0.0,-10000.0
,,192950.904574,5.738819360733032,11243,1603717322.589015,/world,vicon/test_obj/test_obj,-0.300923673794424,0.008066631905968553,1.3815088189716211,0.0008308138045513432,-0.00034328733220658896,0.0006715455392112326,0.9999993704642111,1494144.0,0.15,-0.05,0.99,-0.06,-0.06,0.06,12.3,179.74,85.82,1494164.0,0.14,-0.05,0.99,-0.06,-0.12,0.0,12.3,180.8,86.12,15950,1603222190.9030435,body_FLU,-0.0133685184171782,-0.019654523676216926,0.6861256886091073,0.7270945755849572,0.001145216403529048,0.002543569775298238,-0.0029455460608005524,0.15766229087859393,-0.5019787024073303,9.740994256675243,1384,1603222190.6478975,rc,0.0,0.0,0.0,0.0,0.0,-10000.0
,,192951.004393,5.838641166687012,11253,1603717322.689074,/world,vicon/test_obj/test_obj,-0.3009174374791476,0.008065018900846613,1.381503406089519,0.0007888967844531652,-0.0004049476826796579,0.0007160309320419394,0.9999993504792601,1494244.0,0.14,-0.05,1.0,0.0,0.0,0.0,13.2,180.35,85.22,1494265.0,0.15,-0.05,1.01,0.0,-0.06,-0.12,12.75,181.25,86.87,15956,1603222191.2903063,body_FLU,-0.013341073777422255,-0.01968749005133341,0.6861239735774473,0.7270958061825404,0.0030270805582404137,0.0029398868791759014,-4.480300412978977e-05,0.058643295826390385,-0.5110979052074254,9.808111869692803,1384,1603222190.6478975,rc,0.0,0.0,0.0,0.0,0.0,-10000.0
,,192951.138243,5.972486734390259,11267,1603717322.828801,/world,vicon/test_obj/test_obj,-0.30089593687464816,0.008110790699384474,1.3816135028857413,0.0006192802327103232,0.0005208867099285827,0.00043379529145579093,0.9999995784952481,1494344.0,0.14,-0.04,0.99,-0.12,-0.12,0.06,10.8,180.05,87.32,1494397.0,0.15,-0.05,1.0,-0.12,-0.18,-0.06,13.2,180.05,88.37,15964,1603222191.1332343,body_FLU,-0.013319341008717584,-0.01976548750975146,0.686143470709505,0.727075689499594,0.0005426268326118588,0.0008927503949962556,0.006773573812097311,0.20435262966156006,-0.48340972105041147,9.8099333589077,1384,1603222190.6478975,rc,0.0,0.0,0.0,0.0,0.0,-10000.0
,,192951.203978,6.038232326507568,11273,1603717322.888961,/world,vicon/test_obj/test_obj,-0.30092544793087067,0.008058524045567917,1.3815072431357716,0.0007927065907941023,-0.0003391883881622904,0.0007138160579956828,0.9999993735168705,1494444.0,0.14,-0.05,1.0,0.0,0.0,-0.06,12.15,180.35,84.32,1494465.0,0.14,-0.05,0.99,-0.18,-0.12,-0.18,12.15,179.29,85.22,15967,1603222191.183141,body_FLU,-0.013298689420818934,-0.019774884347606984,0.6861341374492624,0.7270846197214489,-0.0016961648361757398,0.007631494663655758,-0.003265025559812784,0.14818521992303432,-0.396138378482312,9.832509777188301,1384,1603222190.6478975,rc,0.0,0.0,0.0,0.0,0.0,-10000.0
,,192951.304743,6.138993263244629,11283,1603717322.988875,/world,vicon/test_obj/test_obj,-0.3009269771032607,0.008062744299639489,1.3815096917946428,0.0008038702381993691,-0.000363991874914742,0.0007012365900002606,0.9999993647846983,1494544.0,0.14,-0.04,0.99,0.0,-0.18,0.06,12.75,179.74,85.52,1494564.0,0.14,-0.06,1.0,-0.06,-0.06,-0.06,13.95,180.05,85.22,15972,1603222191.3024201,body_FLU,-0.013259756413520132,-0.019828890476587365,0.6861224569749033,0.7270948823895294,-0.002273854799568653,0.00332946446724236,0.00044172065099701285,-0.01972041479917243,-0.5205529049187899,9.863959967494011,1385,1603222191.249694,rc,0.0,0.0,0.0,0.0,0.0,-10000.0
,,192951.424564,6.258810043334961,11295,1603717323.1090271,/world,vicon/test_obj/test_obj,-0.3009374306216045,0.008100309737682849,1.381596639567667,0.0005950135558366625,0.0005141173006834661,0.0005098918480565259,0.9999995608261899,1494676.0,0.15,-0.05,0.99,-0.06,-0.12,-0.18,15.15,179.14,88.22,1494685.0,0.14,-0.05,0.99,0.0,0.0,0.12,12.15,180.05,85.97,15979,1603222191.421642,body_FLU,-0.013216900949247672,-0.01992453579210618,0.6861133297249601,0.7271016608263903,7.267610635608435e-05,0.004201150964945555,0.00029787560924887657,0.17262411165609956,-0.5240132524743676,9.824491252183915,1385,1603222191.249694,rc,0.0,0.0,0.0,0.0,0.0,-10000.0
,,192951.503406,6.337653636932373,11303,1603717323.1889317,/world,vicon/test_obj/test_obj,-0.3009176518341262,0.00806760821304754,1.381513263346137,0.0007967132683809853,-0.0003571811325059311,0.0007024407308469782,0.999999372123116,1494744.0,0.14,-0.05,0.99,0.0,0.0,-0.06,12.3,179.14,86.12,1494764.0,0.14,-0.05,0.99,0.0,-0.12,0.0,12.15,181.1,87.32,15982,1603222191.4937553,body_FLU,-0.013224353674092975,-0.019958393839185795,0.6861199547416239,0.7270943451097762,0.0040319571271538734,0.006406438536942005,0.002984235528856516,0.0693094664728269,-0.4652739494740963,9.780490428686143,1385,1603222191.249694,rc,0.0,0.0,0.0,0.0,0.0,-10000.0
,,192951.604178,6.438457012176514,11313,1603717323.2890134,/world,vicon/test_obj/test_obj,-0.30093172604843754,0.008062587067985544,1.3815112970061876,0.0007766385890576004,-0.0003369289145840136,0.0007060421393099437,0.9999993924077684,1494844.0,0.14,-0.04,1.0,0.0,0.06,-0.06,13.8,181.55,85.52,1494864.0,0.15,-0.04,1.0,-0.12,-0.12,-0.12,12.15,179.59,86.27,15986,1603222191.5935984,body_FLU,-0.01320533204843941,-0.02000789398986799,0.686143281752839,0.7270713171959301,9.38225130084902e-05,0.003428237047046423,0.0041334908455610275,-0.004622775544412434,-0.5057952203303575,9.856838750839234,1386,1603222191.5076315,rc,0.0,0.0,0.0,0.0,0.0,-10000.0
,,192951.70636,6.540606737136841,11323,1603717323.3888679,/world,vicon/test_obj/test_obj,-0.3009146981403397,0.008067519093746268,1.3815068276029583,0.0008785395947824773,-0.0003718238414307795,0.0006756943247547523,0.999999316675962,1494958.0,0.15,-0.05,1.01,-0.06,-0.06,0.0,13.2,180.65,87.62,1494967.0,0.15,-0.04,0.99,0.06,0.06,0.0,14.1,180.5,86.12,15992,1603222191.7017741,body_FLU,-0.013186316972221801,-0.0200331048220993,0.6861511100751349,0.7270635803687013,-0.0014748522080481052,0.006488608196377754,-0.0028865020722150803,0.0959032802078873,-0.5533615447059274,9.768539753615856,1387,1603222191.6075032,rc,0.0,0.0,0.0,0.0,0.0,-10000.0
,,192951.804578,6.638822555541992,11333,1603717323.4890063,/world,vicon/test_obj/test_obj,-0.30091017727191455,0.008062140286238754,1.381513458562949,0.0008194772522363107,-0.0003779414547522029,0.0006622544237671091,0.9999993735179877,1495044.0,0.15,-0.04,1.01,-0.06,-0.06,0.12,12.75,180.5,85.82,1495064.0,0.16,-0.04,1.0,-0.06,-0.06,0.0,13.05,178.39,85.82,15998,1603222191.8016243,body_FLU,-0.013264262001380115,-0.020041548717957644,0.6861522879659004,0.7270608182247923,0.0012892733793705702,0.0060843657702207565,0.0003629204584285617,0.1181187998726964,-0.367780097477138,9.76483368319273,1389,1603222191.748919,rc,0.0,0.0,0.0,0.0,0.0,-10000.0
,,192951.903434,6.7376792430877686,11343,1603717323.588817,/world,vicon/test_obj/test_obj,-0.3009093462184131,0.008075105125448833,1.3815078690365414,0.0008248422132624958,-0.00031893242225054287,0.0006436714513975852,0.999999401802069,1495145.0,0.14,-0.04,0.99,-0.06,-0.12,-0.06,13.65,179.29,85.97,1495164.0,0.15,-0.04,1.01,-0.12,0.0,0.06,13.65,182.15,84.92,16006,1603222191.8931198,body_FLU,-0.013329335872421614,-0.020028394150797168,0.6861437828707205,0.7270680170801065,0.00017388357082381845,0.006049034185707569,-0.0014330106787383556,-0.037053798980545255,-0.47915258149802686,9.751029388725758,1389,1603222191.748919,rc,0.0,0.0,0.0,0.0,0.0,-10000.0
,,192951.993588,6.827830791473389,11352,1603717323.6788154,/world,vicon/test_obj/test_obj,-0.3009232211948182,0.008057919677413105,1.381501438009501,0.0007881059099796855,-0.0003142497353213752,0.0006994351221247298,0.9999993954631615,1495245.0,0.15,-0.05,1.0,-0.12,-0.12,0.0,12.9,181.1,86.27,1495254.0,0.15,-0.05,1.0,-0.06,-0.12,-0.06,12.9,181.1,86.27,16012,1603222191.9819005,body_FLU,-0.013391338031168883,-0.019985624453269422,0.6861588283260375,0.7270538557708001,-0.0015150440158322453,0.008809950202703476,0.0009967744117602706,0.1055618501789868,-0.4797637121602893,9.81470381462574,1390,1603222191.9486234,rc,0.0,0.0,0.0,0.0,0.0,-10000.0
,,192952.103921,6.938188314437866,11363,1603717323.788987,/world,vicon/test_obj/test_obj,-0.3009083803038662,0.008077264671897287,1.3815095094056713,0.0008903797311887728,-0.0003852110183685562,0.0006771768339980284,0.9999993001337256,1495345.0,0.15,-0.05,0.98,-0.06,-0.18,0.0,12.75,180.2,85.82,1495365.0,0.14,-0.05,1.0,-0.06,-0.06,-0.12,12.15,179.59,87.02,16020,1603222192.8452306,body_FLU,-0.013377397977286903,-0.019957070808487312,0.6861649480927234,0.7270491211445155,0.0021873193327337503,0.006611857563257217,0.0014763257931917906,0.19926799188181757,-0.45154505139961837,9.841208293676376,1390,1603222191.9486234,rc,0.0,0.0,0.0,0.0,0.0,-10000.0
,,192952.203851,7.038094758987427,11373,1603717323.8889203,/world,vicon/test_obj/test_obj,-0.30091615877103084,0.008076181627208204,1.3815126304350611,0.0007986356094820116,-0.0003544088492741703,0.0006942962920440712,0.999999377263901,1495444.0,0.15,-0.04,1.0,-0.12,-0.06,-0.12,13.35,178.39,85.07,1495464.0,0.15,-0.05,1.0,-0.06,0.0,-0.06,13.05,180.2,84.77,16029,1603222192.1926455,body_FLU,-0.013426814628683528,-0.01995548869877424,0.6861772757147967,0.7270366190312149,0.00042357551865279675,0.003696765284985304,0.0036324765533208847,0.06892873294651508,-0.4900165261924267,9.792240728259086,1390,1603222191.9486234,rc,0.0,0.0,0.0,0.0,0.0,-10000.0
,,192952.30482,7.139067649841309,11383,1603717323.9888024,/world,vicon/test_obj/test_obj,-0.30091653411648006,0.008064764099972602,1.3815112351492946,0.0007888033024030767,-0.00036894295988235733,0.0006984055811293644,0.9999993769498493,1495544.0,0.15,-0.05,0.99,-0.06,-0.06,-0.12,11.7,179.74,86.42,1495564.0,0.14,-0.05,1.0,-0.06,-0.12,-0.12,13.35,180.5,85.82,16036,1603222192.3035924,body_FLU,-0.013459446477566627,-0.01992687919801041,0.6861905208267889,0.7270242993967985,0.001649131067097187,0.007630585692822933,0.0025169856380671263,0.058646956111304466,-0.44623491816222666,9.822972370862962,1391,1603222192.2897472,rc,0.0,0.0,0.0,0.0,0.0,-10000.0
,,192952.424528,7.258772850036621,11395,1603717324.1090672,/world,vicon/test_obj/test_obj,-0.3009103551084211,0.008077170900596434,1.3815115179247182,0.000886878971274736,-0.0003845540315325627,0.0006231121226872727,0.9999993386473661,1495665.0,0.14,-0.06,1.0,-0.12,-0.06,-0.06,12.15,178.84,85.97,1495685.0,0.14,-0.04,1.0,0.0,0.0,0.12,13.65,179.59,85.97,16047,1603222192.4200785,body_FLU,-0.013499234002394833,-0.019900683630913497,0.6861865601464261,0.7270280174427848,-0.0012193158036097884,0.005934712942689657,0.003143175970762968,0.06292872271779924,-0.5100035804249347,9.854797608017922,1391,1603222192.2897472,rc,0.0,0.0,0.0,0.0,0.0,-10000.0
,,192952.538109,7.372353553771973,11407,1603717324.2289112,/world,vicon/test_obj/test_obj,-0.3009142787034346,0.008068468863632293,1.3815055197673374,0.0008287632332303665,-0.0003680008188317259,0.000710408077508644,0.999999336523412,1495745.0,0.14,-0.05,0.99,0.12,0.0,0.0,12.75,179.74,84.77,1495797.0,0.14,-0.05,0.99,-0.06,-0.06,-0.06,13.65,180.35,85.67,16052,1603222192.5310676,body_FLU,-0.01352316523613592,-0.01990697891394967,0.6861745317912765,0.7270387528278931,-0.0001699142303550616,0.0037773437798023224,-0.0001464386732550338,0.2334433510210365,-0.3908199936300516,9.852049601197242,1392,1603222192.470018,rc,0.0,0.0,0.0,0.0,0.0,-10000.0
,,192952.604329,7.438578128814697,11413,1603717324.288848,/world,vicon/test_obj/test_obj,-0.30091907344115165,0.00806228941604984,1.3815116842290251,0.0007990607643424811,-0.00036715857991583196,0.0007493949688723781,0.9999993325516037,1495844.0,0.14,-0.04,1.0,-0.06,-0.18,-0.18,12.15,178.84,85.22,1495864.0,0.15,-0.05,0.99,-0.06,-0.06,0.0,13.05,180.5,86.12,16057,1603222192.6031373,body_FLU,-0.013503987774478232,-0.01990682599363528,0.6861645281995099,0.7270485546604091,0.005107857286930084,0.0008018253138288856,-0.0010982488747686148,0.02786114859301597,-0.3324232056699693,9.837720708489417,1392,1603222192.470018,rc,0.0,0.0,0.0,0.0,0.0,-10000.0
,,192952.704383,7.53862738609314,11423,1603717324.388965,/world,vicon/test_obj/test_obj,-0.3009140702737589,0.008063705817427151,1.38151192392038,0.0007913994249833583,-0.0003248644037559942,0.000712884348938605,0.999999379972795,1495944.0,0.14,-0.05,0.99,-0.06,-0.06,-0.06,12.9,179.59,86.27,1495965.0,0.15,-0.05,0.99,-0.06,-0.12,-0.12,13.65,178.84,86.27,16063,1603222192.7029514,body_FLU,-0.01349965044116983,-0.01989935999606693,0.6861582793426625,0.727054737003501,-0.001988896168768406,0.0007200958207249641,0.0006713959155604243,0.09302798492554576,-0.4248851425945759,9.797491384148598,1392,1603222192.470018,rc,0.0,0.0,0.0,0.0,0.0,-10000.0
,,192952.828009,7.6622536182403564,11436,1603717324.518954,/world,vicon/test_obj/test_obj,-0.30091680625030304,0.008071086464054297,1.3815096338779762,0.000821249420011805,-0.00038852429260357284,0.0006651695906625114,0.999999366073639,1496079.0,0.15,-0.05,1.0,-0.06,-0.06,0.0,13.8,181.55,87.17,1496087.0,0.14,-0.05,1.0,-0.12,-0.24,0.0,12.75,181.85,86.42,16071,1603222192.822228,body_FLU,-0.013486221812511972,-0.019889904092041066,0.6861721544690222,0.727042150062686,-0.0008516214438714087,0.005565623752772808,0.0007208036258816719,0.05233268166985363,-0.5053054906390607,9.765718723654746,1392,1603222192.470018,rc,0.0,0.0,0.0,0.0,0.0,-10000.0
,,192952.903793,7.738038539886475,11443,1603717324.58886,/world,vicon/test_obj/test_obj,-0.3009110982164568,0.008065215065294557,1.3815115952176316,0.0008120298854611868,-0.0003098796219919378,0.0007107253589362488,0.999999369725576,1496144.0,0.15,-0.05,0.99,0.0,0.06,0.06,12.6,179.59,85.67,1496164.0,0.15,-0.05,0.99,0.0,-0.12,-0.18,12.75,179.44,86.12,16075,1603222192.883228,body_FLU,-0.013494594816437003,-0.019867483684898123,0.6861615195232679,0.7270526446745729,0.0029200096614658833,0.004519614856690168,0.0013893735595047474,0.18378252216428517,-0.4030826965793967,9.561992924630642,1392,1603222192.470018,rc,0.0,0.0,0.0,0.0,0.0,-10000.0
,,192953.004761,7.839004278182983,11453,1603717324.68877,/world,vicon/test_obj/test_obj,-0.30094529496925526,0.008108080161817535,1.3815996791004685,0.000611155872467799,0.0005272099253978125,0.0005051292091206886,0.9999995466912354,1496244.0,0.15,-0.05,1.0,-0.06,-0.06,0.0,13.65,180.05,86.27,1496264.0,0.16,-0.05,1.01,-0.12,-0.12,-0.06,13.35,181.25,84.77,16080,1603222193.246472,body_FLU,-0.013485590094659121,-0.019842194577079617,0.6861871518046779,0.7270293108756676,0.0037491589318960905,0.008449990302324295,0.004066077060997486,0.00545461864862591,-0.4670457099303603,9.964287920594215,1393,1603222192.9497838,rc,0.0,0.0,0.0,0.0,0.0,-10000.0
,,192953.105652,7.93989634513855,11463,1603717324.7889895,/world,vicon/test_obj/test_obj,-0.30094268006022856,0.008041234391174476,1.3815586105087558,0.0005028208038711375,0.00016415987666339572,0.0008888988399966223,0.99999946504067,1496358.0,0.15,-0.05,1.0,0.0,0.06,0.06,12.9,180.05,87.02,1496366.0,0.14,-0.05,0.99,-0.12,-0.06,0.0,14.1,180.8,87.47,16086,1603222193.1023057,body_FLU,-0.013474676698509255,-0.019827220286590688,0.6861945612840638,0.727022928447067,-0.000537667830940336,0.008396226912736893,-3.605862730182707e-05,0.11639585538581014,-0.35530613858252763,9.847225400447845,1393,1603222192.9497838,rc,0.0,0.0,0.0,0.0,0.0,-10000.0
,,192953.204027,8.038275241851807,11473,1603717324.8890104,/world,vicon/test_obj/test_obj,-0.3009106361664857,0.008072948932607996,1.381511012651763,0.0008758816672705057,-0.0003757542824665199,0.0006784253385466132,0.999999315689308,1496445.0,0.15,-0.05,0.99,0.0,-0.06,0.0,13.35,181.55,86.87,1496464.0,0.15,-0.05,1.0,-0.06,0.0,-0.12,12.0,180.5,85.07,16090,1603222193.1938381,body_FLU,-0.013486265913949478,-0.019787402780787552,0.6861967490849705,0.7270217334221221,0.0009818298276513815,0.007149483542889357,0.0004757285350933671,0.12534234933089466,-0.5873359259068966,9.770971716284752,1393,1603222192.9497838,rc,0.0,0.0,0.0,0.0,0.0,-10000.0
,,192953.30387,8.13811182975769,11483,1603717324.9887881,/world,vicon/test_obj/test_obj,-0.3009078903850861,0.008067896990548206,1.3815082275159405,0.0008361356764702982,-0.0004171505868240787,0.000693511874201048,0.9999993229516703,1496545.0,0.14,-0.04,0.99,-0.06,-0.06,-0.12,12.75,178.09,86.87,1496565.0,0.14,-0.04,1.01,-0.12,-0.06,-0.06,13.35,180.2,85.07,16094,1603222193.2936711,body_FLU,-0.013492455383742255,-0.01969413178886362,0.6862110697623942,0.7270106344176481,0.0010138960788026452,0.008460787124931812,0.0052083078771829605,0.18859222782030702,-0.5501978536583483,9.801640266895294,1394,1603222193.2077332,rc,0.0,0.0,0.0,0.0,0.0,-10000.0
,,192953.394821,8.229064464569092,11492,1603717325.7880259,/world,vicon/test_obj/test_obj,-0.30090818202805486,0.008069910989589816,1.3815098771807381,0.0008430893826522008,-0.0003868435830265283,0.0007354513762764269,0.9999992993315586,1496648.0,0.14,-0.05,0.99,-0.06,-0.06,0.06,12.15,179.59,85.67,1496656.0,0.14,-0.04,1.01,0.12,0.0,0.0,12.0,180.2,86.87,16099,1603222193.3824155,body_FLU,-0.01351918062731642,-0.01968710985490877,0.6861937442826785,0.7270266809189637,-0.0014268592931330204,0.001588904531672597,-0.0012623819056898355,0.11118244129791856,-0.5132562501691282,9.731182867527009,1395,1603222193.3075504,rc,0.0,0.0,0.0,0.0,0.0,-10000.0
,,192953.503216,8.337459564208984,11503,1603717325.1889434,/world,vicon/test_obj/test_obj,-0.30091394224493745,0.008063949242457905,1.3815043126882545,0.0008397167599756844,-0.0003322159982502002,0.0007187522956710604,0.9999993339514937,1496745.0,0.14,-0.05,1.0,0.0,0.0,0.12,12.6,180.65,85.67,1496764.0,0.14,-0.05,0.99,0.0,0.0,0.0,10.5,180.05,85.97,16104,1603222193.493346,body_FLU,-0.013541741925405004,-0.01964526691658127,0.6861844832053785,0.7270361337110898,0.0016258888645097613,0.0037578267510980368,-0.003153087105602026,0.16450605611130595,-0.5036438855901361,9.874909933447839,1395,1603222193.3075504,rc,0.0,0.0,0.0,0.0,0.0,-10000.0
,,192953.604323,8.438567399978638,11513,1603717325.2889516,/world,vicon/test_obj/test_obj,-0.3009304848595729,0.008092133501077854,1.3815933930593158,0.0005408971854842294,0.000486718313256988,0.000577296738800327,0.9999995686319038,1496845.0,0.15,-0.05,0.99,0.0,0.0,0.0,14.1,181.25,85.07,1496864.0,0.15,-0.04,0.98,0.06,0.12,0.06,13.8,178.69,85.52,16111,1603222193.601503,body_FLU,-0.013541737695754296,-0.019644625090371574,0.6861881569484356,0.7270326837969165,0.004610965959727764,0.00689855869859457,0.003966237884014845,0.07159395890962332,-0.4776779156886041,9.692924583792687,1396,1603222193.5876586,rc,0.0,0.0,0.0,0.0,0.0,-10000.0
,,192953.704482,8.538725137710571,11523,1603717325.388778,/world,vicon/test_obj/test_obj,-0.3009242023018389,0.008064096070517888,1.3815093965771668,0.0008328881970702244,-0.0003370256399693559,0.0007258763113632134,0.9999993329070523,1496944.0,0.14,-0.06,1.0,0.0,0.0,-0.06,12.6,178.84,129.33,1496965.0,0.14,-0.04,0.99,-0.06,-0.06,0.06,13.2,179.29,87.32,16117,1603222193.7013533,body_FLU,-0.013551996320417144,-0.019631325588452153,0.6861718861333113,0.7270482082583146,0.0015653460286557674,0.007009472697973251,-0.001063031842932105,0.06463658792618662,-0.4436623129248619,9.902386496543885,1398,1603222193.6486716,rc,0.0,0.0,0.0,0.0,0.0,-10000.0
,,192953.803751,8.637999773025513,11533,1603717325.4889164,/world,vicon/test_obj/test_obj,-0.30090922613085025,0.00806323084879207,1.381505793445296,0.0008544846956330274,-0.00033596008112794556,0.0006888987788067195,0.9999993412023837,1497045.0,0.15,-0.04,1.0,-0.06,-0.18,0.0,12.75,180.5,85.82,1497064.0,0.14,-0.04,1.0,-0.06,-0.06,0.06,13.05,180.5,85.82,16124,1603222193.7845507,body_FLU,-0.013545667461890086,-0.019653796891146904,0.6861702452831436,0.7270492676901916,0.0016789966030046344,0.0075732748955488205,-0.001278449664823711,0.11495756422821432,-0.3324955350905657,9.929989243626595,1398,1603222193.6486716,rc,0.0,0.0,0.0,0.0,0.0,-10000.0
,,192953.935677,8.769927740097046,11546,1603717325.618833,/world,vicon/test_obj/test_obj,-0.30094889143680553,0.008087519043841801,1.3816077328253715,0.0005358232255218825,0.0005348292026812367,0.0006134366784105565,0.9999995252732056,1497145.0,0.14,-0.05,0.99,-0.06,-0.06,-0.06,14.1,180.2,85.52,1497196.0,0.14,-0.04,0.99,0.06,0.0,-0.06,14.7,180.05,87.02,16136,1603222193.9343655,body_FLU,-0.013536394144082933,-0.019704990245980724,0.6861831173052357,0.7270359062097628,-0.004728520754724741,0.004941466264426708,0.0039292071014642715,0.06593466552626341,-0.597513927731663,9.781445571362973,1398,1603222193.6486716,rc,0.0,0.0,0.0,0.0,0.0,-10000.0
,,192954.024687,8.85893201828003,11555,1603717325.7087104,/world,vicon/test_obj/test_obj,-0.300920365473371,0.008062384413163983,1.3815092423766302,0.0007468842863784165,-0.000347587686204269,0.0007199975378432476,0.9999994014749253,1497265.0,0.15,-0.04,1.0,-0.06,0.0,0.06,12.6,180.35,86.72,1497285.0,0.15,-0.05,0.99,-0.06,0.0,-0.06,13.05,179.74,86.87,16141,1603222194.2033756,body_FLU,-0.013506427472395315,-0.01972719679178726,0.6861600492100356,0.7270576325104857,0.0023814162705093622,0.0009763455600477755,-0.0015650017885491252,0.08647721591591835,-0.5227526540011168,9.836835083842278,1399,1603222193.9482386,rc,0.0,0.0,0.0,0.0,0.0,-10000.0
