name,date,time,time_since_start,vicon_sequence,vicon_time_stamp,vicon_frame_id,vicon_child_frame_id,vicon_translation_x,vicon_translation_y,vicon_translation_z,vicon_rotation_x,vicon_rotation_y,vicon_rotation_z,vicon_rotation_w,int_imu_time_stamp,int_imu_acc_x,int_imu_acc_y,int_imu_acc_z,int_imu_gyro_x,int_imu_gyro_y,int_imu_gyro_z,int_imu_mag_x,int_imu_mag_y,int_imu_mag_z,ext_imu_time_stamp,ext_imu_acc_x,ext_imu_acc_y,ext_imu_acc_z,ext_imu_gyro_x,ext_imu_gyro_y,ext_imu_gyro_z,ext_imu_mag_x,ext_imu_mag_y,ext_imu_mag_z,dji_imu_sequence,dji_imu_time_stamp,dji_imu_frame_id,dji_imu_orientation_x,dji_imu_orientation_y,dji_imu_orientation_z,dji_imu_orientation_w,dji_imu_ang_vel_x,dji_imu_ang_vel_y,dji_imu_ang_vel_z,dji_imu_lin_acc_x,dji_imu_lin_acc_y,dji_imu_lin_acc_z,rc_sequence,rc_time_stamp,rc_frame_id,rc_roll,rc_pitch,rc_yaw,rc_throttle,rc_mode,rc_landing_gear
/root/Desktop/devel/VibrationTest/26102020/T000_3.csv,20201020,193625.166762,0.00029015541076660156,50670,1603717716.8517718,/world,vicon/test_obj/test_obj,-0.0452842671758886,0.28018956965315106,1.3815259706290157,0.0018821959683467027,-0.004037367653585414,-0.0824785720385297,0.9965828827324156,1888507.0,0.14,-0.04,0.99,-0.12,-0.12,0.0,11.85,177.49,85.97,1888559.0,0.14,-0.05,1.01,-0.06,-0.18,0.06,14.1,177.04,87.77,41569,1603222585.152099,body_FLU,-0.01363477655780794,-0.016984783349244664,0.6363985284507382,0.7710528665328551,0.00291405594907701,0.0035555497743189335,-0.001816801493987441,0.1159202374164015,-0.5146249228902161,9.857865748286248,3865,1603222584.9912493,rc,0.0,0.0,0.0,0.0,0.0,-10000.0
,,193625.215642,0.04914665222167969,50675,1603717716.901436,/world,vicon/test_obj/test_obj,-0.045281281124879995,0.28019006717453254,1.3815242887794676,0.0018946913734911796,-0.003978539708135313,-0.08247901461939516,0.9965830590140511,1888588.0,0.14,-0.06,1.0,-0.06,-0.06,-0.12,13.35,176.29,84.17,1888608.0,0.13,-0.04,0.99,-0.06,-0.18,-0.18,12.15,177.49,85.67,41571,1603222585.2020378,body_FLU,-0.013640549721250138,-0.017004376655038542,0.6364023763258587,0.7710491566590782,0.0005622031167149544,0.005715144798159599,0.0024036336690187454,0.0505900300629437,-0.45800069864094256,9.852175785183906,3866,1603222585.1715508,rc,0.0,0.0,0.0,0.0,0.0,-10000.0
,,193625.314588,0.14813971519470215,50685,1603717717.1867764,/world,vicon/test_obj/test_obj,-0.045284802381362725,0.28018526788031295,1.381516611786458,0.0019330515823636494,-0.004020428977018721,-0.08248536199584011,0.9965822918950727,1888687.0,0.14,-0.05,0.99,-0.06,-0.12,-0.06,14.1,177.64,85.07,1888708.0,0.14,-0.04,0.99,-0.12,-0.06,-0.06,12.3,177.34,84.77,41577,1603222585.3018785,body_FLU,-0.013658485266848895,-0.01703983202103624,0.6363753219615546,0.7710703855701099,-0.0019362985622137785,0.0024463185109198093,-0.0019887853413820267,0.1943713521771133,-0.3877625877633691,9.791249950289727,3866,1603222585.1715508,rc,0.0,0.0,0.0,0.0,0.0,-10000.0
,,193625.448379,0.2818787097930908,50698,1603717717.131728,/world,vicon/test_obj/test_obj,-0.04532817375635312,0.2801644691705746,1.3815801290466934,0.001781474894503692,-0.0040491125651294846,-0.08252046548803052,0.99657955217347,1888788.0,0.13,-0.04,1.0,-0.18,-0.06,0.0,12.6,179.29,84.92,1888841.0,0.14,-0.05,1.0,-0.06,-0.06,0.0,15.15,178.39,86.42,41584,1603222585.443308,body_FLU,-0.013659550227133702,-0.01703915103354022,0.6363736692852886,0.7710717457280009,0.0025859784800559282,0.003241641214117408,0.0006678816862404346,0.10827946111746133,-0.3627125836238265,9.849516574501992,3867,1603222585.3490472,rc,0.0,0.0,0.0,0.0,0.0,-10000.0
,,193625.514529,0.34807562828063965,50705,1603717717.201798,/world,vicon/test_obj/test_obj,-0.04528426785479811,0.28018621932335797,1.3815181865698063,0.0018636301634418712,-0.004086095611471385,-0.0824763912653902,0.9965828995066622,1888888.0,0.15,-0.05,1.0,-0.12,-0.12,0.0,12.9,177.19,83.27,1888908.0,0.15,-0.05,0.99,-0.12,-0.12,0.0,11.25,177.34,84.47,41587,1603222585.5015595,body_FLU,-0.0136913749394047,-0.017056967575090693,0.6363659633066397,0.7710771471482107,-0.002185491379350424,0.001456104451790452,-0.000578304985538125,0.19203333377838136,-0.4565338097959757,9.852862786889077,3869,1603222585.4904728,rc,0.0,0.0,0.0,0.0,0.0,-10000.0
,,193625.612761,0.4463636875152588,50714,1603717717.2914894,/world,vicon/test_obj/test_obj,-0.04528634914586903,0.2801868931512411,1.381518816709126,0.0019315668669399374,-0.004088334777021459,-0.0824851682341122,0.9965820345508842,1888988.0,0.14,-0.05,0.98,-0.18,-0.12,0.12,12.0,178.09,85.07,1889008.0,0.14,-0.05,0.99,0.0,0.0,0.06,11.25,176.29,85.07,41593,1603222585.6041906,body_FLU,-0.013666588595544498,-0.01701940430135927,0.6363585739445349,0.7710845152126095,0.002376358490437269,0.001602842123247683,-0.0021038460545241833,0.1127772849407047,-0.39981104081869123,9.82923717212677,3871,1603222585.5903103,rc,0.0,0.0,0.0,0.0,0.0,-10000.0
,,193625.734474,0.5680243968963623,50727,1603717717.421775,/world,vicon/test_obj/test_obj,-0.04527630675894303,0.2801847940424769,1.3815065340545145,0.0018900885863603564,-0.004031127798144604,-0.08247721156942048,0.9965830056475696,1889120.0,0.14,-0.05,0.99,0.0,0.0,-0.06,13.95,176.74,85.97,1889128.0,0.14,-0.04,1.0,-0.12,0.0,0.0,13.35,177.04,85.82,41600,1603222585.7234244,body_FLU,-0.013686314926934496,-0.017032166353817206,0.6363656379390702,0.7710780537295928,0.0041170017793774605,0.003537406213581562,0.0008578862762078643,0.1190434736441821,-0.47773677233979106,9.773028632104397,3873,1603222585.69014,rc,0.0,0.0,0.0,0.0,0.0,-10000.0
,,193625.815256,0.6487569808959961,50735,1603717717.5018356,/world,vicon/test_obj/test_obj,-0.04536249264738413,0.2801882670349126,1.3817051136012533,0.0015178129130055736,-0.0027338660124083783,-0.08261872770491065,0.996576323245244,1889188.0,0.15,-0.06,1.0,-0.3,-0.18,0.06,12.15,177.79,84.92,1889208.0,0.14,-0.04,1.0,0.0,0.06,-0.06,12.0,178.09,84.77,41607,1603222585.8121865,body_FLU,-0.013701159316366519,-0.01703253465231815,0.6363643799651502,0.7710788201657954,-0.001026816782541573,0.003845970379188657,0.0023374580778181553,0.13323337593208998,-0.3478338996917009,9.845701845645905,3873,1603222585.69014,rc,0.0,0.0,0.0,0.0,0.0,-10000.0
,,193625.915076,0.7485792636871338,50745,1603717717.6017637,/world,vicon/test_obj/test_obj,-0.04528848023122249,0.2801838186710155,1.3815110447629408,0.0019209316362713412,-0.004012417364226923,-0.0824815435683247,0.9965826636557203,1889288.0,0.15,-0.05,1.0,0.0,0.0,0.06,12.3,177.34,84.47,1889308.0,0.14,-0.05,1.0,0.0,0.06,-0.18,11.85,177.19,85.67,41615,1603222585.9120128,body_FLU,-0.0137115644221452,-0.01702675839713152,0.6363658306477146,0.7710775655429403,0.00014910707250237465,0.0027401314582675695,0.004729417618364096,0.10993821826390922,-0.4525658783912659,9.814498181462287,3873,1603222585.69014,rc,0.0,0.0,0.0,0.0,0.0,-10000.0
,,193626.017375,0.8508832454681396,50755,1603717717.7017493,/world,vicon/test_obj/test_obj,-0.04527911773772637,0.28018110753531056,1.3815199543626482,0.0018837275467275636,-0.004013305095314999,-0.08246568774760824,0.9965840432683315,1889402.0,0.14,-0.05,0.99,-0.06,-0.12,-0.06,13.8,176.29,86.12,1889411.0,0.15,-0.05,0.99,-0.12,-0.06,0.0,12.15,177.19,84.62,41621,1603222586.3846433,body_FLU,-0.013740995485606146,-0.017017876725858482,0.6363733344854382,0.7710710447622142,0.005334739573299885,0.007512322161346674,0.0020294496789574623,0.06028786822780967,-0.33840464063733816,9.88643941104412,3874,1603222585.9896748,rc,0.0,0.0,0.0,0.0,0.0,-10000.0
,,193626.11416,0.9476611614227295,50765,1603717717.8017926,/world,vicon/test_obj/test_obj,-0.04532129526813558,0.2802130625637548,1.3816237739490786,0.001669075998248615,-0.002879027659674366,-0.08254332536681593,0.996581920778435,1889488.0,0.14,-0.06,1.01,-0.18,-0.06,-0.06,12.15,177.19,84.92,1889508.0,0.14,-0.04,0.99,0.0,0.0,0.06,12.9,176.74,85.22,41629,1603222586.1034148,body_FLU,-0.013772263481419458,-0.01701991969585016,0.6363507175086404,0.7710891073140534,0.00015508924843743443,0.006282707676291466,-0.0007722741574980319,0.17012354374676944,-0.425684015750885,9.790698479533196,3874,1603222585.9896748,rc,0.0,0.0,0.0,0.0,0.0,-10000.0
,,193626.215065,1.0485665798187256,50775,1603717717.9018302,/world,vicon/test_obj/test_obj,-0.04528155432013699,0.28018425733625346,1.3815155689076901,0.0018871236978043693,-0.004105549972049078,-0.08246390674449884,0.9965838084717265,1889588.0,0.14,-0.04,0.99,-0.06,-0.06,0.0,12.0,177.64,85.82,1889608.0,0.15,-0.05,0.98,0.0,0.06,0.06,12.3,177.04,85.82,41637,1603222586.2115343,body_FLU,-0.013761770211467794,-0.017045753576779905,0.6363697838466895,0.77107298887496,-0.000665706058498472,0.003472851123660803,-0.002721030032262206,0.18582483335584402,-0.3965976940356195,9.686363600671292,3874,1603222585.9896748,rc,0.0,0.0,0.0,0.0,0.0,-10000.0
,,193626.294972,1.1284799575805664,50783,1603717717.9815757,/world,vicon/test_obj/test_obj,-0.04528046378931189,0.28018391952884103,1.3815238532151963,0.0018678217257698435,-0.00402006887971083,-0.0824596438214671,0.9965845460516835,1889680.0,0.14,-0.04,1.0,0.0,-0.06,0.06,13.2,178.84,86.27,1889689.0,0.14,-0.05,0.99,0.06,0.0,0.0,12.3,178.09,85.52,41643,1603222586.2919862,body_FLU,-0.013748629009989872,-0.01710633423026694,0.6363832961191394,0.7710607297418848,0.0023578526452183723,0.0003274883492849767,0.0019647604785859585,0.06672747776191681,-0.48881160786375405,9.86525569009781,3874,1603222585.9896748,rc,0.0,0.0,0.0,0.0,0.0,-10000.0
,,193626.4152,1.248694658279419,50795,1603717718.1017694,/world,vicon/test_obj/test_obj,-0.04528394355385095,0.2801878402757024,1.3815138999950618,0.001938964950651581,-0.004123289986475934,-0.08249227840588227,0.9965812876519476,1889788.0,0.15,-0.05,1.0,-0.18,-0.06,-0.06,13.95,178.24,86.27,1889808.0,0.14,-0.05,0.98,-0.06,-0.06,0.0,11.7,177.34,85.07,41651,1603222586.400139,body_FLU,-0.013740114888540276,-0.017099765128565446,0.6364125055224602,0.7710369187594212,0.0038720739539712667,0.00014604782336391509,0.003698020940646529,0.11331699897162617,-0.41623668346926573,9.76857422053814,3876,1603222586.4112194,rc,0.0,0.0,0.0,0.0,0.0,-10000.0
,,193626.514247,1.3477494716644287,50805,1603717718.2017875,/world,vicon/test_obj/test_obj,-0.045290919575057396,0.28018679277859637,1.3815151013357732,0.0018978656847127894,-0.004021474044542474,-0.08247364337876525,0.9965833251666336,1889888.0,0.15,-0.04,1.01,-0.06,-0.12,-0.06,12.75,177.04,86.12,1889908.0,0.16,-0.05,0.99,0.0,0.0,0.12,11.25,176.59,84.77,41656,1603222586.5027492,body_FLU,-0.013735082474783286,-0.01705353574384475,0.6364054631350349,0.7710438450048909,-0.0034205596894025803,0.003127314383164048,-0.000742618809454143,0.08973458652477712,-0.36903211573138833,9.878360130786897,3876,1603222586.4112194,rc,0.0,0.0,0.0,0.0,0.0,-10000.0
,,193626.594153,1.427656650543213,50813,1603717718.2817276,/world,vicon/test_obj/test_obj,-0.045323718581156754,0.28021014851878295,1.3816310763377257,0.0017071703773382234,-0.0028657910082224756,-0.08256005508211076,0.9965805085972927,1889979.0,0.13,-0.05,0.99,-0.12,-0.18,0.0,12.0,177.04,86.12,1889988.0,0.14,-0.05,0.99,0.06,0.0,0.0,15.0,178.24,85.22,41661,1603222586.585976,body_FLU,-0.01371395593097693,-0.01703426350503708,0.6364046691768912,0.7710453023846368,-0.001264324993826449,0.007961051538586617,0.001003903802484274,0.1306826685089618,-0.4332636351697147,9.819707944393159,3876,1603222586.4112194,rc,0.0,0.0,0.0,0.0,0.0,-10000.0
,,193626.71456,1.5480988025665283,50825,1603717718.4017568,/world,vicon/test_obj/test_obj,-0.04528462909216807,0.2801852891376414,1.3815284259891538,0.0018801533853488577,-0.004078971574423779,-0.08247223850499794,0.9965832413251375,1890088.0,0.15,-0.04,1.01,0.0,0.0,0.0,12.3,178.09,84.77,1890108.0,0.15,-0.05,1.0,-0.06,-0.18,0.12,11.85,177.79,85.22,41669,1603222586.7024252,body_FLU,-0.013672297379393596,-0.017025573131582955,0.6363973914504841,0.7710522409661552,-0.0005652274703606963,0.0001349208177998662,-0.0038479191716760397,0.04861767503991723,-0.47791556949913505,9.867136766195298,3876,1603222586.4112194,rc,0.0,0.0,0.0,0.0,0.0,-10000.0
,,193626.847389,1.6810383796691895,50838,1603717718.5317976,/world,vicon/test_obj/test_obj,-0.04529230232577442,0.2801870808253235,1.3815291797352858,0.0018943099584275086,-0.0039968167065817534,-0.08246306041777814,0.9965843068765077,1890188.0,0.15,-0.05,1.0,0.12,0.0,-0.12,10.8,176.74,85.97,1890240.0,0.15,-0.05,1.0,0.0,-0.12,0.0,13.35,177.04,87.47,41675,1603222586.8410835,body_FLU,-0.013647021462286902,-0.01702605128408057,0.6364123668426653,0.7710403178255963,0.002558015752583742,0.0033047106117010117,-0.00036613421980291605,0.007159663338214159,-0.3112781139649451,9.79919662052393,3877,1603222586.791171,rc,0.0,0.0,0.0,0.0,0.0,-10000.0
,,193626.914463,1.7480123043060303,50845,1603717718.60175,/world,vicon/test_obj/test_obj,-0.04536534985761539,0.28018762306796946,1.381708767113297,0.001454513596841404,-0.002779283963179598,-0.08256840578961593,0.9965804625499187,1890288.0,0.14,-0.05,1.0,0.06,0.0,0.06,13.05,177.64,85.07,1890308.0,0.15,-0.06,1.0,-0.12,-0.12,0.0,12.9,177.79,84.92,41678,1603222586.902127,body_FLU,-0.013644533314788647,-0.017017868698517343,0.6364359988121286,0.7710210362056212,-0.0006344444118440151,0.0022057797759771347,-0.00035232200752943754,0.12907847790420054,-0.4417720724232495,9.784993327617645,3877,1603222586.791171,rc,0.0,0.0,0.0,0.0,0.0,-10000.0
,,193627.012749,1.8462507724761963,50854,1603717718.6918404,/world,vicon/test_obj/test_obj,-0.04535961472309971,0.2801932134517386,1.3817084687908163,0.0014935703500252085,-0.0027487054416741206,-0.08258987659967998,0.996578710463581,1890388.0,0.15,-0.05,0.99,-0.12,-0.18,0.18,12.0,176.59,86.12,1890408.0,0.15,-0.05,1.0,0.0,0.0,0.06,12.9,176.44,85.67,41682,1603222587.1930087,body_FLU,-0.013631180715144051,-0.017046184692397222,0.6364398004531036,0.7710175088147853,-0.002338388469070196,0.00574877392500639,-0.0008140626014210284,0.07456889426708221,-0.439700478952378,9.667423734784126,3878,1603222586.949236,rc,0.0,0.0,0.0,0.0,0.0,-10000.0
,,193627.138127,1.9716269969940186,50867,1603717718.8216996,/world,vicon/test_obj/test_obj,-0.04528361536831285,0.2801847680609172,1.3815253877370057,0.0018992125014952004,-0.003967387715366389,-0.08246196310690639,0.9965845059337143,1890522.0,0.15,-0.05,0.99,-0.06,-0.12,-0.06,15.75,177.79,87.02,1890531.0,0.13,-0.06,1.0,-0.18,-0.12,0.06,12.0,178.69,85.52,41689,1603222587.1322937,body_FLU,-0.013581815868933093,-0.017047974379093302,0.6364359834542082,0.7710214911479103,0.003408505115658045,0.008218642324209213,0.001287094666622579,0.15090074057411404,-0.40933676344156267,9.812791192531586,3878,1603222586.949236,rc,0.0,0.0,0.0,0.0,0.0,-10000.0
,,193627.214439,2.0479989051818848,50875,1603717718.9017506,/world,vicon/test_obj/test_obj,-0.045286334786887865,0.2801834798590234,1.3815137087077154,0.0019442592764322836,-0.004103711963840796,-0.08246913429586399,0.9965832736367165,1890588.0,0.14,-0.05,1.0,-0.12,-0.06,-0.06,13.2,177.19,84.32,1890609.0,0.14,-0.05,0.99,-0.06,-0.06,0.06,13.2,177.79,84.92,41694,1603222587.2016068,body_FLU,-0.0135955414773629,-0.01705294704298864,0.6364068466097857,0.7710451892316527,0.0005321830976754427,0.008900130167603493,-0.0015194599982351065,0.09363034368306399,-0.5538141421303153,9.835180671572685,3878,1603222586.949236,rc,0.0,0.0,0.0,0.0,0.0,-10000.0
,,193627.312811,2.1463446617126465,50884,1603717718.9916258,/world,vicon/test_obj/test_obj,-0.04528956246628829,0.2801798432955144,1.381512280452501,0.0019146704412300315,-0.003982843455190701,-0.08248552910960195,0.9965824644667505,1890689.0,0.14,-0.05,0.98,-0.06,-0.06,-0.12,10.95,178.09,86.42,1890708.0,0.14,-0.05,1.0,0.06,0.0,-0.12,11.85,177.49,86.27,41701,1603222587.2959263,body_FLU,-0.013560447875594529,-0.01703690613818902,0.6363911817356037,0.7710590910506234,0.004472456872463226,0.00582285039126873,0.0036132901441305876,0.08004199689812959,-0.31487348130717874,9.720859148025513,3878,1603222586.949236,rc,0.0,0.0,0.0,0.0,0.0,-10000.0
,,193627.411924,2.245424270629883,50894,1603717719.9176881,/world,vicon/test_obj/test_obj,-0.045285349551012925,0.2801889092210382,1.3815197147795772,0.0019375472800542922,-0.004031071105959632,-0.08248142254253468,0.9965825662290286,1890798.0,0.14,-0.05,1.01,-0.12,-0.12,-0.06,13.35,178.09,86.87,1890806.0,0.14,-0.04,0.99,-0.18,-0.06,0.06,13.05,176.29,86.42,41707,1603222587.4041026,body_FLU,-0.013611623933027256,-0.01701454777930285,0.6363751247395437,0.7710719353409914,0.0008890118915587664,0.007036555092781782,-0.0021153113339096308,0.17639522744156422,-0.45735024501755833,9.856917031645775,3881,1603222587.390205,rc,0.0,0.0,0.0,0.0,0.0,-10000.0
,,193627.515096,2.3485989570617676,50905,1603717719.2017722,/world,vicon/test_obj/test_obj,-0.04528876488071758,0.2801857034284539,1.3815181710477806,0.0018860736837082554,-0.004019040004360906,-0.08248449325665444,0.9965824594160264,1890889.0,0.14,-0.05,1.0,-0.06,-0.12,0.0,10.95,177.64,85.82,1890909.0,0.14,-0.05,1.0,0.0,-0.12,-0.12,12.0,178.39,85.52,41715,1603222587.5122607,body_FLU,-0.013632777822809609,-0.016985263986412494,0.6363656297135514,0.7710800435074305,-0.0005435534403659403,0.005750143434852362,-0.0019243952119722962,0.06889825491327793,-0.432187128033489,9.76625851070881,3881,1603222587.390205,rc,0.0,0.0,0.0,0.0,0.0,-10000.0
,,193627.612758,2.446357250213623,50914,1603717719.2917194,/world,vicon/test_obj/test_obj,-0.045291594095181915,0.2801864003029196,1.3815076334346978,0.001921972000202532,-0.0041520524792159315,-0.08249403503040817,0.9965810557442089,1890988.0,0.13,-0.04,0.99,-0.12,-0.12,0.0,13.35,177.04,84.47,1891008.0,0.15,-0.05,0.99,-0.12,0.0,0.06,10.8,176.74,83.87,41721,1603222587.6010063,body_FLU,-0.013639235778661564,-0.016966580627825186,0.6363785670676255,0.7710696633677979,0.0015072940150275826,0.0038633099757134914,0.0023901755921542645,0.12457383554521949,-0.35937067960202695,9.771418033719064,3882,1603222587.5899303,rc,0.0,0.0,0.0,0.0,0.0,-10000.0
,,193627.698181,2.531691551208496,50923,1603717719.3817546,/world,vicon/test_obj/test_obj,-0.04529766127991338,0.2801903463103302,1.3815123502085105,0.0019160586790004843,-0.0040847543177018365,-0.08248368329865384,0.9965822020740638,1891083.0,0.15,-0.05,1.0,-0.06,-0.12,-0.12,14.85,178.09,85.07,1891092.0,0.14,-0.05,1.0,-0.06,-0.12,0.0,14.1,178.09,84.47,41727,1603222587.6925447,body_FLU,-0.0136513732600533,-0.01694893215528632,0.6363594347929737,0.7710856265401899,0.002948306966573,0.0010744777973741293,-0.0029310977552086115,0.2819926216341555,-0.32134285689890385,9.853907309889793,3883,1603222587.6315007,rc,0.0,0.0,0.0,0.0,0.0,-10000.0
,,193627.813113,2.6466119289398193,50934,1603717719.491608,/world,vicon/test_obj/test_obj,-0.04533512357027119,0.28020844554974894,1.3816317191856333,0.0017013080881636705,-0.002837962984357978,-0.0825509099568324,0.9965813558271033,1891188.0,0.14,-0.05,1.0,-0.06,-0.12,0.0,13.2,179.29,84.62,1891208.0,0.14,-0.05,1.0,-0.06,-0.12,-0.06,13.05,178.09,85.07,41734,1603222587.7924013,body_FLU,-0.013613231155124453,-0.016909252989023873,0.6363523140041999,0.7710930485760914,-0.0009932678658515215,0.0015419884584844112,0.0018355620559304953,0.04849490488506854,-0.4906465698480606,10.01498817908764,3886,1603222587.8062482,rc,0.0,0.0,0.0,0.0,0.0,-10000.0
,,193627.914078,2.747619867324829,50945,1603717719.601802,/world,vicon/test_obj/test_obj,-0.04528597570976904,0.2801851256883157,1.3815262319196073,0.0018959930124010115,-0.004012173413870222,-0.08247657926380393,0.9965831232506075,1891288.0,0.14,-0.05,0.98,0.0,0.0,0.0,12.0,175.54,86.42,1891308.0,0.13,-0.05,0.98,0.0,0.0,-0.12,13.65,178.84,84.62,41742,1603222587.911619,body_FLU,-0.01355850059199309,-0.016856301223723176,0.6363607511258688,0.7710882093491459,0.00010605914576444775,0.00614909827709198,-0.0004897687467746437,0.17127710855193437,-0.3756427910998464,9.713313812971116,3887,1603222587.8284268,rc,0.0,0.0,0.0,0.0,0.0,-10000.0
,,193628.015228,2.8487303256988525,50955,1603717719.7019083,/world,vicon/test_obj/test_obj,-0.045289576277256625,0.2801855302423161,1.3815091598829907,0.0019335397208143916,-0.0040865232565965555,-0.08248037718272548,0.9965824346894825,1891388.0,0.14,-0.05,1.0,-0.06,-0.18,-0.12,12.0,177.34,84.17,1891408.0,0.13,-0.05,1.0,-0.06,-0.12,-0.06,12.0,178.39,85.07,41750,1603222588.1147711,body_FLU,-0.013567082490879723,-0.016835564980042104,0.6363456650766394,0.7711009613290973,0.0003548362583387643,0.00929952971637249,-0.00026896444614976645,0.09478537807893009,-0.45835690551996233,9.913160038590432,3887,1603222587.8284268,rc,0.0,0.0,0.0,0.0,0.0,-10000.0
,,193628.115271,2.9487721920013428,50965,1603717719.8018048,/world,vicon/test_obj/test_obj,-0.045294847938578894,0.2801886110176958,1.381518945754165,0.0018855568469978295,-0.003944634512913138,-0.08247329966105577,0.9965836840812486,1891489.0,0.14,-0.05,1.0,0.12,0.0,-0.12,12.75,178.09,84.47,1891509.0,0.14,-0.04,0.98,-0.12,-0.12,-0.06,11.85,177.79,84.62,41759,1603222588.1113276,body_FLU,-0.013529458564838,-0.01681622299737312,0.6363604285087416,0.7710898607965323,0.004167507402598858,0.006478450261056423,-0.0026040668599307537,0.17418653302453457,-0.44380058224126695,9.798743292868137,3888,1603222588.475311,rc,0.0,0.0,0.0,0.0,0.0,-10000.0
,,193628.256459,3.0899484157562256,50979,1603717719.941565,/world,vicon/test_obj/test_obj,-0.04532693257786413,0.2802160544374388,1.381627023819749,0.0016157406073514086,-0.002825696182512768,-0.08255080098358149,0.996581542113009,1891588.0,0.14,-0.04,0.99,-0.06,-0.06,0.0,12.3,177.64,86.12,1891650.0,0.13,-0.05,1.0,-0.06,-0.18,0.06,13.95,177.19,86.27,41769,1603222588.241621,body_FLU,-0.013449642455944034,-0.01686621115203674,0.6363738174837028,0.771079115564934,-0.0003120258334092796,0.000441196869360283,0.0026499945670366287,0.2791508896127343,-0.3931319427676499,9.810253492355347,3889,1603222588.2083776,rc,0.0,0.0,0.0,0.0,0.0,-10000.0
,,193628.314401,3.1479547023773193,50985,1603717720.1740568,/world,vicon/test_obj/test_obj,-0.04532457536045632,0.28021152172188396,1.3816275893255583,0.0017007868099055477,-0.0029054314000181805,-0.08255288957021314,0.9965809983218701,1891688.0,0.15,-0.05,1.0,-0.18,-0.12,0.0,13.2,177.19,84.92,1891708.0,0.14,-0.05,0.98,-0.12,-0.18,0.0,12.6,177.79,85.67,41773,1603222588.3026717,body_FLU,-0.013416816069062495,-0.016876756760564132,0.6363709246524325,0.7710818441545759,0.0017437147907912731,0.00599786639213562,-0.0010302927112206817,-0.005520093021914363,-0.5408749893195928,9.793737410545349,3889,1603222588.2083776,rc,0.0,0.0,0.0,0.0,0.0,-10000.0
,,193628.414478,3.2480387687683105,50995,1603717720.1015449,/world,vicon/test_obj/test_obj,-0.04529070460040176,0.2801860667606099,1.3815180983832704,0.0018922152250959818,-0.0040365227430187904,-0.08246218114887388,0.9965842235786483,1891789.0,0.14,-0.05,0.98,-0.06,-0.12,0.06,12.9,176.74,87.02,1891809.0,0.14,-0.05,0.99,-0.06,-0.12,-0.12,12.3,177.64,85.52,41777,1603222588.402512,body_FLU,-0.013360209824983192,-0.01691737413239563,0.6363816475416978,0.7710730872738403,0.0009198662592098117,0.006983285769820213,-0.0004435284063220024,0.11596469025313855,-0.244076524335891,9.789365953266621,3890,1603222588.3914232,rc,0.0,0.0,0.0,0.0,0.0,-10000.0
,,193628.536408,3.369906187057495,51007,1603717720.2217507,/world,vicon/test_obj/test_obj,-0.04528631578274506,0.2801826106120823,1.3815158509020886,0.001928500863921361,-0.004012723156932804,-0.0824873752635221,0.9965821651321173,1891923.0,0.14,-0.05,1.0,-0.06,0.0,-0.12,12.9,178.84,84.92,1891931.0,0.14,-0.04,0.99,0.12,0.0,0.0,13.65,178.24,85.97,41784,1603222588.5217266,body_FLU,-0.013384467522060097,-0.016931840821788717,0.6363936376049367,0.7710624532497306,-0.0021332139149308205,0.0038517306093126535,0.004044283181428909,0.0771345805618912,-0.34947286756709217,9.850423229813575,3890,1603222588.3914232,rc,0.0,0.0,0.0,0.0,0.0,-10000.0
,,193628.614485,3.448030948638916,51015,1603717720.301746,/world,vicon/test_obj/test_obj,-0.045328218270519416,0.28015802334084106,1.3815852564341817,0.001818892522636625,-0.003986593401626686,-0.08251798342564283,0.9965799421593867,1891989.0,0.13,-0.05,0.98,-0.12,-0.12,0.0,12.15,178.54,85.22,1892009.0,0.15,-0.04,1.0,0.0,0.06,-0.12,12.75,178.69,85.52,41787,1603222588.6021981,body_FLU,-0.013394392261315379,-0.016898761241356208,0.6363845672647369,0.7710704926734852,-0.0026400627102702856,0.008183740079402924,-0.0009607948013581336,-0.01621470161760226,-0.5117406548894942,9.704798146426677,3891,1603222588.5716865,rc,0.0,0.0,0.0,0.0,0.0,-10000.0
,,193628.71363,3.547132968902588,51025,1603717720.4014163,/world,vicon/test_obj/test_obj,-0.04529692591012668,0.28018427471242735,1.381520935775799,0.0019211873360262996,-0.004009565399781676,-0.08249061663551466,0.9965819236729198,1892089.0,0.14,-0.05,0.99,-0.06,-0.06,0.12,12.6,176.74,85.22,1892108.0,0.14,-0.05,1.0,0.0,0.06,-0.12,12.15,177.49,84.92,41792,1603222588.702016,body_FLU,-0.013371292763670007,-0.016910914842396225,0.6363879045551222,0.7710678727744803,-0.002685248153284192,0.007564621511846781,0.003004989121109247,0.22462491228058934,-0.4313868309259415,9.746187078237535,3891,1603222588.5716865,rc,0.0,0.0,0.0,0.0,0.0,-10000.0
,,193628.818821,3.6523280143737793,51035,1603717720.501783,/world,vicon/test_obj/test_obj,-0.04532775762771703,0.2802076164778655,1.3816266686334275,0.0016598449675495335,-0.002826487155462333,-0.0825645564483819,0.9965803278730349,1892204.0,0.15,-0.05,0.99,-0.06,-0.06,-0.18,14.4,178.69,87.17,1892213.0,0.15,-0.04,1.0,0.0,0.0,0.06,14.1,178.69,87.17,41797,1603222588.8157384,body_FLU,-0.013319114689328724,-0.016872783973377273,0.6363900770800045,0.7710678181191238,0.000249838805757463,0.004004837479442358,0.0029771546833217144,0.190587402574718,-0.4388829483836889,9.775999213457109,3892,1603222588.7491908,rc,0.0,0.0,0.0,0.0,0.0,-10000.0
,,193628.912842,3.746347665786743,51044,1603717720.5916843,/world,vicon/test_obj/test_obj,-0.04528209126107284,0.2801826782353556,1.3815094603989226,0.0019737226897882936,-0.0041013182468380835,-0.08246303322161498,0.9965837304307515,1892288.0,0.15,-0.05,1.0,0.0,-0.12,-0.06,12.15,177.79,84.92,1892308.0,0.14,-0.04,0.99,-0.12,-0.12,0.0,12.3,177.34,85.07,41802,1603222588.9017293,body_FLU,-0.01328361492160938,-0.016851145572728893,0.63640192348761,0.7710591262988664,-0.001922023482620716,0.008304949849843979,0.002279211301356554,0.12007664154656232,-0.3348821503892541,9.787271065413952,3892,1603222588.7491908,rc,0.0,0.0,0.0,0.0,0.0,-10000.0
,,193629.013358,3.8468761444091797,51054,1603717720.691763,/world,vicon/test_obj/test_obj,-0.045333154680952684,0.2801632416323812,1.3815877664599165,0.0017541626700594288,-0.003974166101840268,-0.0825041313887484,0.9965812547007444,1892388.0,0.15,-0.04,0.99,-0.06,-0.12,0.0,11.85,177.19,85.22,1892408.0,0.14,-0.05,1.0,-0.06,0.0,0.0,11.1,177.49,84.92,41807,1603222588.9932353,body_FLU,-0.01326941036406675,-0.01686317672879337,0.6363935085493465,0.771066053133878,0.0012539743911474943,0.002046202542260289,-0.0015600388869643211,0.02130031151790172,-0.296206794988364,9.950397166728974,3893,1603222589.9872508,rc,0.0,0.0,0.0,0.0,0.0,-10000.0
,,193629.104468,3.938005208969116,51064,1603717720.791501,/world,vicon/test_obj/test_obj,-0.04529127775272472,0.28018658928578055,1.3815204009715447,0.0019202447341675059,-0.004018335609010442,-0.08247425967571481,0.9965832439540798,1892490.0,0.14,-0.04,0.99,-0.06,-0.24,0.0,15.75,176.74,85.67,1892499.0,0.14,-0.04,0.99,-0.06,-0.12,-0.06,12.15,176.74,87.32,41812,1603222589.819813,body_FLU,-0.013279413236739007,-0.016854672127084032,0.6364270663420781,0.7710383689796458,0.0028068004176020622,0.007295612245798111,0.0017195941181853414,0.09447981274779886,-0.4239947714433074,9.881111642718315,3895,1603222589.9027908,rc,0.0,0.0,0.0,0.0,0.0,-10000.0
,,193629.214991,4.048495292663574,51075,1603717720.9014854,/world,vicon/test_obj/test_obj,-0.045288462120020904,0.2801874664150811,1.3815159850860528,0.0019051935507885687,-0.004026077500941755,-0.08248063367339745,0.9965827140816387,1892589.0,0.15,-0.05,0.99,-0.06,0.0,-0.12,12.9,176.44,84.92,1892609.0,0.15,-0.05,0.99,0.0,-0.06,-0.12,12.15,178.24,84.62,41821,1603222589.2123098,body_FLU,-0.01323239371436588,-0.016928077225881792,0.6364265555998743,0.771037990818418,0.00016640766989439726,0.006172791123390198,0.004181257449090481,0.17421601611748339,-0.3965238311290741,9.909303248405458,3895,1603222589.9027908,rc,0.0,0.0,0.0,0.0,0.0,-10000.0
,,193629.314304,4.1478025913238525,51085,1603717721.1692595,/world,vicon/test_obj/test_obj,-0.045296191330675424,0.28018617956895386,1.381519698813058,0.0018785729551453422,-0.004011683219514795,-0.08247114140404588,0.9965836082321002,1892689.0,0.15,-0.05,0.99,-0.12,-0.12,0.0,13.05,178.39,83.42,1892709.0,0.15,-0.05,0.99,-0.12,-0.24,0.0,10.8,177.79,85.22,41828,1603222589.3038502,body_FLU,-0.013236661149049471,-0.01699091863877886,0.636439160619102,0.771026130760747,0.001386940130032599,0.0018849149346351624,-0.002829534001648426,0.15764107765629887,-0.5446996128112078,9.770455880820752,3896,1603222589.289982,rc,0.0,0.0,0.0,0.0,0.0,-10000.0
,,193629.392754,4.22628116607666,51092,1603717721.7151177,/world,vicon/test_obj/test_obj,-0.04529428108972456,0.2801896154666512,1.3815283804795555,0.0018583028786333144,-0.004000489694356667,-0.08250322576664273,0.9965810356065958,1892780.0,0.14,-0.05,0.99,0.06,0.0,-0.12,12.15,177.19,84.32,1892788.0,0.15,-0.04,0.99,-0.12,-0.06,0.06,11.7,178.09,86.42,41834,1603222589.3842814,body_FLU,-0.013231519573750832,-0.017024951899748477,0.6364323386008045,0.771031099428351,-0.0001745416666381061,0.00720128184184432,-0.0012109196977689862,0.10593662319146097,-0.46756632841005924,9.880036742091178,3896,1603222589.289982,rc,0.0,0.0,0.0,0.0,0.0,-10000.0
,,193629.514745,4.34824800491333,51105,1603717721.201744,/world,vicon/test_obj/test_obj,-0.04532228490647528,0.2802080980036563,1.3816364567026778,0.0016489640399123874,-0.002868561338442408,-0.08255137408560667,0.9965813177608844,1892888.0,0.14,-0.05,0.99,-0.06,-0.06,-0.12,12.3,177.64,85.82,1892908.0,0.14,-0.04,1.0,-0.06,0.0,0.0,12.9,177.19,84.92,41845,1603222589.5118513,body_FLU,-0.013198616661099229,-0.017056388955152643,0.6364218677920702,0.7710396113755095,0.0032918360084295273,0.0021360379178076982,0.0028794105164706707,0.0992452937643975,-0.4994705035798252,9.80089835178852,3896,1603222589.289982,rc,0.0,0.0,0.0,0.0,0.0,-10000.0
,,193629.646245,4.479741811752319,51118,1603717721.3314736,/world,vicon/test_obj/test_obj,-0.045290361795467506,0.28018358794719783,1.3815255435457572,0.0018874455450696168,-0.003987598552828774,-0.08246900526784516,0.9965838648991002,1892988.0,0.14,-0.06,1.0,0.0,0.0,0.0,11.55,177.79,85.97,1893040.0,0.15,-0.04,1.0,-0.12,-0.12,-0.12,13.35,177.34,86.42,41853,1603222589.6421754,body_FLU,-0.013168490865148987,-0.017131316422810988,0.6364244561455485,0.7710363288884634,0.0042512258514761925,0.002978809643536806,0.002791508100926876,0.0007649995470419526,-0.3623645188249648,9.860834577083589,3897,1603222589.589491,rc,0.0,0.0,0.0,0.0,0.0,-10000.0
,,193629.714709,4.548212766647339,51125,1603717721.4016216,/world,vicon/test_obj/test_obj,-0.04528994785446973,0.28018275016127386,1.3815119581216189,0.001913818512981229,-0.004031395009201531,-0.08250120585027913,0.996580973221057,1893089.0,0.15,-0.05,0.99,-0.06,-0.12,0.0,13.2,177.19,85.22,1893109.0,0.15,-0.05,0.99,-0.18,-0.12,-0.06,10.65,178.69,85.07,41859,1603222589.7031987,body_FLU,-0.01316991231601862,-0.017150759875749707,0.6364081312535026,0.7710493468771615,-0.0003751806798391044,0.0027106443885713816,0.00032142584677785635,0.04250258946977556,-0.41429766350984576,9.789753268003464,3897,1603222589.589491,rc,0.0,0.0,0.0,0.0,0.0,-10000.0
,,193629.814311,4.6478111743927,51135,1603717721.501701,/world,vicon/test_obj/test_obj,-0.04529276078645818,0.2801801770004663,1.3815213891647076,0.0018846956514058726,-0.004031055254300244,-0.0824797443481357,0.9965828065384755,1893189.0,0.15,-0.05,0.98,-0.12,-0.18,-0.12,11.85,177.19,84.92,1893209.0,0.13,-0.05,0.99,-0.06,-0.06,-0.06,13.05,176.59,85.07,41865,1603222589.8030396,body_FLU,-0.013156906789109538,-0.017204651392301807,0.6363816400809313,0.771070232820666,0.0034218658693134785,0.005691434256732464,-0.000541984336450696,0.11306031350512058,-0.2524081908222288,9.93321511387825,3897,1603222589.589491,rc,0.0,0.0,0.0,0.0,0.0,-10000.0
,,193629.935433,4.768929481506348,51147,1603717721.6215978,/world,vicon/test_obj/test_obj,-0.045328248020726665,0.2801557784157795,1.3815782383961872,0.0018048786068053388,-0.004090748444582171,-0.08252306692466797,0.9965791246136578,1893322.0,0.15,-0.04,1.0,0.0,-0.12,-0.06,13.05,177.64,87.47,1893330.0,0.15,-0.05,1.0,-0.12,-0.06,-0.06,13.8,177.34,85.52,41872,1603222589.92229,body_FLU,-0.013129711116277492,-0.017262838338759426,0.6363869594248176,0.7710650056723678,-0.0002586996415629983,0.0005815316690132022,0.0020981822162866592,0.1652133765053004,-0.3892168801166117,9.810514038920402,3897,1603222589.589491,rc,0.0,0.0,0.0,0.0,0.0,-10000.0
,,193630.012808,4.846310377120972,51154,1603717721.6916177,/world,vicon/test_obj/test_obj,-0.04528817704222883,0.2801861345881898,1.3815226546922388,0.0018789130731837124,-0.003987566345638049,-0.08248029433927849,0.9965829468970501,1893389.0,0.14,-0.05,1.0,-0.06,-0.06,0.06,12.0,176.59,85.82,1893408.0,0.15,-0.05,0.99,-0.12,-0.12,0.06,13.35,178.09,86.12,41877,1603222590.2771041,body_FLU,-0.013140512800730786,-0.01725467550843925,0.6363979104754482,0.77105596595767,-0.0018072642851620913,0.008094201795756817,0.006380702368915081,0.10288473969977349,-0.37290672356262805,9.845006665349008,3897,1603222589.589491,rc,0.0,0.0,0.0,0.0,0.0,-10000.0
,,193630.114231,4.947730541229248,51165,1603717721.801587,/world,vicon/test_obj/test_obj,-0.045298469605793534,0.28018254832204,1.3815201979115315,0.001932464456540101,-0.004075277588197167,-0.08249928349648618,0.996580917896921,1893489.0,0.14,-0.05,1.0,-0.12,-0.12,-0.12,12.9,177.49,86.27,1893509.0,0.13,-0.05,1.0,-0.06,-0.06,0.06,11.85,177.49,84.62,41884,1603222590.1025665,body_FLU,-0.013200578557120571,-0.017263480897539128,0.636412304895049,0.7710428620584129,-0.0023707658983767033,0.008010860532522202,0.002861497923731804,0.12065254767145962,-0.43092561677098273,9.82484526836872,3897,1603222589.589491,rc,0.0,0.0,0.0,0.0,0.0,-10000.0
,,193630.214324,5.0478196144104,51175,1603717721.9014213,/world,vicon/test_obj/test_obj,-0.04529396057870239,0.280184402913796,1.3815166822082257,0.0019032862876315587,-0.004058728634168102,-0.08249626298072359,0.9965812916252225,1893601.0,0.14,-0.05,0.99,-0.06,-0.06,-0.06,14.7,177.79,85.97,1893609.0,0.14,-0.05,0.99,-0.12,-0.06,0.0,10.8,178.54,84.92,41888,1603222590.202467,body_FLU,-0.013196426038522314,-0.017245227705231254,0.6363904117487916,0.771061411494187,0.003934395965188742,0.007948741316795349,-7.615715730935335e-05,0.09676808413211256,-0.3289936738796532,9.744331122100354,3898,1603222590.1912994,rc,0.0,0.0,0.0,0.0,0.0,-10000.0
,,193630.314161,5.147659540176392,51185,1603717722.1448112,/world,vicon/test_obj/test_obj,-0.04529187833248352,0.2801835131802888,1.3815111191107072,0.0019280511704789403,-0.004111681978193915,-0.08246115301414308,0.9965839327089175,1893688.0,0.14,-0.05,0.98,0.0,-0.06,0.0,13.05,177.34,84.92,1893709.0,0.14,-0.04,0.99,0.12,-0.06,0.0,12.75,176.29,84.47,41893,1603222590.302237,body_FLU,-0.013188383072908764,-0.01726425253856694,0.6363942548611538,0.7710579514640412,-0.00148464844096452,0.00425963569432497,-0.0006483278702944517,-0.03368142605340108,-0.4218559966832399,9.812626452326775,3898,1603222590.1912994,rc,0.0,0.0,0.0,0.0,0.0,-10000.0
,,193630.413725,5.247223138809204,51194,1603717722.917447,/world,vicon/test_obj/test_obj,-0.04529263775099224,0.2801812209885743,1.3815032162245482,0.0019064875838127199,-0.004099958546760417,-0.08249163872394431,0.9965814995200573,1893789.0,0.14,-0.04,1.0,-0.06,-0.06,0.0,12.0,175.99,85.52,1893809.0,0.14,-0.05,0.97,0.0,0.0,-0.06,11.1,177.79,86.27,41897,1603222590.4020855,body_FLU,-0.013129467826481235,-0.017254627539542648,0.6363790750599002,0.7710717007704089,0.0035597216337919235,0.003264546161517501,-5.075715307611972e-05,0.19730334080010653,-0.37781548510864377,9.812855452895164,3899,1603222590.3716094,rc,0.0,0.0,0.0,0.0,0.0,-10000.0
,,193630.491638,5.325136184692383,51202,1603717722.1714466,/world,vicon/test_obj/test_obj,-0.04530146438880087,0.2801796050409218,1.3815231133096022,0.00191994064708013,-0.00400142636840954,-0.08248760613873563,0.9965822079730456,1893879.0,0.14,-0.04,0.99,-0.06,-0.12,0.0,12.9,177.49,86.72,1893888.0,0.14,-0.04,1.0,-0.06,-0.06,0.0,12.9,177.49,86.72,41902,1603222590.4825203,body_FLU,-0.013096883540817412,-0.01726806319063066,0.636385883679407,0.7710663348174027,0.004781587980687618,0.006343023851513863,0.0041128951124846935,0.11974169352930039,-0.26551027651503684,9.76702905088663,3899,1603222590.3716094,rc,0.0,0.0,0.0,0.0,0.0,-10000.0
,,193630.614459,5.448000431060791,51215,1603717722.3014562,/world,vicon/test_obj/test_obj,-0.04528712169385681,0.2801835925749538,1.3815146252657708,0.0019370661684487537,-0.004019018914239165,-0.08248145114915985,0.9965826134736421,1893989.0,0.15,-0.05,0.99,-0.06,-0.12,-0.06,12.6,177.79,84.32,1894009.0,0.14,-0.05,1.0,-0.06,-0.06,0.0,13.05,177.64,83.72,41908,1603222590.6045468,body_FLU,-0.013103044982635086,-0.017309686770512187,0.636387973014389,0.771063572449592,0.0028233439661562443,0.0022001874167472124,0.0020040881354361773,-0.004476491938345134,-0.46477377747371795,9.816063797593117,3900,1603222590.5490642,rc,0.0,0.0,0.0,0.0,0.0,-10000.0
,,193630.714216,5.547712087631226,51225,1603717722.401748,/world,vicon/test_obj/test_obj,-0.04529304909002008,0.28018620129041855,1.3815173091650161,0.0019007525938950663,-0.003995032048650513,-0.08250253248709793,0.9965810348344596,1894089.0,0.14,-0.05,1.0,-0.12,-0.06,-0.06,11.55,177.49,84.32,1894109.0,0.15,-0.05,1.01,0.0,0.0,0.0,11.55,177.19,83.87,41913,1603222590.7016275,body_FLU,-0.013111299894819198,-0.01733591903154469,0.6363715359463141,0.7710764086416656,-0.003100103233009577,0.0020879085641354322,0.0027370708994567394,0.072590642625466,-0.4626100653111935,9.764461557269097,3902,1603222590.6905065,rc,0.0,0.0,0.0,0.0,0.0,-10000.0
,,193630.794716,5.628219127655029,51233,1603717722.4816926,/world,vicon/test_obj/test_obj,-0.04529178603212968,0.28018091379199694,1.381526261808216,0.0018872192266996732,-0.003985301535335061,-0.08247386669060634,0.9965834722131223,1894180.0,0.14,-0.05,0.98,-0.12,-0.24,0.18,12.75,177.64,84.47,1894189.0,0.15,-0.05,1.0,0.0,-0.06,0.0,13.2,178.24,84.32,41918,1603222590.7792795,body_FLU,-0.013102683632085166,-0.017334622002763006,0.6363821467141555,0.7710678270458065,0.0018312011379748583,0.0026945658028125763,-0.0009943748591467738,0.1805098805911839,-0.41860759879276155,9.838866879701614,3904,1603222590.790353,rc,0.0,0.0,0.0,0.0,0.0,-10000.0
,,193630.912773,5.746279239654541,51244,1603717722.5916147,/world,vicon/test_obj/test_obj,-0.04533565240189536,0.28021262552928633,1.3816326574217714,0.0016661128854584572,-0.0027759644531789355,-0.08253372357199976,0.9965830133825021,1894289.0,0.14,-0.05,0.99,-0.06,0.06,0.0,14.85,177.34,85.52,1894309.0,0.14,-0.04,1.0,-0.12,-0.12,0.0,12.0,177.34,85.07,41925,1603222590.9041,body_FLU,-0.01310166955469693,-0.017287793566947346,0.6363918020907804,0.7710609266978292,-0.0007299164426513016,0.006273897830396891,0.0025437006261199713,0.11125762774888426,-0.5191173795126378,9.87145973610878,3906,1603222590.8902156,rc,0.0,0.0,0.0,0.0,0.0,-10000.0
,,193631.048336,5.881842851638794,51258,1603717722.7314804,/world,vicon/test_obj/test_obj,-0.04532385883372179,0.28015342988616987,1.3815920985633192,0.0017677620874981977,-0.004045693470283927,-0.082502843957119,0.9965810494488312,1894389.0,0.14,-0.05,1.0,-0.06,-0.12,-0.06,12.6,176.14,85.22,1894442.0,0.15,-0.05,0.99,-0.18,-0.12,0.0,13.2,177.49,85.97,41935,1603222591.4275074,body_FLU,-0.013110359407738687,-0.017229272313011496,0.6363938770838502,0.7710603762753921,-0.0008897826774045825,0.0038205464370548725,6.111664697527885e-05,0.037303232336416844,-0.3413736519925296,9.794525476276874,3906,1603222590.8902156,rc,0.0,0.0,0.0,0.0,0.0,-10000.0
,,193631.11474,5.948245525360107,51265,1603717722.8014498,/world,vicon/test_obj/test_obj,-0.045291995512370564,0.28018599893859075,1.3815214271035245,0.0019030204629213432,-0.0040665535969273015,-0.0824727243210308,0.9965832084668236,1894489.0,0.16,-0.05,1.0,-0.18,-0.06,0.12,11.25,176.59,86.42,1894509.0,0.14,-0.04,0.99,0.06,0.0,-0.12,12.6,177.49,84.92,41941,1603222591.112069,body_FLU,-0.013107125966035868,-0.017188127786076625,0.6363989300059771,0.7710571790725818,0.00023525662254542112,0.001390043180435896,-0.0004637412494048476,0.09265337621513754,-0.32712336869537834,9.842763394474984,3906,1603222590.8902156,rc,0.0,0.0,0.0,0.0,0.0,-10000.0
,,193631.213607,6.047107696533203,51275,1603717722.9016478,/world,vicon/test_obj/test_obj,-0.045291212234299494,0.2801813490688226,1.3815209679943268,0.0018956179011688971,-0.004040684690894295,-0.08248058689321705,0.9965826770949574,1894589.0,0.15,-0.05,0.98,-0.06,-0.06,0.0,11.7,177.34,85.52,1894609.0,0.15,-0.05,0.98,-0.06,-0.18,-0.06,12.9,177.79,84.62,41947,1603222591.20359,body_FLU,-0.013134692288807795,-0.01715300056699107,0.6363824441982914,0.7710710986324385,0.0014305365039035678,0.004459171090275049,-0.0020540300756692886,0.14430936157051474,-0.43823618242889645,9.857844717621804,3907,1603222591.1897204,rc,0.0,0.0,0.0,0.0,0.0,-10000.0
,,193631.336586,6.1701202392578125,51287,1603717723.2168949,/world,vicon/test_obj/test_obj,-0.045292033276685316,0.2801774701816651,1.3815238787506736,0.00190714483094941,-0.004024192383927656,-0.08248757451354408,0.9965821434910037,1894723.0,0.15,-0.05,1.0,-0.06,-0.18,0.0,13.8,178.09,85.52,1894731.0,0.16,-0.05,1.0,-0.06,-0.06,0.0,12.3,177.64,85.82,41956,1603222591.3228447,body_FLU,-0.013175400881993276,-0.01710925253023923,0.6363857874244419,0.7710686168257844,0.0013955917675048113,0.002613432239741087,-0.0005347952246665955,0.1913773669078946,-0.3142370116151869,9.825833709597587,3907,1603222591.1897204,rc,0.0,0.0,0.0,0.0,0.0,-10000.0
,,193631.414105,6.247601747512817,51295,1603717723.1017218,/world,vicon/test_obj/test_obj,-0.04528993846836517,0.2801825763271024,1.381513516975183,0.001899276676306383,-0.004097703651817745,-0.08245550264784625,0.9965845130524454,1894789.0,0.15,-0.05,1.01,0.0,0.06,0.0,11.7,177.64,84.77,1894809.0,0.15,-0.05,0.98,-0.06,0.0,0.0,12.3,177.34,85.07,41963,1603222591.4115953,body_FLU,-0.013194910734602713,-0.01712890007567293,0.6363740962118556,0.7710774959648656,0.002048047259449959,0.003786724526435137,0.0021895975805819035,0.1303263520952314,-0.44639713906869294,9.72484212219715,3907,1603222591.1897204,rc,0.0,0.0,0.0,0.0,0.0,-10000.0
,,193631.514985,6.348484039306641,51305,1603717723.2016575,/world,vicon/test_obj/test_obj,-0.04529168579665489,0.2801812663961122,1.381520234836154,0.0019110898372744736,-0.004015693644117463,-0.08244865839014205,0.9965853905561008,1894889.0,0.15,-0.06,1.0,-0.12,0.0,-0.12,13.35,177.34,85.07,1894909.0,0.15,-0.05,0.99,-0.06,-0.12,0.0,12.15,177.19,85.22,41971,1603222591.511478,body_FLU,-0.0132211950883785,-0.01713035293127901,0.6363771585344693,0.7710744860935809,0.00013861898332834244,0.009630585089325905,0.004470368847250938,0.09566869336925447,-0.4292896793559194,9.854046345949174,3907,1603222591.1897204,rc,0.0,0.0,0.0,0.0,0.0,-10000.0
,,193631.616913,6.450417995452881,51315,1603717723.3016927,/world,vicon/test_obj/test_obj,-0.04528949756937585,0.2801824532604698,1.381510837022995,0.0019012450162052858,-0.004047657598018393,-0.08247224939479385,0.9965833280840697,1895003.0,0.14,-0.05,0.99,-0.06,-0.18,-0.12,12.6,177.49,85.97,1895012.0,0.14,-0.06,1.0,0.06,-0.06,-0.06,12.6,178.54,86.72,41977,1603222591.6001804,body_FLU,-0.013211244584339168,-0.017156471502121146,0.6363861249499022,0.7710666757637611,-0.0011630107183009386,0.0015884754247963428,0.004618158098310232,0.046625494234263896,-0.4985969642624259,9.80113903605938,3909,1603222591.6113176,rc,0.0,0.0,0.0,0.0,0.0,-10000.0
,,193631.714445,6.547983884811401,51325,1603717723.401342,/world,vicon/test_obj/test_obj,-0.04529915343540986,0.28018286150070004,1.3815199537200418,0.001892352751286211,-0.004027299527353946,-0.08245674543950263,0.996584710394007,1895089.0,0.14,-0.05,1.0,-0.06,-0.12,-0.12,12.15,179.29,83.57,1895109.0,0.14,-0.04,1.0,-0.12,-0.12,-0.06,11.1,177.19,83.57,41982,1603222591.7028966,body_FLU,-0.013223477778913978,-0.017149675037524917,0.6363946077975156,0.7710596160140825,-0.001372037804685533,0.0011468175798654556,-0.0008467549923807383,0.03370572906732559,-0.4013286442346871,9.773234265267849,3909,1603222591.6113176,rc,0.0,0.0,0.0,0.0,0.0,-10000.0
,,193631.81284,6.6464293003082275,51334,1603717723.4915996,/world,vicon/test_obj/test_obj,-0.04529869475152843,0.28018013814629744,1.381516474555385,0.0018892430895453983,-0.003965863199244092,-0.08247612516786057,0.9965833590156565,1895189.0,0.14,-0.05,1.0,0.0,0.06,-0.06,12.15,178.54,83.87,1895209.0,0.15,-0.05,0.99,0.18,0.0,0.0,11.85,177.49,84.92,41988,1603222591.8026237,body_FLU,-0.013209867410222113,-0.01717611482388514,0.6363899262665096,0.7710631246720774,-0.002465135883539915,0.0002663565392140299,-0.0026023462414741516,0.15341990200057626,-0.4256559748649597,9.811373959422111,3909,1603222591.6113176,rc,0.0,0.0,0.0,0.0,0.0,-10000.0
,,193631.89633,6.729825735092163,51343,1603717723.5817919,/world,vicon/test_obj/test_obj,-0.04530456030303445,0.280181344800451,1.3814977403685316,0.001919174524782222,-0.004057253108245055,-0.08247233551237378,0.9965832475721702,1895284.0,0.14,-0.06,1.0,-0.06,0.0,0.0,13.65,178.84,86.27,1895292.0,0.15,-0.05,1.0,-0.06,-0.12,0.0,12.15,178.84,84.32,41994,1603222591.8858807,body_FLU,-0.01318946803890762,-0.017188223771858517,0.6363803422221346,0.771071114054766,-0.0004145082493778318,0.008850944228470325,-0.001090857433155179,-0.049864280453883116,-0.43451390086859465,9.814228287935258,3909,1603222591.6113176,rc,0.0,0.0,0.0,0.0,0.0,-10000.0
,,193632.013486,6.846984148025513,51355,1603717723.7013726,/world,vicon/test_obj/test_obj,-0.0453345895524909,0.28016088426123004,1.3815672528767247,0.0017981262016562411,-0.004013983907662179,-0.08252819048048787,0.9965790246896471,1895389.0,0.14,-0.04,1.0,-0.06,-0.06,-0.06,12.9,177.49,85.22,1895409.0,0.14,-0.05,1.0,-0.06,-0.06,-0.06,12.75,177.34,85.82,41999,1603222592.2322197,body_FLU,-0.013173997284780244,-0.01719380342461398,0.6363699527275442,0.7710798286720251,0.0017424680991098285,0.002947016153484583,0.0031121859792619944,0.05230434869136661,-0.5130909988023341,9.741802768886089,3910,1603222591.991244,rc,0.0,0.0,0.0,0.0,0.0,-10000.0
,,193632.114236,6.947737693786621,51365,1603717723.8018093,/world,vicon/test_obj/test_obj,-0.04529155402788754,0.2801787434721504,1.3815232772533874,0.0018644708282178268,-0.004068043735108891,-0.08249575864724891,0.9965813687672045,1895489.0,0.14,-0.05,0.99,-0.06,-0.06,-0.06,11.7,176.59,85.07,1895510.0,0.14,-0.05,0.99,0.0,0.06,0.06,12.15,177.19,85.22,42004,1603222592.1021469,body_FLU,-0.013147040053186745,-0.017203641392226316,0.6363718048116098,0.7710785408124791,0.003041048999875784,0.006132856011390686,0.003011112567037344,0.0719666598904878,-0.46754526123404505,9.869030694365502,3910,1603222591.991244,rc,0.0,0.0,0.0,0.0,0.0,-10000.0
,,193632.192824,7.026322841644287,51372,1603717723.8714855,/world,vicon/test_obj/test_obj,-0.04530026015726963,0.2801789686861172,1.381515404089062,0.0018742039355007347,-0.0040339860711568675,-0.08249096115358268,0.9965818860705546,1895580.0,0.14,-0.05,0.99,-0.18,-0.12,-0.06,11.7,177.64,85.07,1895589.0,0.14,-0.05,1.0,0.0,-0.06,-0.06,12.6,177.49,85.67,42007,1603222592.182621,body_FLU,-0.013155422408754882,-0.017219143674517982,0.6363385676781257,0.7711054812655107,0.0051122368313372135,0.0020108793396502733,0.0023672282695770264,0.0025319313481450083,-0.3664958395063877,9.71969661962986,3911,1603222592.1493068,rc,0.0,0.0,0.0,0.0,0.0,-10000.0
,,193632.312838,7.146338701248169,51384,1603717723.9917378,/world,vicon/test_obj/test_obj,-0.045339380258157064,0.28020665606973355,1.3816252357344956,0.0016420652358989684,-0.0028668014991624054,-0.08255836026289613,0.9965807554943188,1895689.0,0.13,-0.06,0.99,-0.06,-0.06,0.0,12.9,177.19,85.67,1895709.0,0.14,-0.06,1.0,-0.06,-0.06,-0.06,11.55,178.54,86.27,42014,1603222592.30187,body_FLU,-0.013182619918681365,-0.017217613863498654,0.6363261505291968,0.7711152977717541,0.0029309128876775503,0.009283621795475483,0.0008370780269615352,0.0703420867016539,-0.5918973893970251,9.778174718856812,3911,1603222592.1493068,rc,0.0,0.0,0.0,0.0,0.0,-10000.0
,,193632.448556,7.282069683074951,51398,1603717724.1315808,/world,vicon/test_obj/test_obj,-0.045295372964645156,0.2801812409967945,1.3815162270137682,0.0018746739004171242,-0.0040656531166696035,-0.0824717919445321,0.9965833430255393,1895790.0,0.14,-0.05,0.98,-0.18,-0.06,-0.06,13.35,177.34,85.82,1895844.0,0.14,-0.05,0.99,-0.06,-0.12,0.0,13.8,177.64,85.82,42022,1603222592.432223,body_FLU,-0.013256525522456914,-0.017193849354820587,0.6363268622169731,0.7711139737396395,0.00048156396951526403,0.003334273584187031,0.0031937407329678535,0.11219703393895179,-0.5519243762791157,9.859229236364365,3911,1603222592.1493068,rc,0.0,0.0,0.0,0.0,0.0,-10000.0
,,193632.512809,7.34634804725647,51404,1603717724.1914485,/world,vicon/test_obj/test_obj,-0.04530055825306301,0.2801848464770631,1.381508247419742,0.0018986140171982646,-0.004038142707609798,-0.08247819934608606,0.9965828792934955,1895889.0,0.13,-0.03,0.99,-0.06,-0.06,0.06,12.75,177.34,84.17,1895909.0,0.14,-0.05,1.01,-0.12,-0.12,-0.06,11.85,177.79,85.22,42027,1603222592.4959698,body_FLU,-0.013301262675971284,-0.017167842536666172,0.636323966064263,0.7711161727042869,0.0007985832053236663,0.001474352553486824,0.0018972661346197128,0.17051878149434924,-0.4150807636678219,9.760389786958694,3911,1603222592.1493068,rc,0.0,0.0,0.0,0.0,0.0,-10000.0
,,193632.614275,7.4477739334106445,51415,1603717724.301727,/world,vicon/test_obj/test_obj,-0.04529463078899743,0.2801791846341839,1.3815162968498576,0.0019139452717320438,-0.003996747108130811,-0.08247392650651975,0.9965833704576088,1895990.0,0.14,-0.05,0.99,-0.12,-0.12,-0.06,10.05,178.24,85.67,1896010.0,0.14,-0.05,1.0,0.0,0.06,-0.06,10.95,177.34,85.52,42033,1603222592.604157,body_FLU,-0.013315736985891037,-0.01715560049566332,0.6363347421706933,0.771107302796902,-0.0013174796476960182,0.001226056832820177,0.005793897435069084,0.20609434109553695,-0.354941461019218,9.861012169361114,3914,1603222592.5902867,rc,0.0,0.0,0.0,0.0,0.0,-10000.0
,,193632.736305,7.569806337356567,51427,1603717724.4217515,/world,vicon/test_obj/test_obj,-0.04530772306870742,0.28017739300737915,1.381533382490922,0.0018966682556999747,-0.003993118384453073,-0.0824591518367824,0.9965846406269033,1896123.0,0.14,-0.05,0.98,-0.12,-0.12,-0.06,13.35,177.64,84.47,1896132.0,0.13,-0.05,0.98,-0.12,-0.06,-0.06,12.6,177.49,85.97,42042,1603222592.726205,body_FLU,-0.013366098364274437,-0.017144736007127355,0.6363337973615488,0.7711074528087469,-0.0023729950189590454,0.01032097265124321,-0.0020591658540070057,0.04737656461726874,-0.38954928145185114,9.875980160593986,3914,1603222592.5902867,rc,0.0,0.0,0.0,0.0,0.0,-10000.0
,,193632.813241,7.6467437744140625,51435,1603717724.5013494,/world,vicon/test_obj/test_obj,-0.04530051076479692,0.2801842686291118,1.3815110030943862,0.001882240825595327,-0.003970191562911432,-0.08247233169748273,0.9965836689675427,1896189.0,0.14,-0.05,0.99,0.0,0.12,-0.18,12.75,176.29,85.07,1896209.0,0.14,-0.04,1.0,-0.06,-0.12,0.0,12.3,178.09,85.07,42047,1603222592.8010404,body_FLU,-0.013423892320987051,-0.01717201980837777,0.6363540793108295,0.7710891041864887,0.00044468219857662916,0.004748677834868431,0.0035055920016020536,0.11415245672129094,-0.4721190656349063,9.93117280268669,3915,1603222592.7899952,rc,0.0,0.0,0.0,0.0,0.0,-10000.0
,,193632.913906,7.747409343719482,51445,1603717724.6015766,/world,vicon/test_obj/test_obj,-0.04530116703120136,0.2801884968722519,1.381527482498658,0.0019225242845089619,-0.004045820349814875,-0.08246820851446741,0.9965836291162358,1896289.0,0.14,-0.05,0.99,-0.06,-0.06,0.0,11.55,177.79,84.32,1896309.0,0.15,-0.05,0.99,-0.24,-0.06,0.0,11.1,177.49,85.22,42053,1603222592.8926091,body_FLU,-0.01350062199976955,-0.017213416889000188,0.6363515069746665,0.7710889644234936,-0.0033693071454763412,0.002285626018419862,-0.001993730664253235,0.09377788693830372,-0.4316730816364288,9.81449000287056,3917,1603222592.9064856,rc,0.0,0.0,0.0,0.0,0.0,-10000.0
,,193633.017235,7.850741386413574,51455,1603717724.7016368,/world,vicon/test_obj/test_obj,-0.0453005931508725,0.28018404033230593,1.3815141529500543,0.0019344352469371194,-0.004025555624861543,-0.08248164163154836,0.9965825764360681,1896404.0,0.13,-0.05,1.01,-0.12,-0.12,-0.06,12.9,177.49,87.32,1896413.0,0.14,-0.05,1.0,-0.06,-0.06,0.06,12.75,177.64,86.42,42060,1603222592.9924142,body_FLU,-0.013505790386782698,-0.017218799441610085,0.6363397574788555,0.7710984500202093,0.0008914030622690916,0.008339927531778812,0.0021135685965418816,0.12302717804722488,-0.3615228906199336,9.776006807863713,3919,1603222593.6290827,rc,0.0,0.0,0.0,0.0,0.0,-10000.0
,,193633.115196,7.948693513870239,51465,1603717724.8016193,/world,vicon/test_obj/test_obj,-0.04530179137012169,0.2801870681755486,1.3815228702060374,0.0018437120630559287,-0.003996451135972409,-0.08247367638605499,0.9965835247521978,1896490.0,0.14,-0.05,0.99,-0.18,-0.12,0.0,11.85,176.14,85.67,1896510.0,0.14,-0.05,1.0,-0.12,-0.12,-0.12,12.15,176.74,86.72,42068,1603222593.1116848,body_FLU,-0.01352527868067298,-0.01722602243138076,0.6363365534112582,0.7711005912204222,0.0038021765649318695,0.00552855059504509,-0.00043727390584535897,0.07972529553808272,-0.36821429307013753,9.824328848719597,3920,1603222593.2847555,rc,0.0,0.0,0.0,0.0,0.0,-10000.0
,,193633.215439,8.048937797546387,51475,1603717724.9016845,/world,vicon/test_obj/test_obj,-0.045293947145383935,0.2801883497155011,1.3815084601635883,0.0019187506025277366,-0.004048213208346502,-0.08247603422112736,0.9965829790564861,1896589.0,0.14,-0.05,0.98,0.0,0.0,0.0,12.0,178.09,85.07,1896610.0,0.15,-0.05,0.99,-0.06,-0.12,0.06,12.75,178.09,84.47,42076,1603222593.2115622,body_FLU,-0.013553490006349096,-0.01722533662993589,0.6363427309940504,0.7710950132102183,-0.00022266292944550514,0.005235414952039719,-0.00171848782338202,0.15967513723298907,-0.3908437261506915,9.755517683029176,3920,1603222593.2847555,rc,0.0,0.0,0.0,0.0,0.0,-10000.0
,,193633.296934,8.130431413650513,51483,1603717724.9813995,/world,vicon/test_obj/test_obj,-0.045336050141526245,0.280218018107047,1.3816172675784775,0.0016925581848008522,-0.0029008930416963403,-0.08252611616995419,0.9965832429939081,1896683.0,0.13,-0.04,1.0,0.0,-0.18,-0.06,14.25,176.74,86.27,1896692.0,0.14,-0.05,0.98,-0.06,-0.12,0.06,12.3,177.64,85.07,42083,1603222593.2919655,body_FLU,-0.01353924391855917,-0.01722073638780573,0.6363487461931051,0.771090402177876,-0.0018328551668673754,0.007497572340071201,0.0004537130007520318,0.20964227990806103,-0.3927664984613657,9.84845102083683,3921,1603222593.2476559,rc,0.0,0.0,0.0,0.0,0.0,-10000.0
,,193633.415056,8.248557806015015,51495,1603717725.1015415,/world,vicon/test_obj/test_obj,-0.04530471449813392,0.28018918646511237,1.381514316970068,0.001929511919626024,-0.004073156806519609,-0.08247624300624995,0.9965828393650753,1896789.0,0.14,-0.05,1.0,-0.06,0.0,0.0,11.1,177.19,84.92,1896810.0,0.14,-0.05,0.99,-0.06,-0.06,0.0,11.7,177.34,85.52,42092,1603222593.400077,body_FLU,-0.01349938530824763,-0.017239083447696285,0.6363528660300092,0.7710872910984696,-0.002341298619285226,0.005322503857314587,0.0031328490003943443,0.05036076478566975,-0.3453408531658351,9.813094968795777,3922,1603222593.4084167,rc,0.0,0.0,0.0,0.0,0.0,-10000.0
,,193633.512676,8.346194744110107,51504,1603717725.1914687,/world,vicon/test_obj/test_obj,-0.04530332481290034,0.2801885783917641,1.3815077480722842,0.0018987754599680603,-0.004060699642363202,-0.0824588113991436,0.9965843917063961,1896890.0,0.14,-0.05,1.0,-0.18,-0.18,0.0,13.2,177.19,85.97,1896910.0,0.14,-0.05,0.98,0.0,-0.06,-0.06,12.0,177.64,85.07,42099,1603222593.502716,body_FLU,-0.01348069343696158,-0.017244621200479992,0.6363522309028251,0.7710880184318183,-1.995480852201581e-05,0.0053512584418058395,0.0004616975784301758,0.12441909951064736,-0.3332361357808113,9.790977720022202,3922,1603222593.4084167,rc,0.0,0.0,0.0,0.0,0.0,-10000.0
,,193633.594549,8.428109169006348,51513,1603717725.2814782,/world,vicon/test_obj/test_obj,-0.04530001676586527,0.2801814933952426,1.3815198832373174,0.0019207933716486555,-0.004056656210491088,-0.08246834164276058,0.996583577388222,1896982.0,0.14,-0.04,0.98,-0.06,0.12,-0.06,12.15,177.49,85.22,1896990.0,0.14,-0.05,1.0,0.06,0.0,0.0,12.6,177.19,84.92,42102,1603222593.5803766,body_FLU,-0.013452630892874708,-0.01725468857119394,0.6363395395324487,0.7710987568865627,-0.002296766499057412,0.001697758911177516,-0.003293996211141348,0.09873805677518249,-0.41149624026194215,9.941261679768562,3923,1603222593.5914962,rc,0.0,0.0,0.0,0.0,0.0,-10000.0
,,193633.712657,8.54615831375122,51524,1603717725.3915472,/world,vicon/test_obj/test_obj,-0.04530222980225393,0.28018778207675205,1.3815082873650575,0.0019326515558540168,-0.004001337312418345,-0.08247175258561638,0.996583495841233,1897089.0,0.15,-0.05,0.99,0.0,0.0,0.06,12.9,177.19,84.92,1897109.0,0.14,-0.04,1.0,0.0,0.0,-0.06,12.9,176.44,83.87,42109,1603222593.7023892,body_FLU,-0.013382383134986213,-0.01724590347766077,0.6363245624398354,0.7711125351533457,0.001682115951552987,0.006840609945356846,-0.0020974772050976753,-0.04665098843816668,-0.2944943293221295,9.928365208983422,3923,1603222593.5914962,rc,0.0,0.0,0.0,0.0,0.0,-10000.0
,,193633.840505,8.674004554748535,51537,1603717725.5214028,/world,vicon/test_obj/test_obj,-0.045301636997447235,0.28018359830617423,1.3815140621234219,0.0018824106647800742,-0.0039983678665835975,-0.08246112279578827,0.9965844835294951,1897189.0,0.14,-0.05,1.0,-0.12,-0.12,0.0,11.7,176.29,85.52,1897238.0,0.14,-0.05,1.0,0.0,0.0,0.06,13.05,179.44,86.12,42119,1603222593.818892,body_FLU,-0.013322557538503253,-0.017279699733073695,0.6363238687695777,0.771113386910048,0.0007048692787066102,0.00036701367935165763,0.0006147949025034904,0.05160278799757362,-0.4665823050811887,9.669291958808898,3924,1603222593.827248,rc,0.0,0.0,0.0,0.0,0.0,-10000.0
,,193633.912678,8.746182441711426,51544,1603717725.5915806,/world,vicon/test_obj/test_obj,-0.04530400370730158,0.2801811748821375,1.3815104041125092,0.0018852305281892362,-0.004012874920586323,-0.08248159030161654,0.9965827261206385,1897290.0,0.15,-0.05,1.0,0.06,0.0,-0.06,11.85,177.49,86.72,1897310.0,0.14,-0.05,1.0,-0.06,-0.18,0.06,13.05,177.64,85.82,42123,1603222593.9021008,body_FLU,-0.013292820271600952,-0.017257497326499387,0.6363340668823583,0.7711059817173066,0.003963265102356672,0.0064770532771945,0.004406849853694439,-0.10765096920356154,-0.5132305460236967,9.870759882330894,3924,1603222593.827248,rc,0.0,0.0,0.0,0.0,0.0,-10000.0
,,193634.013416,8.84692096710205,51555,1603717725.701476,/world,vicon/test_obj/test_obj,-0.04530269423215623,0.280186738030859,1.381505594666701,0.0018580811787466192,-0.004036243547413696,-0.08247041508316985,0.9965836075856199,1897390.0,0.15,-0.04,0.99,0.0,0.12,-0.06,12.9,178.54,85.22,1897410.0,0.14,-0.05,1.01,-0.06,-0.12,-0.12,12.6,177.49,85.97,42127,1603222594.1904893,body_FLU,-0.013309732105960917,-0.017203192396019532,0.6363198648357338,0.7711186230523074,-0.0012628128752112389,0.006137092597782612,0.0036708677653223276,0.07704750959482044,-0.38724667927622797,9.860343861579896,3925,1603222593.9492633,rc,0.0,0.0,0.0,0.0,0.0,-10000.0
,,193634.135774,8.96927261352539,51567,1603717725.8217082,/world,vicon/test_obj/test_obj,-0.04530185520376271,0.28018447527892587,1.38152279106546,0.0019024587029249918,-0.004036612871744031,-0.0824757982939637,0.9965830768697513,1897523.0,0.15,-0.05,0.99,-0.18,-0.06,0.0,14.25,178.24,86.72,1897531.0,0.15,-0.05,0.99,0.0,0.12,0.06,14.7,177.79,85.22,42134,1603222594.1322634,body_FLU,-0.01332241335419401,-0.01714121248134279,0.6363040538870384,0.7711328310635013,-0.0018163322238251567,0.006738959811627865,-0.0019056071760132909,0.10988067602925003,-0.48188470578566195,9.925128823399543,3925,1603222593.9492633,rc,0.0,0.0,0.0,0.0,0.0,-10000.0
