name,date,time,time_since_start,vicon_sequence,vicon_time_stamp,vicon_frame_id,vicon_child_frame_id,vicon_translation_x,vicon_translation_y,vicon_translation_z,vicon_rotation_x,vicon_rotation_y,vicon_rotation_z,vicon_rotation_w,int_imu_time_stamp,int_imu_acc_x,int_imu_acc_y,int_imu_acc_z,int_imu_gyro_x,int_imu_gyro_y,int_imu_gyro_z,int_imu_mag_x,int_imu_mag_y,int_imu_mag_z,ext_imu_time_stamp,ext_imu_acc_x,ext_imu_acc_y,ext_imu_acc_z,ext_imu_gyro_x,ext_imu_gyro_y,ext_imu_gyro_z,ext_imu_mag_x,ext_imu_mag_y,ext_imu_mag_z,dji_imu_sequence,dji_imu_time_stamp,dji_imu_frame_id,dji_imu_orientation_x,dji_imu_orientation_y,dji_imu_orientation_z,dji_imu_orientation_w,dji_imu_ang_vel_x,dji_imu_ang_vel_y,dji_imu_ang_vel_z,dji_imu_lin_acc_x,dji_imu_lin_acc_y,dji_imu_lin_acc_z,rc_sequence,rc_time_stamp,rc_frame_id,rc_roll,rc_pitch,rc_yaw,rc_throttle,rc_mode,rc_landing_gear
/root/Desktop/devel/VibrationTest/26102020/T000_2.csv,20201020,193254.87925,0.00025463104248046875,29641,1603717506.564628,/world,vicon/test_obj/test_obj,-0.3512943928026532,0.035047735216932205,1.3813436610602208,0.0034316304755319096,-0.0016383108881809173,-0.20131485631678483,0.9795192027090971,1678187.0,0.15,-0.06,0.99,0.0,0.06,0.06,13.2,173.29,84.62,1678196.0,0.14,-0.05,1.0,0.0,0.06,-0.06,13.2,173.29,84.62,28077,1603222374.8670917,body_FLU,-0.01719739869125743,-0.015046850161865931,0.5519223026685939,0.8335823976041344,-0.0014753215946257114,0.006279961206018925,0.0002041892148554325,0.12419877044018358,-0.529042575225234,9.851535518288612,2453,1603222374.4732273,rc,0.0,0.0,0.0,0.0,0.0,-10000.0
,,193254.922312,0.04332399368286133,29645,1603717506.604773,/world,vicon/test_obj/test_obj,-0.35128861342900386,0.03504525081425734,1.3813408204890896,0.00344235294878425,-0.0017158242717602661,-0.20130677063887875,0.9795206941398381,1678217.0,0.15,-0.06,1.0,0.0,0.0,0.0,9.75,174.34,85.22,1678238.0,0.15,-0.05,1.0,-0.06,-0.06,-0.06,11.85,174.34,84.32,28079,1603222374.9170067,body_FLU,-0.01718083666561079,-0.01503814476223378,0.5518930881955737,0.8336022386339497,-0.0003181256470270455,-0.00027085887268185616,-0.0019064666703343391,0.09882448878977448,-0.381652522534132,9.65563254225254,2453,1603222374.4732273,rc,0.0,0.0,0.0,0.0,0.0,-10000.0
,,193255.040661,0.16167759895324707,29657,1603717506.7246814,/world,vicon/test_obj/test_obj,-0.35130019068948626,0.03504343780516002,1.381333407685136,0.0033972380254563023,-0.0017020595451173578,-0.20130194522278116,0.9795218673498962,1678338.0,0.15,-0.06,0.98,-0.06,-0.12,0.0,11.55,172.99,85.67,1678358.0,0.14,-0.06,0.99,-0.06,0.0,-0.12,13.05,173.74,85.07,28084,1603222375.2513165,body_FLU,-0.017169468781661482,-0.014969659073744526,0.5519004163586129,0.8335988538092894,-0.0024908077903091908,0.006643572822213173,0.003688779193907976,0.15225684418715538,-0.42731144597008824,9.801924180865289,2454,1603222374.9530637,rc,0.0,0.0,0.0,0.0,0.0,-10000.0
,,193255.153639,0.27464795112609863,29668,1603717506.834922,/world,vicon/test_obj/test_obj,-0.35130590211589185,0.035051689989254106,1.3813409904763239,0.0034136344514138577,-0.0016002326937623306,-0.20131849977737584,0.9795185797127816,1678418.0,0.15,-0.05,0.99,-0.12,-0.12,-0.06,10.95,171.64,83.42,1678470.0,0.15,-0.05,0.99,0.0,0.0,0.06,13.35,173.44,84.77,28089,1603222375.147161,body_FLU,-0.017121082077740667,-0.014925221260091106,0.5518687512534692,0.8336216094300586,-0.0010249105980619788,0.005775538273155689,0.0026466641575098038,-0.03076899394020438,-0.3248787103816867,9.758759910464287,2455,1603222375.1333356,rc,0.0,0.0,0.0,0.0,0.0,-10000.0
,,193255.221571,0.34258317947387695,29675,1603717506.9048567,/world,vicon/test_obj/test_obj,-0.35129289958930376,0.03504996020852114,1.3813372513539484,0.0034349855103287595,-0.0017256349568195307,-0.20128738026438855,0.9795246875933445,1678518.0,0.14,-0.05,0.99,-0.12,-0.12,-0.06,10.5,173.29,85.22,1678538.0,0.14,-0.05,1.0,-0.12,-0.06,0.06,11.85,173.29,84.62,28093,1603222375.205388,body_FLU,-0.01709759415526825,-0.01489216988993491,0.5518560277333693,0.8336311055883279,0.002668842440471053,0.0078041451051831245,0.0004822592600248754,0.14050697362516076,-0.4679203080832958,9.765877622008324,2455,1603222375.1333356,rc,0.0,0.0,0.0,0.0,0.0,-10000.0
,,193255.32161,0.44261813163757324,29685,1603717507.4570646,/world,vicon/test_obj/test_obj,-0.3512984056134823,0.03504987337180426,1.3813469073505575,0.003411055136441238,-0.0016025343275499287,-0.2013217035684233,0.9795179264612226,1678617.0,0.15,-0.06,0.99,-0.06,0.0,0.0,12.75,174.19,83.72,1678638.0,0.15,-0.05,0.99,-0.06,0.0,0.0,10.8,174.34,85.67,28097,1603222375.2969549,body_FLU,-0.01704991583554526,-0.014887986463245148,0.5518546571214792,0.833633064148973,-0.00043627762352116406,0.005877956748008728,0.0034822013694792986,-0.022830630088225008,-0.5482700062394142,9.95701948928833,2456,1603222375.3108025,rc,0.0,0.0,0.0,0.0,0.0,-10000.0
,,193255.442661,0.563673734664917,29697,1603717507.124749,/world,vicon/test_obj/test_obj,-0.3512961417690521,0.035051022947688464,1.3813380447917671,0.003454017545296099,-0.0016367439811563113,-0.20129448637537242,0.9795233129368651,1678752.0,0.15,-0.06,1.0,-0.06,-0.06,0.06,12.9,173.29,84.92,1678761.0,0.14,-0.05,0.99,0.0,0.06,-0.06,11.55,174.04,85.67,28104,1603222375.4245062,body_FLU,-0.0170034256763824,-0.014922972310631276,0.5518528405447676,0.8336345906902827,0.0006453166715800762,-0.0009044192265719175,0.0007709905039519072,0.05677178576029837,-0.32134782247245314,9.759795670688153,2457,1603222375.413414,rc,0.0,0.0,0.0,0.0,0.0,-10000.0
,,193255.521053,0.6420605182647705,29705,1603717507.2048986,/world,vicon/test_obj/test_obj,-0.35129962801348597,0.035048794322278996,1.381335621741637,0.003430029436980655,-0.0016384153340122092,-0.20131243029372814,0.9795197067453455,1678818.0,0.15,-0.06,0.97,0.0,0.12,0.06,11.85,174.04,83.87,1678838.0,0.15,-0.05,0.99,0.0,0.06,0.06,12.3,174.19,85.82,28112,1603222375.51604,body_FLU,-0.01695030401234571,-0.014940715401494406,0.5518391579252692,0.833644412203135,0.0031722651328891516,0.0038158127572387457,-0.00034793117083609104,0.02575449488684535,-0.4243887677974999,9.806052032947541,2457,1603222375.413414,rc,0.0,0.0,0.0,0.0,0.0,-10000.0
,,193255.621379,0.7423853874206543,29715,1603717507.304847,/world,vicon/test_obj/test_obj,-0.3512906388136968,0.03505304126336896,1.3813622445869569,0.0034379465853891403,-0.0016208794847098432,-0.20131734353419237,0.979518698374517,1678918.0,0.15,-0.05,1.01,-0.06,-0.12,0.06,10.65,173.74,84.77,1678938.0,0.14,-0.05,1.0,0.0,0.06,0.0,12.15,172.99,83.87,28117,1603222375.604789,body_FLU,-0.01692980115491802,-0.014930174818425958,0.5518558646001558,0.8336339582929433,0.0009081850294023752,0.007105730939656496,0.0012847334146499634,-0.00869357373425737,-0.3240364614799619,9.81286830496788,2458,1603222375.5715356,rc,0.0,0.0,0.0,0.0,0.0,-10000.0
,,193255.722239,0.843247652053833,29725,1603717507.4047177,/world,vicon/test_obj/test_obj,-0.351292550980579,0.03505093240504489,1.3813406592929207,0.003440429028578623,-0.0015755372856538882,-0.20133414241217854,0.9795153108703883,1679031.0,0.14,-0.06,0.98,-0.06,-0.06,0.0,12.9,174.04,84.92,1679039.0,0.15,-0.05,0.99,-0.06,-0.06,0.06,11.85,172.54,85.22,28126,1603222375.7074025,body_FLU,-0.016913790406737895,-0.014945378793200386,0.5518456421423509,0.8336407779105466,-0.0012047518976032734,0.006103727500885725,-0.0004478803602978587,-0.014610360402613879,-0.28504444123059514,9.820521130084991,2458,1603222375.5715356,rc,0.0,0.0,0.0,0.0,0.0,-10000.0
,,193255.821441,0.9424519538879395,29735,1603717507.504771,/world,vicon/test_obj/test_obj,-0.3512957189531129,0.03504651487700488,1.381329624768422,0.0034343664933874337,-0.001657375534965557,-0.20126902589218165,0.9795285791897741,1679118.0,0.14,-0.06,1.0,-0.06,-0.18,0.0,12.3,173.44,83.72,1679138.0,0.15,-0.05,0.99,-0.12,-0.06,0.0,9.6,173.14,84.17,28132,1603222375.8044918,body_FLU,-0.016924814484733354,-0.014937862902563877,0.5518543150828064,0.8336349475826024,0.0018659943016245961,0.0016389049123972654,-3.4788972698152065e-06,0.04816861010994762,-0.4124169525280595,9.71637669557333,2459,1603222375.7517843,rc,0.0,0.0,0.0,0.0,0.0,-10000.0
,,193255.920687,1.041698694229126,29745,1603717507.6048684,/world,vicon/test_obj/test_obj,-0.3512887514447409,0.03504573660792275,1.3813370235195426,0.003428612290735223,-0.0016200344693493177,-0.20132142196371597,0.9795178942544058,1679217.0,0.15,-0.06,0.98,-0.18,-0.12,0.0,11.85,174.04,84.62,1679238.0,0.15,-0.05,0.99,-0.06,-0.12,-0.12,10.8,172.99,84.62,28140,1603222375.9070868,body_FLU,-0.01695902434485634,-0.014931968047097679,0.5518788729961556,0.8336181004296898,-0.002405558479949832,0.0035940727684646845,-0.0026253112591803074,0.04300626658089459,-0.3512712449580431,9.803670894384384,2459,1603222375.7517843,rc,0.0,0.0,0.0,0.0,0.0,-10000.0
,,193256.013153,1.134164571762085,29754,1603717507.6948571,/world,vicon/test_obj/test_obj,-0.35129498675687143,0.03505235440198066,1.3813415855756888,0.0034155778604519657,-0.0016812533135816502,-0.20131252832379717,0.9795196645065658,1679320.0,0.14,-0.05,1.0,-0.06,-0.12,0.06,12.3,173.74,85.52,1679329.0,0.14,-0.05,1.0,-0.12,-0.06,-0.06,12.0,173.44,83.42,28149,1603222376.6936219,body_FLU,-0.016961222730065298,-0.0148903115344259,0.5518881740249896,0.8336126432086258,0.0007366511272266507,0.0006462270976044238,-1.9542814698070288e-05,-0.0928876983448863,-0.4805469218529761,9.830229118466377,2459,1603222375.7517843,rc,0.0,0.0,0.0,0.0,0.0,-10000.0
,,193256.12155,1.2425601482391357,29765,1603717507.8047836,/world,vicon/test_obj/test_obj,-0.35128913464149875,0.03505389555547939,1.3813411778627185,0.003462897448187546,-0.0016039406388850806,-0.20131660592996362,0.9795187899639956,1679418.0,0.15,-0.06,1.0,0.0,0.0,0.06,11.7,173.44,85.82,1679438.0,0.14,-0.05,1.01,-0.12,-0.06,-0.18,11.85,172.99,84.32,28155,1603222376.1039617,body_FLU,-0.016972517901746833,-0.014828431424773494,0.5518995430370338,0.833605989453692,-0.0018371300539001822,0.0007630928885191679,-0.0003158708568662405,0.023656430527567864,-0.3634674968495965,9.841241008043289,2460,1603222376.73486,rc,0.0,0.0,0.0,0.0,0.0,-10000.0
,,193256.221275,1.3422863483428955,29775,1603717507.9048517,/world,vicon/test_obj/test_obj,-0.351290394960568,0.0350495744161973,1.3813362716189046,0.003444870908031718,-0.0015602637602886427,-0.2013320297976849,0.9795157539411856,1679518.0,0.15,-0.05,1.0,-0.12,-0.12,-0.06,12.0,174.19,84.77,1679537.0,0.15,-0.05,1.0,0.18,0.06,0.0,11.85,173.29,84.32,28165,1603222376.2149162,body_FLU,-0.016918149763868715,-0.01471280363042659,0.551907676154474,0.8336037587605204,0.0004532205930445343,0.006946067325770855,0.0005690634716302156,-0.018339939713012426,-0.43245815341919663,9.726979071378707,2460,1603222376.73486,rc,0.0,0.0,0.0,0.0,0.0,-10000.0
,,193256.320457,1.4414687156677246,29785,1603717508.4733844,/world,vicon/test_obj/test_obj,-0.35129620872961537,0.03505033086663937,1.381344951946775,0.0034642173094206626,-0.0016815600264508603,-0.20128627563284499,0.9795248882984898,1679618.0,0.14,-0.05,0.99,0.0,0.0,0.12,10.05,175.69,83.57,1679638.0,0.14,-0.05,1.0,0.06,-0.06,0.0,12.0,172.09,83.72,28172,1603222376.300906,body_FLU,-0.016884267321856945,-0.014648452464100962,0.5519202702563091,0.8335972406609884,-0.0021558436565101147,0.0033726459369063377,0.004958248231559992,-0.08494280804973096,-0.4183392752632499,9.818066384196282,2460,1603222376.73486,rc,0.0,0.0,0.0,0.0,0.0,-10000.0
,,193256.420499,1.5415112972259521,29795,1603717508.104747,/world,vicon/test_obj/test_obj,-0.35130593871658694,0.03504671917817321,1.3813321563031118,0.00345611696812835,-0.0017436075242714718,-0.2012811414909244,0.9795258634504831,1679718.0,0.14,-0.06,0.99,-0.06,-0.18,-0.06,10.95,173.74,85.07,1679738.0,0.14,-0.06,1.0,0.0,-0.06,0.06,11.7,173.14,84.17,28177,1603222376.4035187,body_FLU,-0.016860473354758588,-0.014557444761594084,0.5519164180345086,0.8336018670469879,4.1784835048019886e-05,0.004487937781959772,-0.0011430131271481514,0.003508698002435267,-0.466507711943239,9.77872560542822,2462,1603222376.3730202,rc,0.0,0.0,0.0,0.0,0.0,-10000.0
,,193256.554863,1.6758761405944824,29808,1603717508.2347293,/world,vicon/test_obj/test_obj,-0.3512972541158717,0.03504998864526047,1.3813440384321685,0.0034118473641082895,-0.0016665427713128038,-0.20127613056555127,0.9795271824698458,1679818.0,0.15,-0.06,0.99,-0.06,-0.06,0.06,10.65,172.69,84.47,1679872.0,0.14,-0.05,1.0,-0.12,-0.06,0.0,12.0,173.14,86.12,28185,1603222376.5477543,body_FLU,-0.016843646816003446,-0.014500535878119553,0.5519095460816755,0.8336077488633992,0.0012820570264011621,0.002315365243703127,-0.0007102283998392522,0.04483574270177633,-0.3263718145340681,9.68437678706646,2462,1603222376.3730202,rc,0.0,0.0,0.0,0.0,0.0,-10000.0
,,193256.621478,1.7424886226654053,29815,1603717508.304803,/world,vicon/test_obj/test_obj,-0.35128743234089915,0.03505395061678282,1.3813373160328328,0.003412513052684841,-0.0016549815609963573,-0.20129755917299952,0.9795227962950586,1679918.0,0.15,-0.06,0.99,0.0,0.0,-0.18,11.25,173.14,84.77,1679938.0,0.15,-0.05,0.99,-0.06,-0.18,0.0,10.2,173.74,85.07,28189,1603222376.6059515,body_FLU,-0.016865372427794893,-0.01446997394402953,0.5518962302848112,0.8336166565420496,-0.0013419630704447627,0.0014906877186149359,-0.0033398896921426058,0.05586815178114921,-0.40483583613485097,9.889909470677376,2462,1603222376.3730202,rc,0.0,0.0,0.0,0.0,0.0,-10000.0
,,193256.721211,1.8422205448150635,29825,1603717508.4049668,/world,vicon/test_obj/test_obj,-0.35130168827762126,0.03505266761603201,1.3813463600616631,0.0034405913461650335,-0.0017197392848666566,-0.20130023209322753,0.9795220372136574,1680018.0,0.14,-0.06,0.99,0.0,-0.06,0.0,11.7,174.49,84.47,1680038.0,0.15,-0.05,0.99,-0.06,-0.06,0.0,12.3,174.49,84.17,28195,1603222376.7169356,body_FLU,-0.01691536256654042,-0.014465484926056059,0.551924317045495,0.833597126020094,0.0038633705116808414,0.002623455598950386,-0.0025458773598074913,0.12098780603706837,-0.4905924962125719,9.807677235960961,2462,1603222376.3730202,rc,0.0,0.0,0.0,0.0,0.0,-10000.0
,,193256.841962,1.962975263595581,29837,1603717508.524791,/world,vicon/test_obj/test_obj,-0.35129684234272085,0.03504463550798645,1.3813402821398753,0.0034527693276343104,-0.001639807699192272,-0.20132645010227027,0.9795167430441901,1680151.0,0.14,-0.05,1.0,0.0,0.0,0.0,12.6,174.04,86.27,1680159.0,0.14,-0.05,0.99,-0.06,-0.12,-0.06,12.3,172.39,84.17,28200,1603222376.825071,body_FLU,-0.01699571789671914,-0.01443337147653205,0.5519445670112416,0.833582640358932,-0.0002329822746105492,0.00525893596932292,0.004762763623148203,0.06927643262967467,-0.284063375338912,9.919748478412629,2463,1603222376.752939,rc,0.0,0.0,0.0,0.0,0.0,-10000.0
,,193256.921431,2.0424423217773438,29845,1603717508.6047676,/world,vicon/test_obj/test_obj,-0.35129434259624354,0.035043628731659164,1.381342036682419,0.0034456537508043305,-0.0016017825931408977,-0.20131188802913536,0.9795198239448238,1680218.0,0.14,-0.06,0.99,-0.06,-0.06,0.0,10.65,172.69,83.42,1680238.0,0.15,-0.06,0.99,-0.12,-0.12,0.06,10.65,173.44,84.47,28203,1603222376.8971713,body_FLU,-0.017020792363885106,-0.014411642776115442,0.5519408685348163,0.8335849535715193,-0.00028191180899739265,0.00565326027572155,-0.00027147692162543535,0.15134621824230998,-0.49722445782646535,9.67584885263443,2464,1603222376.911025,rc,0.0,0.0,0.0,0.0,0.0,-10000.0
,,193257.020561,2.1415741443634033,29855,1603717508.7047918,/world,vicon/test_obj/test_obj,-0.3512861726397622,0.03504833506582379,1.3813418334823848,0.0034511851901659267,-0.0016186652038025445,-0.20131555806197035,0.9795190224421059,1680318.0,0.15,-0.06,0.99,0.12,0.0,0.0,10.95,173.44,84.17,1680338.0,0.15,-0.06,0.99,-0.18,-0.12,0.0,12.6,173.59,83.87,28209,1603222377.5365193,body_FLU,-0.017032867738550943,-0.014421298104773139,0.5519626362447042,0.8335701264844911,-0.001080826623365283,0.007400062866508961,0.002397397067397833,-0.0322662284639664,-0.34595673033222557,9.831481611371041,2464,1603222376.911025,rc,0.0,0.0,0.0,0.0,0.0,-10000.0
,,193257.123825,2.24483585357666,29865,1603717508.804897,/world,vicon/test_obj/test_obj,-0.3512985655479993,0.03504970301838249,1.3813390255841493,0.0034706855166068027,-0.0017174733026487838,-0.20129348161711233,0.9795233222777091,1680433.0,0.15,-0.06,1.0,-0.06,-0.06,0.0,12.15,172.54,85.67,1680442.0,0.15,-0.06,0.99,-0.12,-0.12,0.0,11.25,175.24,87.17,28215,1603222377.1162486,body_FLU,-0.017033206771455783,-0.014435474087824904,0.5519574854530932,0.8335732848449733,0.0013932660222053528,0.006958366837352514,0.003700532717630267,-0.044171474013011906,-0.4413425137996674,9.871798563480377,2464,1603222376.911025,rc,0.0,0.0,0.0,0.0,0.0,-10000.0
,,193257.221452,2.342472791671753,29875,1603717508.90476,/world,vicon/test_obj/test_obj,-0.35129013812220805,0.03504572001724824,1.3813380759862761,0.0034755072170028736,-0.0016691124900382256,-0.20128940009255772,0.9795242275326621,1680518.0,0.15,-0.05,1.0,0.06,0.0,0.0,10.2,174.19,84.77,1680538.0,0.16,-0.06,0.98,-0.06,-0.18,-0.06,11.85,174.04,84.32,28222,1603222377.2161248,body_FLU,-0.01700482630253883,-0.01447724793775937,0.5519735437185868,0.8335625064800567,-0.0008960758568719029,0.002521379617974162,0.005198352504521608,0.1417517260769382,-0.438870570961386,9.887332045912743,2464,1603222376.911025,rc,0.0,0.0,0.0,0.0,0.0,-10000.0
,,193257.320717,2.441728353500366,29885,1603717509.5012355,/world,vicon/test_obj/test_obj,-0.3512807388871039,0.035050289958387146,1.3813354736471393,0.0034485840226383783,-0.0016508974687425325,-0.20130337861942055,0.9795214809090165,1680618.0,0.15,-0.06,0.99,0.06,0.06,-0.06,12.6,172.54,84.62,1680638.0,0.15,-0.06,1.0,0.0,0.0,0.0,10.8,172.24,84.92,28227,1603222377.3048604,body_FLU,-0.016953888808478503,-0.014533661807233552,0.5519428342929023,0.8335828968983592,0.002366693690419197,0.007847586646676064,-0.0022189419250935316,0.0708849133439362,-0.4189823535494506,9.795141207396984,2466,1603222377.3131657,rc,0.0,0.0,0.0,0.0,0.0,-10000.0
,,193257.412246,2.5332560539245605,29894,1603717509.9501016,/world,vicon/test_obj/test_obj,-0.35129540340472165,0.035050332854908384,1.3813336641235447,0.0034026375220413763,-0.001649095308793323,-0.20128350726224775,0.979525728220941,1680721.0,0.16,-0.06,1.01,-0.06,-0.06,0.06,13.2,175.09,84.92,1680730.0,0.15,-0.06,0.99,0.0,0.06,0.06,12.3,173.74,86.12,28233,1603222377.4047084,body_FLU,-0.016868472960505566,-0.014531264555903058,0.5519213473883114,0.8335988983122866,-0.0013778506545349956,0.002004831563681364,0.0003917611320503056,-0.019023080319631847,-0.5083427786305547,9.864017217636109,2467,1603222377.3519824,rc,0.0,0.0,0.0,0.0,0.0,-10000.0
,,193257.521745,2.6427574157714844,29905,1603717509.2049615,/world,vicon/test_obj/test_obj,-0.35130157427921904,0.03504624330956428,1.3813310700952064,0.0034691993908453436,-0.001757004014608064,-0.2012857636024101,0.9795248434641532,1680818.0,0.15,-0.05,0.98,0.0,0.0,0.06,12.0,173.14,85.07,1680838.0,0.15,-0.04,1.0,-0.12,-0.12,0.0,10.65,172.69,83.72,28241,1603222377.504519,body_FLU,-0.01679760016190334,-0.014500432061177924,0.5518901221238462,0.8336215395495524,0.002229567850008607,0.00281220069155097,0.0033027827739715576,0.05744394551217556,-0.3465869565457106,9.823482948660851,2467,1603222377.3519824,rc,0.0,0.0,0.0,0.0,0.0,-10000.0
,,193257.620502,2.74151349067688,29915,1603717509.30474,/world,vicon/test_obj/test_obj,-0.351290246158227,0.03505002191402821,1.3813409477700005,0.003436259901639582,-0.001638050027119591,-0.20127560132618527,0.979527253944871,1680918.0,0.15,-0.06,0.99,-0.06,-0.06,0.0,10.5,174.04,83.57,1680938.0,0.15,-0.06,0.98,-0.06,-0.12,0.0,13.2,172.99,83.87,28247,1603222377.6043854,body_FLU,-0.016764168449643145,-0.014513649932812324,0.5518894204602763,0.8336224470381302,-0.0022052107378840446,0.001459877472370863,0.0008168689673766494,0.0737457135329023,-0.4961954522430897,9.900116353154182,2469,1603222377.5933142,rc,0.0,0.0,0.0,0.0,0.0,-10000.0
,,193257.721396,2.8424019813537598,29925,1603717509.4047477,/world,vicon/test_obj/test_obj,-0.35128583903080335,0.03504592806911379,1.3813487220642446,0.0034617964627336843,-0.0015804323942743164,-0.2013183428419249,0.9795184750856305,1681019.0,0.14,-0.05,1.0,-0.06,-0.06,0.0,11.25,174.49,84.17,1681038.0,0.14,-0.05,0.99,-0.06,-0.06,-0.06,10.65,173.74,85.52,28254,1603222377.7181199,body_FLU,-0.016732885978596613,-0.014529548569376018,0.551883610581916,0.8336266449174147,-0.0017222962342202663,0.004136328585445881,0.0014606884215027094,0.07027400175109506,-0.46036927722394466,9.715901753067971,2471,1603222377.6931252,rc,0.0,0.0,0.0,0.0,0.0,-10000.0
,,193257.820748,2.941760540008545,29935,1603717509.5047634,/world,vicon/test_obj/test_obj,-0.3513012501300218,0.03504601415925847,1.3813334647513076,0.003463918304033621,-0.001714427980386986,-0.20130058644184284,0.9795218914883185,1681118.0,0.14,-0.06,0.99,-0.06,-0.06,0.06,11.85,172.99,84.32,1681138.0,0.15,-0.06,1.0,0.06,0.0,0.0,10.5,173.29,85.67,28260,1603222377.8040426,body_FLU,-0.0167674318881906,-0.014542302562928733,0.5518705935638207,0.8336343458756719,-0.0035594520159065723,0.0009919855510815978,-0.0014240894233807921,0.19479693103954196,-0.3001680447757244,9.739698534071445,2473,1603222377.792958,rc,0.0,0.0,0.0,0.0,0.0,-10000.0
,,193257.948767,3.0697872638702393,29948,1603717509.6347497,/world,vicon/test_obj/test_obj,-0.35129926479623286,0.0350482358472845,1.3813369999076857,0.0034404478545048056,-0.0016448457830903604,-0.20128403108076226,0.9795254956522516,1681218.0,0.16,-0.06,0.99,0.0,-0.06,0.0,10.65,173.44,83.72,1681266.0,0.15,-0.05,0.99,-0.06,-0.06,0.06,13.2,174.04,85.22,28271,1603222377.9372516,body_FLU,-0.016753048530922132,-0.01454851530529281,0.5519040582818073,0.8336123718608089,0.004973269999027252,0.005524188280105591,0.0011453578481450677,0.08928331264480949,-0.38102014213800434,9.826713492393495,2473,1603222377.792958,rc,0.0,0.0,0.0,0.0,0.0,-10000.0
,,193258.02036,3.141373634338379,29955,1603717509.7049365,/world,vicon/test_obj/test_obj,-0.3512852484651239,0.03504846876120671,1.381330384411073,0.003448146484699047,-0.0016391299985123915,-0.20129687387818626,0.9795228389912802,1681318.0,0.15,-0.06,1.0,-0.06,-0.12,-0.06,11.25,172.69,84.77,1681338.0,0.16,-0.05,1.0,0.0,0.0,-0.06,11.1,172.24,84.62,28277,1603222378.1067884,body_FLU,-0.016784190912222836,-0.014537303050584573,0.5518924499850026,0.8336196263314516,-0.0004529113066382706,0.0033657243475317955,-0.0022501745261251926,0.05230225840397179,-0.38139993549138307,9.830653236865997,2474,1603222378.1213772,rc,0.0,0.0,0.0,0.0,0.0,-10000.0
,,193258.121104,3.2421178817749023,29965,1603717509.8049123,/world,vicon/test_obj/test_obj,-0.35129598366619436,0.035050655549903297,1.3813432714315517,0.0034393077439716204,-0.001596646539453946,-0.20133029720421716,0.9795160709808348,1681418.0,0.15,-0.06,1.0,-0.06,-0.06,0.0,10.05,173.29,84.32,1681438.0,0.15,-0.05,1.01,0.0,-0.06,-0.12,12.15,174.04,85.22,28287,1603222378.1147978,body_FLU,-0.016811784337922533,-0.014569518328411094,0.5518660395465128,0.8336359921682245,-0.002667346503585577,-0.0003962425980716944,9.36753349378705e-05,0.01668106846790761,-0.4385636547021568,9.6111415874362,2474,1603222378.1213772,rc,0.0,0.0,0.0,0.0,0.0,-10000.0
,,193258.242298,3.3633129596710205,29977,1603717509.9247506,/world,vicon/test_obj/test_obj,-0.3512916763016877,0.0350439661638421,1.3813411148575376,0.003446878012463932,-0.0016635391666433763,-0.20129084011382747,0.9795240422550524,1681552.0,0.14,-0.06,1.0,-0.06,-0.12,0.06,13.05,174.49,87.17,1681560.0,0.15,-0.04,0.99,-0.06,-0.12,-0.06,11.25,173.74,84.47,28295,1603222378.2340014,body_FLU,-0.016764562677103568,-0.014613379882656137,0.5518870902518556,0.8336222394945992,-0.0015985866775736213,0.006675282027572393,-0.0009205731912516057,0.1676666254196316,-0.44237798193097116,9.780593829452991,2475,1603222378.1730256,rc,0.0,0.0,0.0,0.0,0.0,-10000.0
,,193258.321165,3.4421775341033936,29985,1603717510.47253,/world,vicon/test_obj/test_obj,-0.35128847019507253,0.03505012106053329,1.3813481773904825,0.0034126313568077155,-0.0015894856106028006,-0.201323426718625,0.9795175880692427,1681618.0,0.13,-0.06,1.0,-0.06,-0.12,0.0,11.85,173.29,85.67,1681638.0,0.15,-0.05,0.98,-0.06,-0.06,0.0,12.9,174.64,82.52,28299,1603222378.3144472,body_FLU,-0.01676068560884152,-0.01463216290972841,0.5518731625967717,0.8336312084080957,0.0006487270002253354,0.004045309033244848,0.002903521526604891,0.09409704370144754,-0.5106270885095,9.880911851406097,2475,1603222378.1730256,rc,0.0,0.0,0.0,0.0,0.0,-10000.0
,,193258.420566,3.54158616065979,29995,1603717510.104671,/world,vicon/test_obj/test_obj,-0.35129088284708465,0.03504613764434695,1.3813405672766583,0.0034663478262735967,-0.0016817507522817168,-0.20131446081447002,0.979519088131586,1681718.0,0.14,-0.05,0.99,-0.06,-0.12,-0.06,12.9,174.34,85.67,1681738.0,0.14,-0.05,0.99,0.0,0.06,0.12,11.7,173.44,84.17,28303,1603222378.403243,body_FLU,-0.016717600021590662,-0.01467646178929787,0.5518803446320864,0.8336265402010873,0.002822037786245346,0.003323431359604001,-0.0015565960202366114,0.047701627126894894,-0.42164258655533193,9.949649409770966,2476,1603222378.353268,rc,0.0,0.0,0.0,0.0,0.0,-10000.0
,,193258.521104,3.642122507095337,30005,1603717510.2047198,/world,vicon/test_obj/test_obj,-0.351297773011873,0.035050325241361556,1.3813413736254052,0.003415116856608367,-0.0016384540630949031,-0.20131673255475702,0.9795188745698652,1681830.0,0.14,-0.05,1.0,-0.06,-0.12,0.0,12.6,171.94,85.97,1681838.0,0.14,-0.05,0.99,-0.06,-0.18,-0.06,12.3,173.74,84.17,28309,1603222378.5141208,body_FLU,-0.016703250993498286,-0.01473646313171626,0.5519074867861287,0.8336077999215429,-0.0016851041000336409,0.008090902119874954,0.0018504171166568995,0.11965085274260491,-0.47792761831730607,9.89711831510067,2476,1603222378.353268,rc,0.0,0.0,0.0,0.0,0.0,-10000.0
,,193258.620357,3.7413690090179443,30015,1603717510.3046582,/world,vicon/test_obj/test_obj,-0.3512988127688516,0.035046657482887114,1.3813394899031781,0.003448864668890067,-0.0016745819124605983,-0.20129053230062993,0.9795240797009755,1681918.0,0.13,-0.06,1.0,-0.18,-0.12,0.0,11.55,174.04,85.22,1681938.0,0.14,-0.05,0.98,-0.24,-0.18,0.06,11.25,174.94,83.42,28313,1603222378.6029098,body_FLU,-0.016681726884455676,-0.014749161051737306,0.5519147314965367,0.8336032098027983,0.0010198252275586128,0.002693918766453862,-0.003922717180103064,0.04331413214094937,-0.43621884515136483,9.928604724884034,2477,1603222378.5335562,rc,0.0,0.0,0.0,0.0,0.0,-10000.0
,,193258.720735,3.841749906539917,30025,1603717510.4046395,/world,vicon/test_obj/test_obj,-0.35128756525588156,0.035046140252858154,1.381327585329495,0.0034152865867304693,-0.0016233232044530535,-0.20130568028742918,0.9795211706355916,1682019.0,0.14,-0.05,1.0,-0.06,-0.12,-0.06,11.7,174.49,83.42,1682038.0,0.14,-0.05,0.99,-0.06,-0.06,0.06,11.7,175.24,84.77,28317,1603222378.6971788,body_FLU,-0.0166715028975541,-0.014748019178783687,0.5519191361640808,0.8336005182683933,-0.0008004775736480951,0.0068689435720443726,0.0020029302686452866,0.08471542311832309,-0.4688981974683702,9.778677118062973,2478,1603222378.7110155,rc,0.0,0.0,0.0,0.0,0.0,-10000.0
,,193258.810252,3.9312613010406494,30034,1603717510.4948251,/world,vicon/test_obj/test_obj,-0.3512906115023859,0.03505080015526941,1.3813353017923924,0.00344168997728255,-0.0016649753187922987,-0.20131700273022474,0.9795186813119017,1682120.0,0.15,-0.05,0.99,0.0,0.12,-0.06,12.3,173.44,85.52,1682128.0,0.14,-0.04,1.0,-0.06,-0.06,0.06,10.2,173.44,84.77,28323,1603222378.802594,body_FLU,-0.016701021148114146,-0.014727617007602188,0.5519104818216048,0.8336060179997092,0.00039128109347075224,0.003595373360440135,-0.0019080054480582476,0.024565869846381247,-0.45396416199579837,9.952711708188057,2478,1603222378.7110155,rc,0.0,0.0,0.0,0.0,0.0,-10000.0
,,193258.920057,4.0410661697387695,30045,1603717510.604597,/world,vicon/test_obj/test_obj,-0.3512986045791956,0.03504867744107097,1.3813371456420986,0.0034128250016606976,-0.001699768567419013,-0.20128327684270925,0.9795256535057091,1682219.0,0.15,-0.05,1.0,-0.06,-0.06,0.12,11.55,174.04,83.87,1682238.0,0.15,-0.06,0.98,0.06,0.0,0.0,11.25,173.74,86.27,28329,1603222378.9162674,body_FLU,-0.016691448304817304,-0.014680071430827555,0.5519355152414364,0.8335904738367897,0.00029996008379384875,0.0030790006276220083,-0.0003471765958238393,-0.040200890955515205,-0.42587427754327656,9.812523635745048,2478,1603222378.7110155,rc,0.0,0.0,0.0,0.0,0.0,-10000.0
,,193259.021173,4.142184257507324,30055,1603717510.7047641,/world,vicon/test_obj/test_obj,-0.3513024656278367,0.03504398181295661,1.3813384801027697,0.003405913829921574,-0.001689499869318622,-0.2012988043179024,0.979522504448651,1682318.0,0.15,-0.05,0.99,0.0,0.0,-0.06,10.95,173.14,84.77,1682339.0,0.14,-0.05,0.99,-0.12,-0.18,0.0,12.0,173.44,84.47,28333,1603222379.500314,body_FLU,-0.016703937133184032,-0.0146336589331013,0.5519432258951767,0.8335859343216548,0.0014793594600632787,0.007203397341072559,0.002924413653090596,0.03441359713487327,-0.4153916231766343,9.752076248466969,2480,1603222379.1333444,rc,0.0,0.0,0.0,0.0,0.0,-10000.0
,,193259.120447,4.24146032333374,30065,1603717510.8048685,/world,vicon/test_obj/test_obj,-0.35129235237153894,0.03504774413355916,1.3813357460447393,0.0034530297948064926,-0.0016224910489606658,-0.20130640267778463,0.9795208912264004,1682418.0,0.14,-0.05,0.99,0.0,0.0,0.0,10.65,172.69,84.77,1682438.0,0.15,-0.05,1.0,0.06,0.0,-0.12,12.15,173.59,83.87,28339,1603222379.1048417,body_FLU,-0.016681198966572098,-0.01458663178644105,0.5519639103010513,0.8335735177531358,-0.002756329718977213,0.006533322390168905,0.002430964959785342,0.16856334958411753,-0.34002684970200064,9.707796768665315,2481,1603222379.521405,rc,0.0,0.0,0.0,0.0,0.0,-10000.0
,,193259.22058,4.3415913581848145,30075,1603717510.904902,/world,vicon/test_obj/test_obj,-0.3513012994359996,0.03505242722861525,1.3813345397186232,0.0034283143339856573,-0.0016802853006485476,-0.20127998322000726,0.9795263098340388,1682518.0,0.15,-0.05,1.0,-0.12,-0.06,0.0,10.05,172.99,85.22,1682538.0,0.14,-0.05,0.99,-0.12,-0.18,0.0,10.95,173.74,84.47,28347,1603222379.204682,body_FLU,-0.01667216453574189,-0.014545102343891465,0.551958220776498,0.8335781915601809,0.0020299169700592756,0.004725717008113861,-0.0027422900311648846,0.04559341255109757,-0.41009251643344763,9.803401000857354,2481,1603222379.521405,rc,0.0,0.0,0.0,0.0,0.0,-10000.0
,,193259.354381,4.475440740585327,30088,1603717511.349429,/world,vicon/test_obj/test_obj,-0.3512965940245534,0.03505243104951529,1.3813327458152873,0.0034407067461307106,-0.001677493931556845,-0.20128933907275542,0.9795243486135758,1682619.0,0.14,-0.05,0.99,-0.06,-0.12,-0.06,11.1,172.99,84.92,1682672.0,0.15,-0.06,0.99,-0.12,-0.12,0.0,13.05,174.49,86.87,28356,1603222379.3488982,body_FLU,-0.016665766315575096,-0.014499512660890296,0.5519234914141843,0.8336021089170109,0.0009479003492742777,0.0014420578954741359,-0.0014015340711921453,-0.01920566555438563,-0.46984753480553626,9.793692428290845,2483,1603222379.2934494,rc,0.0,0.0,0.0,0.0,0.0,-10000.0
,,193259.421122,4.542132616043091,30095,1603717511.1046064,/world,vicon/test_obj/test_obj,-0.35128629221705093,0.0350495634765205,1.3813454240230938,0.0034241854303342346,-0.0016271330278635188,-0.20132194430792952,0.9795177906155269,1682718.0,0.15,-0.05,1.01,-0.06,-0.06,0.0,12.15,172.99,84.92,1682738.0,0.14,-0.05,1.0,-0.06,-0.06,-0.06,12.15,172.54,84.32,28360,1603222379.4182665,body_FLU,-0.016656151403946395,-0.014459886563090645,0.5519379044711994,0.8335934464167365,0.0010666607413440943,0.0012187629472464323,0.00221991422586143,0.006732094595208764,-0.4152582829222083,9.771996376991272,2485,1603222379.3932946,rc,0.0,0.0,0.0,0.0,0.0,-10000.0
,,193259.520435,4.6414430141448975,30105,1603717511.2047799,/world,vicon/test_obj/test_obj,-0.3512926710919852,0.035045792617053914,1.3813520390407115,0.0034766277105095053,-0.0016716172174081859,-0.20130911716454475,0.9795201672768522,1682818.0,0.15,-0.05,1.0,-0.06,-0.12,0.0,11.1,173.29,84.32,1682838.0,0.15,-0.06,1.01,-0.06,-0.06,0.06,11.55,173.59,84.92,28366,1603222379.5042331,body_FLU,-0.016665009969803964,-0.014421984145948554,0.5519255870880696,0.8336020814114431,0.0002101602149195969,0.007708654273301363,-0.0007212577620521188,0.06851576883159578,-0.4574245460629463,9.880661820173264,2487,1603222379.4931276,rc,0.0,0.0,0.0,0.0,0.0,-10000.0
,,193259.641211,4.762222051620483,30117,1603717511.3248549,/world,vicon/test_obj/test_obj,-0.35129712714131167,0.03505238695159036,1.381332058417785,0.0034367484201786344,-0.0017128883167620624,-0.20128177431816047,0.9795258557594301,1682951.0,0.15,-0.05,1.0,-0.06,-0.06,-0.06,11.7,173.14,86.42,1682960.0,0.15,-0.06,1.01,-0.06,-0.12,0.0,13.2,173.59,86.72,28377,1603222379.6207159,body_FLU,-0.016625461421584442,-0.014333932395802057,0.5519100805876354,0.8336146563972721,-0.0015256134793162346,0.0026161079294979572,0.005518871359527111,-0.006708512684796005,-0.4553784741796553,9.818429747343064,2487,1603222379.4931276,rc,0.0,0.0,0.0,0.0,0.0,-10000.0
,,193259.720411,4.841425657272339,30125,1603717511.4049814,/world,vicon/test_obj/test_obj,-0.35129327792173265,0.035050358158795106,1.3813368205789225,0.0034079553648755415,-0.0016314798220097013,-0.2013031438602135,0.9795217038870633,1683018.0,0.15,-0.06,0.99,0.0,0.0,0.0,12.6,172.54,84.92,1683038.0,0.15,-0.05,0.99,-0.12,-0.06,-0.06,11.25,173.44,85.52,28381,1603222379.7039006,body_FLU,-0.016607323746117897,-0.014269882659357852,0.5519053193578508,0.8336192690379635,0.004691228736191988,0.006561320275068283,0.0003517948789522052,0.10057143963407725,-0.5116817252151669,9.741120440661907,2488,1603222379.6734147,rc,0.0,0.0,0.0,0.0,0.0,-10000.0
,,193259.820318,4.941331148147583,30135,1603717511.504659,/world,vicon/test_obj/test_obj,-0.35129931020876615,0.03504731657003008,1.3813423457746008,0.003416399963511313,-0.0016456668391314844,-0.2013130413309138,0.979519616639729,1683118.0,0.13,-0.06,0.98,-0.24,-0.06,-0.06,11.55,173.59,83.27,1683138.0,0.15,-0.06,1.0,-0.12,-0.18,0.06,11.25,174.49,83.42,28387,1603222379.8037498,body_FLU,-0.016628690530769624,-0.014230098957098269,0.5519100207246463,0.8336164105622103,-0.0020228028297424316,0.007420200388878584,0.0065071918070316315,0.05571472103521228,-0.30520572867617013,9.85832258105278,2488,1603222379.6734147,rc,0.0,0.0,0.0,0.0,0.0,-10000.0
,,193259.923074,5.044110536575317,30145,1603717511.6047907,/world,vicon/test_obj/test_obj,-0.35129534202752005,0.03505036539136107,1.3813397441396238,0.003498660332130017,-0.0016604606624650796,-0.2013061677520608,0.9795207139572129,1683233.0,0.14,-0.05,1.0,-0.06,-0.18,-0.06,12.3,174.94,86.42,1683241.0,0.15,-0.05,0.98,-0.12,-0.12,-0.06,10.65,174.49,83.72,28393,1603222379.903589,body_FLU,-0.01668671450233001,-0.014199753525846109,0.5518914820172356,0.8336280421361449,0.0043149529956281185,0.00932171568274498,0.0009888693457469344,0.08253435883205384,-0.49745773024857043,9.822509696245193,2488,1603222379.6734147,rc,0.0,0.0,0.0,0.0,0.0,-10000.0
,,193300.020348,5.1413609981536865,30155,1603717511.70474,/world,vicon/test_obj/test_obj,-0.3512964988364686,0.03505251150828334,1.3813422610816526,0.003396806123993338,-0.0015873230912398382,-0.20131393102448641,0.979519598215895,1683318.0,0.15,-0.05,1.0,0.0,0.0,-0.12,12.3,174.19,85.52,1683338.0,0.15,-0.05,0.98,-0.12,-0.06,0.0,10.95,174.19,84.17,28400,1603222380.3467572,body_FLU,-0.01672771338794871,-0.014187633415404438,0.551883263512515,0.8336328677047568,-0.00363187026232481,0.0066457088105380535,-0.0023856372572481632,-0.03577065004874021,-0.5006710405200719,9.89736600959301,2488,1603222379.6734147,rc,0.0,0.0,0.0,0.0,0.0,-10000.0
,,193300.121082,5.242089033126831,30165,1603717511.8047197,/world,vicon/test_obj/test_obj,-0.35129453051168846,0.035050283773564596,1.381338541077454,0.003417946518399748,-0.0016764422136372398,-0.20129799063877596,0.9795226521872238,1683419.0,0.15,-0.05,0.99,-0.18,-0.12,-0.06,10.65,173.74,85.52,1683439.0,0.15,-0.06,0.99,-0.18,-0.12,-0.06,12.75,173.14,83.72,28406,1603222380.1143715,body_FLU,-0.016758414575475913,-0.014156971908282757,0.5518878078295982,0.833629763897826,0.0008512536296620965,0.006433356087654829,0.002116725780069828,-0.004589203155599534,-0.5085934670716524,9.72764270567894,2488,1603222379.6734147,rc,0.0,0.0,0.0,0.0,0.0,-10000.0
,,193300.210661,5.3316709995269775,30174,1603717511.894684,/world,vicon/test_obj/test_obj,-0.35129661141767665,0.03505137900917521,1.3813485880891772,0.0034541646610001748,-0.0016539605036180898,-0.20131153235564342,0.9795197803524797,1683520.0,0.15,-0.06,0.99,0.0,-0.12,0.0,12.3,174.94,83.72,1683528.0,0.15,-0.05,0.99,0.0,0.06,-0.06,11.7,173.14,83.72,28410,1603222380.2031517,body_FLU,-0.016818197962504826,-0.01412999123378817,0.5518763045288199,0.8336366331109978,-0.0034542810171842575,0.00926942378282547,2.070888876914978e-05,0.18096448615193367,-0.38235434793680906,9.783381560862065,2489,1603222380.1531696,rc,0.0,0.0,0.0,0.0,0.0,-10000.0
,,193300.320938,5.441948890686035,30185,1603717512.4777288,/world,vicon/test_obj/test_obj,-0.3512935026313925,0.03504865474741069,1.381346096471199,0.0034482137113469413,-0.0016574259749155898,-0.20130523841971448,0.9795210889746685,1683619.0,0.15,-0.06,1.0,0.06,0.06,0.12,10.05,173.29,85.67,1683639.0,0.15,-0.05,0.99,0.0,0.0,0.0,11.7,173.14,84.47,28415,1603222380.3168283,body_FLU,-0.016848610435223347,-0.01413005819571536,0.551847865077497,0.8336548443997651,0.0012646997347474098,0.0036350921727716923,-0.002905720379203558,0.1157499657087028,-0.40395291334390643,9.833665295362472,2489,1603222380.1531696,rc,0.0,0.0,0.0,0.0,0.0,-10000.0
,,193300.420332,5.541342258453369,30195,1603717512.1047318,/world,vicon/test_obj/test_obj,-0.351291944261581,0.03505044905863827,1.3813417368851288,0.0034546512360490167,-0.0015630232465844622,-0.20131750147391161,0.9795187011708707,1683718.0,0.14,-0.04,1.0,-0.06,-0.18,0.0,10.5,173.29,85.22,1683738.0,0.15,-0.05,0.98,-0.18,-0.06,0.0,11.1,171.94,83.87,28420,1603222380.402808,body_FLU,-0.016885341975235536,-0.014152490480452048,0.5518366526366317,0.8336611428190578,-0.0008211571839638054,0.006393308751285076,0.001828167587518692,0.008077710259705781,-0.4284605381079018,9.9334406093359,2490,1603222380.3334856,rc,0.0,0.0,0.0,0.0,0.0,-10000.0
,,193300.520951,5.641958236694336,30205,1603717512.2047365,/world,vicon/test_obj/test_obj,-0.3512960473427727,0.03504645482845226,1.3813315600487477,0.003430775024113334,-0.0016936055793242586,-0.20130012601800118,0.9795221389779878,1683818.0,0.15,-0.06,1.0,0.06,0.06,-0.12,10.65,173.44,84.77,1683838.0,0.16,-0.06,0.99,-0.06,-0.12,0.12,10.8,172.99,85.67,28426,1603222380.5165334,body_FLU,-0.016919151646812482,-0.01414787945932918,0.5518415307006694,0.8336573065764484,0.0012229953426867723,0.007118189241737127,0.003548963461071253,0.024711980022490025,-0.438713315628469,9.868556336045266,2490,1603222380.3334856,rc,0.0,0.0,0.0,0.0,0.0,-10000.0
,,193300.621095,5.742103576660156,30215,1603717512.3048038,/world,vicon/test_obj/test_obj,-0.35129528097770696,0.03505045533969415,1.3813506120318357,0.003421546767950515,-0.0016267272795767664,-0.2013063936896324,0.9795209965262344,1683918.0,0.15,-0.05,1.0,-0.06,-0.12,0.06,11.55,173.29,84.92,1683938.0,0.14,-0.05,1.0,-0.12,-0.12,0.0,12.3,173.14,84.47,28433,1603222380.6163504,body_FLU,-0.016949429258655595,-0.014177320551021761,0.5518321128579532,0.8336624254748001,0.0004053183365613222,0.005536693148314953,0.0036572348326444626,-0.017751747444737703,-0.4530134737305343,9.769947639763355,2490,1603222380.3334856,rc,0.0,0.0,0.0,0.0,0.0,-10000.0
,,193300.752632,5.873642921447754,30228,1603717512.4348817,/world,vicon/test_obj/test_obj,-0.35130173464959297,0.03504384235062494,1.3813266052334763,0.003438904353867925,-0.0017140331982054815,-0.20129838551115634,0.9795224326260437,1684019.0,0.14,-0.05,0.99,0.06,0.06,-0.06,10.5,173.59,84.62,1684072.0,0.14,-0.05,1.0,-0.06,-0.12,0.0,13.05,173.44,86.12,28442,1603222380.7439065,body_FLU,-0.016938618529449105,-0.014202006438380904,0.5518176205203934,0.8336718178627901,0.004029027186334133,0.0046740369871258736,-0.0015062571037560701,0.07909213927108795,-0.39208263675123456,9.822776084661484,2490,1603222380.3334856,rc,0.0,0.0,0.0,0.0,0.0,-10000.0
,,193300.821224,5.942234992980957,30235,1603717512.504959,/world,vicon/test_obj/test_obj,-0.3512864733005872,0.03504642307224649,1.3813385281802615,0.0034191251901898004,-0.001628623140434861,-0.20129578050298563,0.9795231829422385,1684119.0,0.15,-0.05,0.99,0.0,-0.06,0.0,10.5,174.34,85.22,1684138.0,0.15,-0.06,1.0,0.06,0.06,-0.12,12.0,174.19,84.47,28446,1603222380.8021414,body_FLU,-0.01693816238722749,-0.014229976385138525,0.5518007795918455,0.8336824971587528,0.0007656865636818111,0.0022631410975009203,-0.0016234188806265593,0.09119389921892435,-0.469872253138572,9.864352539896965,2491,1603222380.8132863,rc,0.0,0.0,0.0,0.0,0.0,-10000.0
,,193300.920486,6.041498899459839,30245,1603717512.604658,/world,vicon/test_obj/test_obj,-0.35129336670056266,0.035048658398424255,1.3813286160064389,0.0034658725033331447,-0.0017038756423280283,-0.20129432935394337,0.9795231888554412,1684218.0,0.15,-0.05,0.99,0.06,0.0,0.06,11.55,172.99,83.87,1684238.0,0.14,-0.05,1.0,0.0,0.06,0.06,11.25,173.74,84.17,28452,1603222380.9047763,body_FLU,-0.016909943165857824,-0.014258354900263226,0.5517983420570438,0.8336841985073025,0.0025887666270136833,0.0025916690938174725,0.0007993854233063757,0.036661532361991704,-0.5170508246384561,9.79242124146223,2493,1603222380.9130967,rc,0.0,0.0,0.0,0.0,0.0,-10000.0
,,193301.04003,6.161040306091309,30257,1603717512.7246459,/world,vicon/test_obj/test_obj,-0.351289596783483,0.03504914449655468,1.3813337371815262,0.0034191857821903172,-0.0016531869064363583,-0.20126860487959833,0.9795287258837585,1684349.0,0.15,-0.05,0.98,-0.06,-0.06,0.0,12.9,174.34,87.02,1684358.0,0.15,-0.06,1.0,0.0,0.0,-0.06,12.9,174.34,87.02,28460,1603222381.3512163,body_FLU,-0.016901875173242792,-0.014254362206844262,0.5517773744326058,0.8336983080455209,-0.002593866316601634,0.0027834931388497353,0.0007204354624263942,0.07554246615897864,-0.39746831242740155,9.825833709597587,2495,1603222380.9935439,rc,0.0,0.0,0.0,0.0,0.0,-10000.0
,,193301.121094,6.24210262298584,30265,1603717512.8046849,/world,vicon/test_obj/test_obj,-0.3512905047329039,0.03504953715449202,1.3813476178546245,0.0034833431076481867,-0.001634418785290953,-0.20132237728126168,0.9795174809067217,1684419.0,0.15,-0.06,0.99,-0.12,-0.12,-0.12,11.85,173.29,85.22,1684439.0,0.15,-0.06,0.99,-0.12,-0.18,-0.06,11.25,172.39,84.47,28465,1603222381.1183386,body_FLU,-0.01688480673304151,-0.014253696176274517,0.5517782535873654,0.8336980834300745,0.001528439112007618,0.002119516022503376,0.0033152210526168346,0.165593480207026,-0.43742646533623336,9.877035198926926,2497,1603222381.9338372,rc,0.0,0.0,0.0,0.0,0.0,-10000.0
,,193301.220379,6.341389894485474,30275,1603717512.904642,/world,vicon/test_obj/test_obj,-0.35129151501358274,0.035042091853190245,1.381323102767127,0.0034476063359112825,-0.0017052292335725749,-0.20130323712902268,0.9795214203503617,1684519.0,0.14,-0.06,0.99,0.0,0.0,0.0,11.85,173.29,84.32,1684539.0,0.14,-0.04,1.0,-0.06,-0.18,0.06,12.6,172.54,83.87,28471,1603222381.2042816,body_FLU,-0.016891504717600182,-0.014277901628786654,0.5517902523409817,0.8336895921234292,0.0011577449040487409,0.00710392277687788,-0.00017990777269005775,0.12415316748898476,-0.4277386678531766,9.824852278590203,2499,1603222381.1932225,rc,0.0,0.0,0.0,0.0,0.0,-10000.0
,,193301.323648,6.444660663604736,30285,1603717513.461129,/world,vicon/test_obj/test_obj,-0.35129215094627064,0.0350493107878745,1.381336311593927,0.003474881215875856,-0.0016687922661986058,-0.20128967209431975,0.9795241744036076,1684632.0,0.14,-0.04,0.99,-0.06,-0.12,-0.12,11.7,173.74,85.52,1684641.0,0.15,-0.05,1.0,0.0,0.0,0.0,12.6,173.29,84.92,28482,1603222381.3207922,body_FLU,-0.01690566081467902,-0.014272509236846203,0.5517897068670097,0.8336897585481801,0.0001726956688798964,0.005453913938254118,0.0012479032156988978,0.0528151090471074,-0.4266689153574407,9.762581649541856,2499,1603222381.1932225,rc,0.0,0.0,0.0,0.0,0.0,-10000.0
,,193301.420339,6.541357040405273,30295,1603717513.1046665,/world,vicon/test_obj/test_obj,-0.3512918941887171,0.03505023913251758,1.3813345409947841,0.003464825646720491,-0.0016450502546142532,-0.2013155773870447,0.9795189263583519,1684719.0,0.14,-0.05,0.99,-0.18,-0.18,0.0,12.3,174.19,83.72,1684739.0,0.14,-0.04,1.0,-0.12,-0.12,-0.12,10.2,172.09,83.72,28486,1603222381.4039807,body_FLU,-0.01691474945275343,-0.014261009331315966,0.551785647638609,0.8336924576388126,0.0052720000967383385,0.0053723398596048355,-0.004840198904275894,-0.017644166103098543,-0.3987626475915313,9.823438550591469,2500,1603222381.3734636,rc,0.0,0.0,0.0,0.0,0.0,-10000.0
,,193301.519137,6.640149831771851,30305,1603717513.2047422,/world,vicon/test_obj/test_obj,-0.3512880168625671,0.035044660947216776,1.3813321241526941,0.0035115896749731007,-0.0017491705613314373,-0.20131046044653278,0.9795196310718367,1684818.0,0.14,-0.05,0.99,-0.06,-0.12,0.0,12.0,172.69,85.82,1684838.0,0.14,-0.05,0.99,0.0,0.0,0.0,13.05,173.14,86.12,28492,1603222381.503829,body_FLU,-0.016945339944036138,-0.014244164700659284,0.5517936111444479,0.8336868536365026,-0.0033839638344943523,0.0031993724405765533,0.0024860084522515535,0.03889537412300706,-0.3719461406618357,9.826558099150658,2500,1603222381.3734636,rc,0.0,0.0,0.0,0.0,0.0,-10000.0
,,193301.611261,6.73227334022522,30314,1603717513.2949114,/world,vicon/test_obj/test_obj,-0.3512842714453523,0.03504358749564858,1.381326354132883,0.0034389321977792713,-0.0016103391284958703,-0.20129822686764615,0.9795226410926763,1684921.0,0.14,-0.05,1.0,-0.06,-0.06,-0.12,11.85,174.34,84.32,1684930.0,0.14,-0.05,0.98,0.06,-0.06,0.06,10.95,174.19,84.17,28498,1603222381.603674,body_FLU,-0.016961468736288007,-0.014255128310590578,0.5517887350158697,0.8336895656086519,0.0017064986750483513,0.009415533393621445,0.0015026755863800645,0.05872052692528814,-0.4549116737544537,9.77341068917513,2500,1603222381.3734636,rc,0.0,0.0,0.0,0.0,0.0,-10000.0
,,193301.71945,6.840460300445557,30325,1603717513.4045904,/world,vicon/test_obj/test_obj,-0.35128789745871913,0.035050418749468765,1.381339547369234,0.003477468464026853,-0.0016803163299215068,-0.20132924874578667,0.9795160117882556,1685019.0,0.15,-0.06,0.99,-0.12,-0.18,-0.18,11.1,174.64,84.62,1685038.0,0.14,-0.05,0.99,0.0,0.0,-0.06,10.2,173.74,84.17,28505,1603222381.7034883,body_FLU,-0.016985396929565882,-0.014251954313242958,0.5517857128238567,0.8336911329820335,-0.00036684435326606035,0.005600761156529188,0.006989013869315386,-0.06541288780421019,-0.3132526961937547,9.922605143666267,2500,1603222381.3734636,rc,0.0,0.0,0.0,0.0,0.0,-10000.0
,,193301.820403,6.94141697883606,30335,1603717513.5046453,/world,vicon/test_obj/test_obj,-0.35129304915271425,0.03504931987686022,1.3813373628417378,0.0034422614705489716,-0.0016400336962861225,-0.20130382665161722,0.979521429321921,1685119.0,0.15,-0.05,1.0,0.0,0.0,0.0,12.0,173.74,83.72,1685138.0,0.14,-0.05,1.01,0.0,0.0,-0.12,11.1,174.64,84.92,28511,1603222381.8144386,body_FLU,-0.017038655752149735,-0.014260845814573531,0.5517786913878242,0.8336945413142351,0.00463063083589077,0.00711484719067812,0.0040644570253789425,0.09359550251718611,-0.407230703048408,9.826056868314744,2500,1603222381.3734636,rc,0.0,0.0,0.0,0.0,0.0,-10000.0
,,193301.920117,7.0411376953125,30345,1603717513.6048129,/world,vicon/test_obj/test_obj,-0.35129166022778296,0.03504821364773331,1.3813300562572512,0.0034601783309409313,-0.0017036187270269409,-0.20131565799466336,0.9795188261056175,1685219.0,0.14,-0.05,0.99,0.0,0.0,0.06,11.85,173.29,85.22,1685239.0,0.15,-0.05,1.0,0.06,0.0,0.0,11.25,173.44,85.52,28515,1603222381.903171,body_FLU,-0.01707944222407283,-0.014267860583700446,0.5517763734617941,0.8336951208307684,-0.003166935872286558,0.006944784428924322,-0.0006826865719631314,0.054703533098101616,-0.3381450798846781,9.817658622980119,2501,1603222381.853253,rc,0.0,0.0,0.0,0.0,0.0,-10000.0
,,193302.020068,7.141078233718872,30355,1603717513.704954,/world,vicon/test_obj/test_obj,-0.3512918171406513,0.035049206550737226,1.3813342250258704,0.0034257786398156063,-0.0016839434043286364,-0.2012963493081449,0.9795229492618003,1685319.0,0.14,-0.05,0.99,-0.06,-0.18,-0.12,11.1,174.34,84.92,1685338.0,0.15,-0.06,0.99,0.0,0.0,0.06,11.85,173.59,83.27,28520,1603222382.1691482,body_FLU,-0.01713491742258621,-0.01424861599501173,0.5517937401752787,0.8336828172935585,0.002809409983456135,0.007619632873684168,0.003317484864965081,-0.013647116721142084,-0.4352918894067407,9.866858694076539,2501,1603222381.853253,rc,0.0,0.0,0.0,0.0,0.0,-10000.0
,,193302.153834,7.274845600128174,30368,1603717513.8346422,/world,vicon/test_obj/test_obj,-0.351295865255613,0.035051140891994466,1.3813411759638135,0.003450851520076693,-0.0016641123804797657,-0.2013075019625372,0.9795206031561432,1685419.0,0.14,-0.04,1.0,-0.06,-0.06,0.0,10.8,173.29,83.57,1685473.0,0.14,-0.05,0.98,-0.06,-0.06,0.12,11.7,172.69,86.12,28527,1603222382.1444592,body_FLU,-0.017165052781895698,-0.014244879904035047,0.551750799056844,0.8337106812915668,-0.0003638176713138819,0.007990573532879353,-0.0042082155123353004,0.1092953316634521,-0.4302151746377349,9.828942742824555,2502,1603222382.3351548,rc,0.0,0.0,0.0,0.0,0.0,-10000.0
,,193302.219518,7.34052848815918,30375,1603717513.90488,/world,vicon/test_obj/test_obj,-0.35128419289352086,0.03505000998100818,1.3813476299101686,0.003435466097257776,-0.001621665322472401,-0.2013080523904308,0.9795206153098811,1685518.0,0.15,-0.04,0.99,-0.06,-0.12,-0.06,11.55,174.04,84.32,1685538.0,0.14,-0.05,0.99,-0.06,-0.06,0.0,12.9,174.34,84.92,28529,1603222382.197185,body_FLU,-0.017150608840218552,-0.014234802574841044,0.5517624705741319,0.8337034263321672,-0.0013199244858697057,0.0012037812266498804,0.005655329208821058,0.046822118167765436,-0.372523315563798,9.850854358434677,2503,1603222382.2110605,rc,0.0,0.0,0.0,0.0,0.0,-10000.0
,,193302.321531,7.442540168762207,30385,1603717514.4555693,/world,vicon/test_obj/test_obj,-0.35129236279884524,0.03505170346068719,1.381330058560552,0.00348080057458843,-0.0017168506008499308,-0.20130217981810197,0.9795214999436485,1685619.0,0.15,-0.05,1.0,-0.06,-0.06,-0.12,11.85,174.04,84.32,1685639.0,0.15,-0.05,1.0,-0.12,-0.12,0.0,12.6,172.99,84.92,28535,1603222382.3053498,body_FLU,-0.017095397081216494,-0.014195617653087397,0.5517441563729276,0.8337173488337695,0.0005010077729821205,0.002129753353074193,0.0012501187156885862,0.06097210418153554,-0.45282145938277246,9.79228863143921,2504,1603222382.3136246,rc,0.0,0.0,0.0,0.0,0.0,-10000.0
,,193302.442843,7.563856840133667,30397,1603717514.1247263,/world,vicon/test_obj/test_obj,-0.35129054859750397,0.0350464722687629,1.38132868234159,0.0034946909062253876,-0.0016877911308648135,-0.2013153856345282,0.979518786957856,1685753.0,0.16,-0.05,0.99,-0.06,-0.06,-0.06,11.7,174.19,87.17,1685762.0,0.16,-0.06,0.99,-0.12,-0.12,0.0,13.05,173.74,84.77,28542,1603222382.4356706,body_FLU,-0.017078418540727003,-0.01422138947863755,0.5517093395778627,0.8337402978889789,-0.0017424324760213494,0.003996297717094421,-0.003759408835321665,0.15911174544878304,-0.562423168759793,9.873186587333679,2506,1603222382.4134848,rc,0.0,0.0,0.0,0.0,0.0,-10000.0
,,193302.521235,7.642246246337891,30405,1603717514.20466,/world,vicon/test_obj/test_obj,-0.35129266077960114,0.03504583695900889,1.3813372729964741,0.0034904598368697822,-0.0016843595408751284,-0.2013191209995667,0.9795180402335764,1685819.0,0.14,-0.05,0.99,-0.06,-0.06,-0.18,11.55,172.99,84.92,1685839.0,0.15,-0.06,1.0,-0.12,-0.06,-0.06,11.7,173.44,84.77,28546,1603222382.5049865,body_FLU,-0.01703330944808952,-0.01423014588806244,0.5516975457368675,0.8337488754686072,6.248624413274229e-05,0.0022569377906620502,-0.0021580432076007128,0.15397641135379672,-0.47591875172406434,9.809917001724243,2508,1603222382.5133483,rc,0.0,0.0,0.0,0.0,0.0,-10000.0
,,193302.620187,7.741192817687988,30415,1603717514.3047044,/world,vicon/test_obj/test_obj,-0.35128428025781927,0.035047040683548754,1.3813387905608172,0.003439101510185176,-0.0016845205947223624,-0.20129670621201315,0.9795228282379962,1685919.0,0.15,-0.05,1.0,0.0,0.06,-0.06,12.3,173.14,84.77,1685939.0,0.15,-0.05,1.01,-0.06,-0.06,0.06,11.1,171.94,84.92,28552,1603222382.6048586,body_FLU,-0.017014147977014955,-0.014253449773748917,0.5517006548934213,0.8337468112852567,-0.0023198258131742477,0.006175829563289881,-0.0029906355775892735,-0.012486874862574042,-0.3974424622356892,9.771974177956581,2509,1603222382.55218,rc,0.0,0.0,0.0,0.0,0.0,-10000.0
,,193302.729558,7.850575923919678,30426,1603717514.4146798,/world,vicon/test_obj/test_obj,-0.35129316414226447,0.035051964909112304,1.381327580280803,0.0035008690090595576,-0.0017031010291309536,-0.20129224732230067,0.9795234936085013,1686039.0,0.15,-0.06,0.99,-0.18,-0.18,0.0,13.8,172.09,86.87,1686048.0,0.15,-0.05,1.01,0.0,0.0,0.0,13.8,172.09,86.87,28561,1603222382.7241447,body_FLU,-0.01698489957730464,-0.014257432769248204,0.551698961840344,0.8337484598495316,0.0023109656758606434,0.0053320759907364845,0.0008236273424699903,-0.03831391823943704,-0.5033237886540591,9.880998310804367,2509,1603222382.55218,rc,0.0,0.0,0.0,0.0,0.0,-10000.0
,,193302.819604,7.940611362457275,30435,1603717514.504914,/world,vicon/test_obj/test_obj,-0.3512983907409482,0.03504575182380224,1.3813266993929212,0.0034173923587465117,-0.0017129444908693112,-0.20129750269957689,0.979522691241786,1686119.0,0.15,-0.05,1.0,-0.12,-0.06,-0.12,10.95,173.44,85.82,1686139.0,0.14,-0.06,0.99,-0.12,-0.06,0.0,11.1,173.59,84.92,28566,1603222382.8045325,body_FLU,-0.016997837214942104,-0.014271864611868737,0.5516992739675805,0.8337477427340715,0.0037600253708660603,0.0036645643413066864,0.0048563675954937935,0.031248409112915397,-0.38132709490880373,9.815206213831901,2511,1603222382.7934318,rc,0.0,0.0,0.0,0.0,0.0,-10000.0
,,193302.920973,8.04200267791748,30445,1603717514.604704,/world,vicon/test_obj/test_obj,-0.3512850506892518,0.0350500515915202,1.381341405511591,0.003439027163305737,-0.001675649649662497,-0.2013124878137554,0.9795196003861578,1686219.0,0.15,-0.05,1.0,-0.06,0.06,0.12,12.15,174.04,84.32,1686239.0,0.14,-0.06,0.98,-0.12,-0.12,-0.06,12.6,173.29,84.62,28576,1603222382.9154904,body_FLU,-0.01699800427214418,-0.01431542563335969,0.5516962584442257,0.8337489879204304,0.00011634710244834423,0.0028372800443321466,-0.0018476007971912622,0.02731028027739376,-0.4719711207523942,9.86746975171566,2511,1603222382.7934318,rc,0.0,0.0,0.0,0.0,0.0,-10000.0
,,193303.010749,8.131763458251953,30454,1603717514.694578,/world,vicon/test_obj/test_obj,-0.3512927392390748,0.03504668380550332,1.381328357991956,0.003404631097262799,-0.0017470842266239055,-0.2012861426622981,0.9795250098675018,1686320.0,0.15,-0.05,1.0,0.06,0.06,0.0,12.6,175.39,84.92,1686329.0,0.14,-0.05,1.0,-0.12,-0.06,0.0,11.85,172.54,84.32,28581,1603222383.4212613,body_FLU,-0.01696852283395492,-0.014342700245999542,0.5516786034881764,0.8337608018105807,0.0022411635145545006,0.009291019290685654,-0.0006935774581506848,0.09322907239850611,-0.42173174780979755,9.92434952044487,2512,1603222382.9931257,rc,0.0,0.0,0.0,0.0,0.0,-10000.0
,,193303.12096,8.241975545883179,30465,1603717514.804611,/world,vicon/test_obj/test_obj,-0.3512896408671866,0.035048155833489886,1.3813324674400562,0.0034310273339540755,-0.0015780049435621642,-0.20130732104189789,0.979520852481848,1686419.0,0.15,-0.04,0.99,-0.06,-0.12,-0.06,12.3,173.74,84.77,1686439.0,0.14,-0.05,0.99,-0.06,-0.12,-0.12,11.25,172.69,83.72,28591,1603222383.1151416,body_FLU,-0.016964313258165827,-0.014393106828795165,0.551698201603538,0.8337470509086767,0.00022581598022952676,0.0042852843180298805,0.0025247973389923573,0.012521588237956167,-0.401018186353147,9.82492471754551,2512,1603222382.9931257,rc,0.0,0.0,0.0,0.0,0.0,-10000.0
,,193303.219638,8.34064769744873,30475,1603717514.904829,/world,vicon/test_obj/test_obj,-0.3512926128453463,0.03504537336149839,1.3813353879510624,0.0034787035075979,-0.0016621321235333155,-0.20129562878385487,0.9795229480574831,1686519.0,0.15,-0.06,1.01,-0.06,-0.18,-0.12,12.6,173.59,84.32,1686539.0,0.14,-0.05,0.99,0.06,0.0,0.06,11.55,173.59,84.92,28598,1603222383.2038887,body_FLU,-0.016944131258642282,-0.014404457041997554,0.5516817013515677,0.8337581834243396,0.003369852900505066,0.003225301392376423,-0.0028491406701505184,0.07609673005063086,-0.3399571126028895,9.896885809421539,2513,1603222383.2122335,rc,0.0,0.0,0.0,0.0,0.0,-10000.0
,,193303.32062,8.441630125045776,30485,1603717515.4931848,/world,vicon/test_obj/test_obj,-0.35128904116188797,0.03504700900524883,1.3813313905220066,0.0034332783983002184,-0.0016320484916584933,-0.2013007005849411,0.9795221166268644,1686619.0,0.14,-0.05,0.99,-0.06,-0.24,0.0,12.3,173.44,85.52,1686639.0,0.15,-0.05,0.98,0.0,-0.06,0.0,11.7,172.09,85.07,28607,1603222383.301003,body_FLU,-0.016904662773934896,-0.014399072231799391,0.5517026745568967,0.8337451996756143,0.001884337980300188,0.0035724977497011423,-0.000529318698681891,0.11184327333513648,-0.3610277207046747,9.840025902986527,2513,1603222383.2122335,rc,0.0,0.0,0.0,0.0,0.0,-10000.0
,,193303.419351,8.540361881256104,30495,1603717515.104701,/world,vicon/test_obj/test_obj,-0.35129033926389114,0.0350486642361555,1.3813344683015358,0.003497574347417237,-0.0017116951493408832,-0.20131297613370144,0.9795192303949891,1686719.0,0.14,-0.07,1.0,-0.06,-0.06,0.06,12.15,174.04,83.87,1686739.0,0.15,-0.04,0.99,0.0,0.12,0.06,10.95,173.44,84.17,28616,1603222383.403624,body_FLU,-0.016899145312953865,-0.014383638683766853,0.5517148304732022,0.8337375340368407,0.0015591939445585012,0.002839355729520321,0.00297189736738801,0.034385182005353274,-0.3310294129885733,9.803591445207596,2514,1603222383.4119139,rc,0.0,0.0,0.0,0.0,0.0,-10000.0
,,193303.553025,8.674034833908081,30508,1603717515.234658,/world,vicon/test_obj/test_obj,-0.35129284534595073,0.035049261160827766,1.3813360804503179,0.003429657818721381,-0.001584336450197129,-0.2013203468679624,0.979518169950013,1686819.0,0.14,-0.05,1.0,0.0,-0.06,-0.12,10.8,174.34,84.92,1686872.0,0.14,-0.05,0.99,-0.06,-0.06,-0.12,12.75,172.69,86.42,28629,1603222383.5478282,body_FLU,-0.0169121417861391,-0.014396942633761746,0.5517141489727434,0.8337374918559721,0.0013410537503659725,0.008009006269276142,0.00041213835356757045,0.10849280735012144,-0.4642778408154845,9.753946225047113,2514,1603222383.4119139,rc,0.0,0.0,0.0,0.0,0.0,-10000.0
,,193303.619143,8.740156888961792,30515,1603717515.3048809,/world,vicon/test_obj/test_obj,-0.3512906936625972,0.035047017912371754,1.381339446849078,0.003451840986581272,-0.0016426026219763918,-0.201312300560895,0.9795196497739642,1686919.0,0.15,-0.05,1.0,0.0,-0.06,-0.12,13.05,173.74,84.47,1686939.0,0.15,-0.06,0.98,0.12,0.0,0.0,10.2,174.19,83.42,28634,1603222383.6032796,body_FLU,-0.016918528751593262,-0.014418051393478452,0.5517147905550125,0.8337365729423984,-0.0012552404077723622,0.0027882750146090984,-0.001336218905635178,-0.03436851447355002,-0.4234475360289216,9.818030164718628,2515,1603222383.5921814,rc,0.0,0.0,0.0,0.0,0.0,-10000.0
,,193303.720636,8.841648578643799,30525,1603717515.4048347,/world,vicon/test_obj/test_obj,-0.3512916262617684,0.035051360431506765,1.381338945722374,0.003421609721858324,-0.0016593736991547103,-0.20132795743375095,0.9795165096216559,1687019.0,0.14,-0.05,1.0,-0.06,-0.18,0.06,12.15,172.54,84.62,1687039.0,0.14,-0.06,1.0,0.06,0.06,0.0,11.1,175.09,83.27,28640,1603222383.7141945,body_FLU,-0.016965754917136814,-0.014441294648153621,0.5517171530479422,0.833733647636732,0.0036669201217591763,0.007179506588727236,0.0009747186559252441,0.037983981435187164,-0.46683938304707406,9.959593408942222,2515,1603222383.5921814,rc,0.0,0.0,0.0,0.0,0.0,-10000.0
,,193303.838165,8.959169864654541,30537,1603717515.5247896,/world,vicon/test_obj/test_obj,-0.3512904604135958,0.035044727760583684,1.3813296340356471,0.0034231262889646476,-0.0017185504005903128,-0.2012997749599727,0.9795221944356314,1687148.0,0.14,-0.05,0.99,-0.12,-0.06,0.0,12.0,172.39,86.42,1687157.0,0.15,-0.06,0.99,-0.06,-0.12,0.0,12.6,173.29,87.02,28645,1603222383.8223903,body_FLU,-0.016920703266728343,-0.01448465263037475,0.5517078679785437,0.8337399552916405,0.0005762054352089763,0.007487962022423744,0.003104954492300749,0.11604926930554212,-0.502927126955241,9.770391620457172,2516,1603222383.733618,rc,0.0,0.0,0.0,0.0,0.0,-10000.0
