name,date,time,time_since_start,vicon_sequence,vicon_time_stamp,vicon_frame_id,vicon_child_frame_id,vicon_translation_x,vicon_translation_y,vicon_translation_z,vicon_rotation_x,vicon_rotation_y,vicon_rotation_z,vicon_rotation_w,int_imu_time_stamp,int_imu_acc_x,int_imu_acc_y,int_imu_acc_z,int_imu_gyro_x,int_imu_gyro_y,int_imu_gyro_z,int_imu_mag_x,int_imu_mag_y,int_imu_mag_z,ext_imu_time_stamp,ext_imu_acc_x,ext_imu_acc_y,ext_imu_acc_z,ext_imu_gyro_x,ext_imu_gyro_y,ext_imu_gyro_z,ext_imu_mag_x,ext_imu_mag_y,ext_imu_mag_z,dji_imu_sequence,dji_imu_time_stamp,dji_imu_frame_id,dji_imu_orientation_x,dji_imu_orientation_y,dji_imu_orientation_z,dji_imu_orientation_w,dji_imu_ang_vel_x,dji_imu_ang_vel_y,dji_imu_ang_vel_z,dji_imu_lin_acc_x,dji_imu_lin_acc_y,dji_imu_lin_acc_z,rc_sequence,rc_time_stamp,rc_frame_id,rc_roll,rc_pitch,rc_yaw,rc_throttle,rc_mode,rc_landing_gear
T001_1.csv,20201105,94745.749349,0.00030231475830078125,8759,1604583460.767099,/world,vicon/test_obj/test_obj,-0.04879391667914516,-0.11966819102171039,0.6434372718116379,0.011893961617741129,-0.007444926622832294,-0.0014549688462029626,0.9999004899540118,1148626.0,0.019999999552965164,-0.07999999821186066,-1.0,-0.11999999731779099,-0.11999999731779099,-0.05999999865889549,-15.75,6.0,-65.72000122070312,1148231.0,0.14000000059604645,-0.07000000029802322,1.0099999904632568,0.0,0.0,0.0,49.36000061035156,50.86000061035156,27.309999465942383,6486,1604569665.7431135,body_FLU,-0.035417770152206686,0.0035281165633709215,0.7141753328122299,0.6990613191655661,-0.0017189489444717765,0.005479402374476194,8.237492147600278e-05,-0.5950294249132275,-0.47133443199098113,9.674824776113033,581,1604569665.7070415,rc,0.0,0.0,0.0,0.0,0.0,-10000.0
,,94745.75199,0.002923250198364258,8759,1604583460.767099,/world,vicon/test_obj/test_obj,-0.04879391667914516,-0.11966819102171039,0.6434372718116379,0.011893961617741129,-0.007444926622832294,-0.0014549688462029626,0.9999004899540118,1148626.0,0.019999999552965164,-0.07999999821186066,-1.0,-0.11999999731779099,-0.11999999731779099,-0.05999999865889549,-15.75,6.0,-65.72000122070312,1148231.0,0.14000000059604645,-0.07000000029802322,1.0099999904632568,0.0,0.0,0.0,49.36000061035156,50.86000061035156,27.309999465942383,6486,1604569665.7431135,body_FLU,-0.035417770152206686,0.0035281165633709215,0.7141753328122299,0.6990613191655661,-0.0017189489444717765,0.005479402374476194,8.237492147600278e-05,-0.5950294249132275,-0.47133443199098113,9.674824776113033,581,1604569665.7070415,rc,0.0,0.0,0.0,0.0,0.0,-10000.0
,,94745.772239,0.023189544677734375,8761,1604583460.7873664,/world,vicon/test_obj/test_obj,-0.04878575895283919,-0.1196722192811696,0.6434302525983524,0.011900426994776227,-0.007448569223877571,-0.0014465550524871765,0.9999003981059009,1148647.0,0.019999999552965164,-0.07000000029802322,-1.0,-0.11999999731779099,-0.18000000715255737,0.0,-18.899999618530273,5.699999809265137,-64.66999816894531,1148251.0,0.14000000059604645,-0.07999999821186066,1.0099999904632568,0.0,0.0,-0.05999999865889549,47.2599983215332,52.36000061035156,29.110000610351562,6487,1604569665.7624764,body_FLU,-0.0354127866193671,0.0035504699668371456,0.7141743288579595,0.6990624841222343,0.004015549551695585,0.005047152750194073,0.0014647638890892267,-0.5491309855766594,-0.408029211089015,9.824377920269967,581,1604569665.7070415,rc,0.0,0.0,0.0,0.0,0.0,-10000.0
,,94745.792215,0.0431210994720459,8763,1604583460.8070204,/world,vicon/test_obj/test_obj,-0.048790384071163435,-0.11967212579857744,0.6434367286076169,0.01191316307650813,-0.007432871745465451,-0.0014448423808039058,0.9999003657333178,1148667.0,0.019999999552965164,-0.07999999821186066,-0.9900000095367432,0.0,0.0,0.0,-16.799999237060547,6.0,-65.72000122070312,1148291.0,0.14000000059604645,-0.07000000029802322,1.0,0.05999999865889549,0.0,-0.11999999731779099,48.61000061035156,51.61000061035156,28.059999465942383,6489,1604569665.7818868,body_FLU,-0.035410132178168366,0.0035570554927152674,0.7141814008405147,0.6990553601745905,0.00048317312030121684,0.007608548738062382,0.0011684214696288109,-0.6049024455919861,-0.4869764268100262,9.983456202864646,581,1604569665.7070415,rc,0.0,0.0,0.0,0.0,0.0,-10000.0
,,94745.812416,0.06341719627380371,8765,1604583460.8272316,/world,vicon/test_obj/test_obj,-0.04879479111597901,-0.11966745234393643,0.6434360022528497,0.01190436964192368,-0.0074430030274739494,-0.0014544720753646289,0.9999003811382129,1148686.0,0.019999999552965164,-0.07000000029802322,-1.0099999904632568,-0.11999999731779099,-0.05999999865889549,0.0,-17.700000762939453,4.800000190734863,-66.16999816894531,1148311.0,0.15000000596046448,-0.07000000029802322,1.0,0.0,0.0,-0.05999999865889549,49.36000061035156,51.90999984741211,28.059999465942383,6491,1604569665.80135,body_FLU,-0.035401732599609895,0.003572664262941084,0.7141827275497183,0.6990543505827389,0.004333476070314646,0.004235096741467714,-0.0017061978578567505,-0.7025678289458156,-0.5511441240236163,9.935175639152527,581,1604569665.7070415,rc,0.0,0.0,0.0,0.0,0.0,-10000.0
,,94745.832248,0.08326101303100586,8767,1604583460.8470104,/world,vicon/test_obj/test_obj,-0.04879217414245938,-0.11966872269497383,0.6434416036512582,0.01187660545708417,-0.007434502509681302,-0.0014462122680045063,0.9999007865210059,1148726.0,0.019999999552965164,-0.07000000029802322,-1.0,0.0,-0.05999999865889549,-0.05999999865889549,-17.399999618530273,5.699999809265137,-64.37000274658203,1148331.0,0.15000000596046448,-0.05999999865889549,0.9900000095367432,-0.05999999865889549,-0.05999999865889549,-0.05999999865889549,48.15999984741211,52.209999084472656,28.209999084472656,6492,1604569665.815161,body_FLU,-0.035383629850203976,0.003566223895174486,0.7141840399717603,0.6990539591729442,-0.0009640825446695089,0.005854104645550251,-0.001920308219268918,-0.6960519741252065,-0.5215593463517726,9.90566844856739,581,1604569665.7070415,rc,0.0,0.0,0.0,0.0,0.0,-10000.0
,,94745.852053,0.10302853584289551,8769,1604583460.8671484,/world,vicon/test_obj/test_obj,-0.04878737946967105,-0.11967493446979162,0.6434295693579154,0.011894399588257326,-0.007385802581940006,-0.001433806320005818,0.9999009537839697,1148747.0,0.029999999329447746,-0.05999999865889549,-1.0,-0.05999999865889549,-0.11999999731779099,0.05999999865889549,-15.899999618530273,5.099999904632568,-66.16999816894531,1148331.0,0.15000000596046448,-0.05999999865889549,0.9900000095367432,-0.05999999865889549,-0.05999999865889549,-0.05999999865889549,48.15999984741211,52.209999084472656,28.209999084472656,6493,1604569665.8429348,body_FLU,-0.035372137229103144,0.003581973675383065,0.7141754809464907,0.6990632044295301,0.0004627388552762568,0.007425056770443916,-0.0031066203955560923,-0.5375100099854171,-0.501201517123729,9.77459307986498,581,1604569665.7070415,rc,0.0,0.0,0.0,0.0,0.0,-10000.0
,,94745.872265,0.12332034111022949,8771,1604583460.8871696,/world,vicon/test_obj/test_obj,-0.04878245583660761,-0.11967264282291096,0.6434480337143036,0.01186807518387245,-0.0074379111782692945,-0.0014292650468347302,0.9999008868233691,1148747.0,0.029999999329447746,-0.05999999865889549,-1.0,-0.05999999865889549,-0.11999999731779099,0.05999999865889549,-15.899999618530273,5.099999904632568,-66.16999816894531,1148351.0,0.15000000596046448,-0.09000000357627869,1.0,-0.11999999731779099,-0.05999999865889549,-0.18000000715255737,48.310001373291016,52.36000061035156,27.760000228881836,6494,1604569665.8623323,body_FLU,-0.03537607777296326,0.003590244708027465,0.7141850973633973,0.6990531381578745,-0.0019560367800295353,0.003833820577710867,0.0037063038907945156,-0.43276306154206395,-0.48162160341069105,9.76466894298792,581,1604569665.7070415,rc,0.0,0.0,0.0,0.0,0.0,-10000.0
,,94745.892221,0.1431739330291748,8773,1604583460.9071028,/world,vicon/test_obj/test_obj,-0.04880568643631773,-0.11967523458589174,0.6434376629763281,0.01194186066315549,-0.007432785296536349,-0.0014595935888572875,0.9999000026268591,1148767.0,0.019999999552965164,-0.07000000029802322,-1.0099999904632568,-0.05999999865889549,-0.05999999865889549,-0.05999999865889549,-18.149999618530273,6.300000190734863,-64.66999816894531,1148371.0,0.14000000059604645,-0.07000000029802322,1.0099999904632568,-0.05999999865889549,0.0,-0.05999999865889549,47.709999084472656,51.7599983215332,27.610000610351562,6496,1604569665.8817575,body_FLU,-0.0353768361666188,0.0036052322397690634,0.714169017996529,0.6990694496952438,0.0006982223130762577,0.007932262495160103,-0.0034727994352579117,-0.5422580110877753,-0.5471908337585628,9.882740350842477,581,1604569665.7070415,rc,0.0,0.0,0.0,0.0,0.0,-10000.0
,,94745.912143,0.16309070587158203,8775,1604583460.927325,/world,vicon/test_obj/test_obj,-0.04878630521866942,-0.11967566481829126,0.6434358843398862,0.011905089972747957,-0.007416800731677502,-0.001447025552182742,0.9999005780659889,1148787.0,0.019999999552965164,-0.07000000029802322,-1.0099999904632568,-0.05999999865889549,-0.05999999865889549,0.05999999865889549,-16.799999237060547,6.75,-64.97000122070312,1148411.0,0.15000000596046448,-0.07000000029802322,1.0099999904632568,-0.11999999731779099,-0.11999999731779099,-0.05999999865889549,48.15999984741211,51.15999984741211,27.90999984741211,6497,1604569665.895596,body_FLU,-0.03537109802080276,0.0036045077484761112,0.7141686994073699,0.6990700692602133,-0.0008961530402302742,0.0018562377663329244,-0.004579457920044661,-0.5258655574545265,-0.4839220148921013,9.829279233455658,581,1604569665.7070415,rc,0.0,0.0,0.0,0.0,0.0,-10000.0
,,94745.932174,0.18312883377075195,8777,1604583460.947037,/world,vicon/test_obj/test_obj,-0.04878999207258026,-0.11966820231335613,0.6434383191341587,0.011893999742601491,-0.007419657609301853,-0.0014289401248697023,0.9999007148618323,1148806.0,0.019999999552965164,-0.07000000029802322,-0.9900000095367432,-0.05999999865889549,-0.05999999865889549,0.0,-17.25,6.900000095367432,-65.87000274658203,1148431.0,0.14000000059604645,-0.07000000029802322,1.0,0.05999999865889549,0.0,-0.05999999865889549,46.959999084472656,51.310001373291016,28.059999465942383,6498,1604569665.9166973,body_FLU,-0.035364122613777985,0.0036199045082246583,0.7141815362966363,0.6990572282267635,0.005459274165332317,0.005147825926542282,0.006157773546874523,-0.5172091022953391,-0.48972750060260295,9.781675156116485,582,1604569665.928891,rc,0.0,0.0,0.0,0.0,0.0,-10000.0
,,94745.952278,0.2032930850982666,8779,1604583460.9670334,/world,vicon/test_obj/test_obj,-0.04879553768204921,-0.11967591757016148,0.6434327957487768,0.011916193427590259,-0.007423637806544985,-0.0014485508829237043,0.9999003928573351,1148846.0,0.019999999552965164,-0.07000000029802322,-1.0,-0.11999999731779099,-0.05999999865889549,-0.05999999865889549,-17.399999618530273,5.25,-64.97000122070312,1148451.0,0.15000000596046448,-0.07000000029802322,1.0,-0.05999999865889549,-0.05999999865889549,0.0,49.36000061035156,51.90999984741211,29.110000610351562,6499,1604569665.9427404,body_FLU,-0.03535601050264135,0.0036066468084600643,0.7141742550930372,0.6990651457356757,0.0012269774451851845,0.004104864317923784,0.0017218394204974174,-0.5287268961891533,-0.5940757792107761,9.78436474442482,582,1604569665.928891,rc,0.0,0.0,0.0,0.0,0.0,-10000.0
,,94745.972189,0.22329092025756836,8781,1604583460.987416,/world,vicon/test_obj/test_obj,-0.048790329598515474,-0.11966960623081868,0.6434427423762015,0.011877803685091285,-0.007406801683423928,-0.0014473998913855112,0.999900976148136,1148867.0,0.019999999552965164,-0.07000000029802322,-1.0099999904632568,-0.11999999731779099,-0.05999999865889549,-0.05999999865889549,-15.75,5.699999809265137,-64.97000122070312,1148471.0,0.15000000596046448,-0.07999999821186066,1.0,0.0,-0.05999999865889549,-0.05999999865889549,48.15999984741211,52.5099983215332,27.90999984741211,6499,1604569665.9427404,body_FLU,-0.03535601050264135,0.0036066468084600643,0.7141742550930372,0.6990651457356757,0.0012269774451851845,0.004104864317923784,0.0017218394204974174,-0.5287268961891533,-0.5940757792107761,9.78436474442482,582,1604569665.928891,rc,0.0,0.0,0.0,0.0,0.0,-10000.0
,,94745.993251,0.24419379234313965,8783,1604583461.7089925,/world,vicon/test_obj/test_obj,-0.04878464815283431,-0.11967140955591012,0.6434411614847497,0.011878596141171646,-0.00744420076590533,-0.0014404635676293215,0.9999006990163484,1148887.0,0.019999999552965164,-0.05999999865889549,-1.0099999904632568,-0.05999999865889549,-0.11999999731779099,-0.11999999731779099,-17.850000381469727,7.5,-66.7699966430664,1148491.0,0.15000000596046448,-0.07000000029802322,1.0,0.0,0.0,-0.05999999865889549,48.459999084472656,53.2599983215332,27.90999984741211,6500,1604569665.9732878,body_FLU,-0.035344986254492304,0.00361925396290269,0.7141701256679039,0.6990698567031137,0.00013165661948733032,0.006654342170804739,0.004828715231269598,-0.49916442708671094,-0.425612927723676,9.780062220990658,583,1604569665.9871397,rc,0.0,0.0,0.0,0.0,0.0,-10000.0
,,94746.012277,0.26328563690185547,8785,1604583461.2706819,/world,vicon/test_obj/test_obj,-0.04879372810623575,-0.11967531745033745,0.6434387674137885,0.01189332398457172,-0.0074502955747252205,-0.001457391343883338,0.999900454020758,1148887.0,0.019999999552965164,-0.05999999865889549,-1.0099999904632568,-0.05999999865889549,-0.11999999731779099,-0.11999999731779099,-17.850000381469727,7.5,-66.7699966430664,1148491.0,0.15000000596046448,-0.07000000029802322,1.0,0.0,0.0,-0.05999999865889549,48.459999084472656,53.2599983215332,27.90999984741211,6501,1604569665.9954429,body_FLU,-0.0353468180933044,0.0036105832730607525,0.7141693163580484,0.699070635709858,0.005797027610242367,-0.00010997208300977945,-0.0010732028167694807,-0.538272882733494,-0.5006760426051915,9.732392130732537,583,1604569665.9871397,rc,0.0,0.0,0.0,0.0,0.0,-10000.0
,,94746.032727,0.2836754322052002,8787,1604583461.4746454,/world,vicon/test_obj/test_obj,-0.048789679398808766,-0.1196712119926954,0.6434388145557814,0.01189323357947282,-0.007423908164026568,-0.001450667995280753,0.9999006611383772,1148906.0,0.019999999552965164,-0.07999999821186066,-1.0,0.05999999865889549,-0.05999999865889549,-0.05999999865889549,-17.850000381469727,6.0,-66.0199966430664,1148511.0,0.14000000059604645,-0.07000000029802322,1.0099999904632568,0.05999999865889549,0.05999999865889549,0.0,47.40999984741211,53.2599983215332,28.209999084472656,6502,1604569666.1491773,body_FLU,-0.03536029951438319,0.0035860961924601507,0.7141743914660971,0.6990648952038583,0.000569107593037188,0.006323777139186859,0.0014341282658278942,-0.4852699125297368,-0.43875566904991864,9.748186159729958,584,1604569666.2878962,rc,0.0,0.0,0.0,0.0,0.0,-10000.0
,,94746.052669,0.30362892150878906,8789,1604583461.673925,/world,vicon/test_obj/test_obj,-0.04878531739544021,-0.11967178745810393,0.6434266898841123,0.011899778758407148,-0.0074142196851360856,-0.0014528472869882404,0.9999006519883473,1148927.0,0.019999999552965164,-0.07999999821186066,-1.0099999904632568,-0.05999999865889549,-0.05999999865889549,0.0,-17.25,5.099999904632568,-65.12000274658203,1148551.0,0.15000000596046448,-0.07000000029802322,1.0199999809265137,0.0,0.05999999865889549,0.0,48.61000061035156,52.36000061035156,26.709999084472656,6503,1604569666.446997,body_FLU,-0.035359782973808616,0.0035647250818606597,0.714177203838092,0.699062157466087,-0.00018321243987884372,0.004491744097322226,0.004537180531769991,-0.5408755735047162,-0.2694706865362823,9.8653152769804,584,1604569666.2878962,rc,0.0,0.0,0.0,0.0,0.0,-10000.0
,,94746.07219,0.3230745792388916,8791,1604583461.8724546,/world,vicon/test_obj/test_obj,-0.048788064269887826,-0.11967068328714404,0.643438613391501,0.011874047464765329,-0.007430916546260074,-0.0014335656469872985,0.9999008617686169,1148947.0,0.019999999552965164,-0.07999999821186066,-0.9900000095367432,-0.05999999865889549,-0.11999999731779099,0.05999999865889549,-16.950000762939453,6.150000095367432,-65.56999969482422,1148571.0,0.14000000059604645,-0.07999999821186066,1.0099999904632568,-0.11999999731779099,-0.05999999865889549,-0.11999999731779099,46.959999084472656,53.709999084472656,27.010000228881836,6504,1604569666.6199217,body_FLU,-0.03537714002318751,0.0035576453764508483,0.7141681111086629,0.6990706045877196,0.00045192791731096804,0.004205932840704918,0.0007169860764406621,-0.4793413098044694,-0.3538750675879419,9.662198198854924,584,1604569666.2878962,rc,0.0,0.0,0.0,0.0,0.0,-10000.0
,,94746.092203,0.34316563606262207,8793,1604583461.107097,/world,vicon/test_obj/test_obj,-0.04879740510292202,-0.11967074796321776,0.6434329869563952,0.011833993846553632,-0.007360826703676657,-0.00143827615623315,0.9999018482739076,1148967.0,0.019999999552965164,-0.07000000029802322,-1.0,0.0,0.0,0.05999999865889549,-16.649999618530273,5.849999904632568,-65.87000274658203,1148591.0,0.15000000596046448,-0.07999999821186066,1.0099999904632568,-0.11999999731779099,-0.05999999865889549,0.0,49.36000061035156,51.90999984741211,27.010000228881836,6506,1604569666.8143857,body_FLU,-0.03536948250333371,0.0035543701770085006,0.7141794408517244,0.6990594341147321,0.0026633800007402897,0.005936925299465656,0.005119416397064924,-0.5314768016114831,-0.48495412395894527,9.804680366277696,584,1604569666.2878962,rc,0.0,0.0,0.0,0.0,0.0,-10000.0
,,94746.112214,0.3632354736328125,8795,1604583461.1270337,/world,vicon/test_obj/test_obj,-0.04879158988625789,-0.11967277863523897,0.6434374863974941,0.011929849553084366,-0.007469879148784668,-0.0014352245675457755,0.9998999048532728,1149007.0,0.019999999552965164,-0.07000000029802322,-1.0099999904632568,-0.05999999865889549,-0.05999999865889549,0.0,-17.700000762939453,5.400000095367432,-66.16999816894531,1148611.0,0.15000000596046448,-0.07999999821186066,1.0,0.05999999865889549,0.05999999865889549,0.05999999865889549,47.2599983215332,51.90999984741211,28.059999465942383,6507,1604569666.9527783,body_FLU,-0.035381863870139287,0.0035459549724528973,0.7141739843283855,0.6990644247999802,-0.0007441679481416941,0.004386426415294409,-0.00035470828879624605,-0.5847445902340114,-0.3474692586399615,9.895323698401452,584,1604569666.2878962,rc,0.0,0.0,0.0,0.0,0.0,-10000.0
,,94746.132151,0.383101224899292,8797,1604583461.1473963,/world,vicon/test_obj/test_obj,-0.04879321115308277,-0.11967454728634293,0.6434369514406525,0.011898316015715763,-0.007427898173767184,-0.0014164742359435505,0.9999006200645388,1149027.0,0.019999999552965164,-0.07999999821186066,-1.0099999904632568,0.0,0.0,-0.05999999865889549,-18.0,5.400000095367432,-65.87000274658203,1148631.0,0.15000000596046448,-0.07000000029802322,1.0099999904632568,-0.05999999865889549,-0.05999999865889549,0.05999999865889549,47.2599983215332,51.90999984741211,28.360000610351562,6508,1604569666.1147387,body_FLU,-0.0353739432068289,0.0035240901417086003,0.7141751393240593,0.6990637562498385,0.003193122800439596,0.006961511448025703,0.0013883693609386683,-0.5697472802102566,-0.4848132623210549,9.82690977859497,585,1604569666.129049,rc,0.0,0.0,0.0,0.0,0.0,-10000.0
,,94746.152654,0.4036128520965576,8799,1604583461.1670058,/world,vicon/test_obj/test_obj,-0.04879420446168522,-0.11967287241665417,0.6434372030413069,0.011895622333361323,-0.007441533269568202,-0.0014647786137181756,0.9999004811357542,1149027.0,0.019999999552965164,-0.07999999821186066,-1.0099999904632568,0.0,0.0,-0.05999999865889549,-18.0,5.400000095367432,-65.87000274658203,1148631.0,0.15000000596046448,-0.07000000029802322,1.0099999904632568,-0.05999999865889549,-0.05999999865889549,0.05999999865889549,47.2599983215332,51.90999984741211,28.360000610351562,6510,1604569666.1507704,body_FLU,-0.035386541807137614,0.003505558894398747,0.7141775239887403,0.6990607755732557,0.004061583429574966,0.007166448049247265,-0.0006115898722782731,-0.4754363608583808,-0.5200381648018956,9.805347505688667,585,1604569666.129049,rc,0.0,0.0,0.0,0.0,0.0,-10000.0
,,94746.17222,0.42316222190856934,8801,1604583461.1870477,/world,vicon/test_obj/test_obj,-0.048795416653946905,-0.11967677201753706,0.6434400894930371,0.0118994189155847,-0.007457547052091765,-0.0014477959617148048,0.9999003413882258,1149047.0,0.019999999552965164,-0.07000000029802322,-1.0,-0.05999999865889549,-0.11999999731779099,0.0,-16.950000762939453,6.599999904632568,-66.47000122070312,1148651.0,0.15000000596046448,-0.07000000029802322,1.0,-0.05999999865889549,-0.11999999731779099,-0.05999999865889549,47.11000061035156,52.810001373291016,27.15999984741211,6511,1604569666.1646526,body_FLU,-0.03538764439230275,0.0034996172632435203,0.7141847435067161,0.6990533738174939,0.001084827701561153,0.0021462482400238514,0.004922067746520042,-0.5872819618061185,-0.35296512623503806,9.819903062224387,585,1604569666.129049,rc,0.0,0.0,0.0,0.0,0.0,-10000.0
,,94746.192281,0.4432942867279053,8803,1604583461.207283,/world,vicon/test_obj/test_obj,-0.04878303014805505,-0.1196693729909698,0.6434209411158339,0.011955686695335177,-0.007478712261278463,-0.0014416976001416883,0.9998995209152697,1149067.0,0.019999999552965164,-0.07000000029802322,-1.0,-0.05999999865889549,-0.05999999865889549,-0.11999999731779099,-16.950000762939453,6.900000095367432,-65.56999969482422,1148691.0,0.14000000059604645,-0.07000000029802322,1.0099999904632568,-0.05999999865889549,0.18000000715255737,0.0,46.959999084472656,53.40999984741211,27.010000228881836,6512,1604569666.1729515,body_FLU,-0.03539250519398649,0.003485951481094519,0.7141780839738665,0.6990599996350685,-0.0014569710474461317,0.004117215983569622,-0.0016568672144785523,-0.6500235170871019,-0.3302367102876306,9.79180025267601,586,1604569666.186824,rc,0.0,0.0,0.0,0.0,0.0,-10000.0
,,94746.212155,0.46312761306762695,8805,1604583461.2269888,/world,vicon/test_obj/test_obj,-0.048798614324651886,-0.11967499895624474,0.6434427921230278,0.011919934743035281,-0.007459174338317351,-0.0014418475655753758,0.999900093484099,1149087.0,0.019999999552965164,-0.07000000029802322,-0.9900000095367432,-0.05999999865889549,-0.11999999731779099,0.0,-16.200000762939453,4.349999904632568,-66.91999816894531,1148711.0,0.14000000059604645,-0.07000000029802322,1.0099999904632568,-0.11999999731779099,-0.05999999865889549,0.0,47.560001373291016,52.36000061035156,26.40999984741211,6513,1604569666.1951232,body_FLU,-0.03541057383320159,0.0034782882191240947,0.7141886302357088,0.6990483482663487,0.004993054550141096,0.001706453156657517,0.005726233124732971,-0.568322671763599,-0.4505644236467779,9.779264224112033,586,1604569666.186824,rc,0.0,0.0,0.0,0.0,0.0,-10000.0
,,94746.232234,0.4831876754760742,8807,1604583461.2473414,/world,vicon/test_obj/test_obj,-0.04879539398665158,-0.11967391191854988,0.6434296209073832,0.011875985137768696,-0.007444903982709329,-0.0014488292647492642,0.9999007127087456,1149127.0,0.019999999552965164,-0.07999999821186066,-1.0,-0.05999999865889549,-0.18000000715255737,0.05999999865889549,-16.799999237060547,6.0,-68.41999816894531,1148731.0,0.14000000059604645,-0.07000000029802322,1.0,0.05999999865889549,0.05999999865889549,-0.11999999731779099,49.209999084472656,52.209999084472656,26.860000610351562,6514,1604569666.2146008,body_FLU,-0.03542832182293527,0.0034697340059437797,0.7141827397341929,0.6990535095573875,-0.0012604468502104282,0.007808632217347622,-0.001385701005347073,-0.5183684906959534,-0.4846294265650213,9.851061159968376,587,1604569666.2284396,rc,0.0,0.0,0.0,0.0,0.0,-10000.0
,,94746.252318,0.503361701965332,8809,1604583461.2672663,/world,vicon/test_obj/test_obj,-0.0487862382393087,-0.11967164692567928,0.6434298841049373,0.011891671963562576,-0.007427779992873287,-0.0014578400273133156,0.9999006405262191,1149146.0,0.009999999776482582,-0.07999999821186066,-1.0199999809265137,-0.11999999731779099,-0.05999999865889549,-0.05999999865889549,-16.200000762939453,5.400000095367432,-65.56999969482422,1148751.0,0.15000000596046448,-0.07000000029802322,1.0099999904632568,0.0,0.11999999731779099,0.05999999865889549,47.560001373291016,51.61000061035156,28.059999465942383,6516,1604569666.2505932,body_FLU,-0.03544990252554531,0.0034547574062893625,0.7141936624165687,0.6990413304134465,-0.0014655757695436478,0.0069594718515872955,0.003448185045272112,-0.44176648615300657,-0.39596082271635535,9.794708910405635,587,1604569666.2284396,rc,0.0,0.0,0.0,0.0,0.0,-10000.0
,,94746.272243,0.523155927658081,8811,1604583461.2872589,/world,vicon/test_obj/test_obj,-0.04878642303299557,-0.11967370795900761,0.6434324300002034,0.011922725331891502,-0.0074405812074988245,-0.0014501994113921713,0.9999001866654602,1149146.0,0.009999999776482582,-0.07999999821186066,-1.0199999809265137,-0.11999999731779099,-0.05999999865889549,-0.05999999865889549,-16.200000762939453,5.400000095367432,-65.56999969482422,1148751.0,0.15000000596046448,-0.07000000029802322,1.0099999904632568,0.0,0.11999999731779099,0.05999999865889549,47.560001373291016,51.61000061035156,28.059999465942383,6517,1604569666.2644436,body_FLU,-0.03546248304819118,0.0034432656465186043,0.7141931673175266,0.6990412548445933,-0.0003541534533724189,0.0019474017899483442,0.0032090977765619755,-0.5167742129825056,-0.42529801543056966,9.79501852852106,587,1604569666.2284396,rc,0.0,0.0,0.0,0.0,0.0,-10000.0
,,94746.292187,0.5431692600250244,8813,1604583461.307413,/world,vicon/test_obj/test_obj,-0.04880227211410313,-0.11967538553616025,0.6434423133874552,0.011894938621507874,-0.007465878658955604,-0.0014567005356281818,0.9999003195892028,1149167.0,0.029999999329447746,-0.07000000029802322,-0.9900000095367432,-0.11999999731779099,-0.05999999865889549,-0.11999999731779099,-17.100000381469727,4.949999809265137,-64.37000274658203,1148771.0,0.15000000596046448,-0.07999999821186066,1.0099999904632568,0.05999999865889549,0.05999999865889549,-0.11999999731779099,47.709999084472656,51.15999984741211,27.610000610351562,6519,1604569666.2839026,body_FLU,-0.03547058299977662,0.0034449277986477655,0.7141935417345459,0.6990404531633228,-0.0009046047343872488,0.007760358043015003,0.0018495202530175447,-0.6102209399789572,-0.5004195853359997,9.859545864701271,587,1604569666.2284396,rc,0.0,0.0,0.0,0.0,0.0,-10000.0
,,94746.312257,0.563305139541626,8815,1604583461.3271484,/world,vicon/test_obj/test_obj,-0.04878415506638285,-0.11967514238513523,0.6434352378523696,0.011892627339161107,-0.00744365942538596,-0.0014542122346108814,0.9999005163595563,1149187.0,0.009999999776482582,-0.07000000029802322,-0.9900000095367432,-0.05999999865889549,-0.05999999865889549,-0.11999999731779099,-16.200000762939453,6.599999904632568,-65.12000274658203,1148810.0,0.14000000059604645,-0.07999999821186066,1.0099999904632568,-0.05999999865889549,-0.11999999731779099,0.11999999731779099,48.7599983215332,52.810001373291016,27.15999984741211,6521,1604569666.3060353,body_FLU,-0.035500013390778386,0.003422019928236309,0.7141910107164725,0.6990416575860474,-0.00043481827015057206,0.005846523679792881,0.0014117385726422071,-0.6472167996615171,-0.4563726112134755,9.899401310563087,587,1604569666.2284396,rc,0.0,0.0,0.0,0.0,0.0,-10000.0
,,94746.332257,0.5831398963928223,8817,1604583461.3469727,/world,vicon/test_obj/test_obj,-0.04878881441451638,-0.11967439324990727,0.6434257323075314,0.011922393381152738,-0.007460244853890214,-0.0014419880439594706,0.9999000559822298,1149207.0,0.019999999552965164,-0.07000000029802322,-1.0099999904632568,0.0,-0.05999999865889549,-0.05999999865889549,-16.950000762939453,7.650000095367432,-65.12000274658203,1148831.0,0.14000000059604645,-0.07000000029802322,1.0099999904632568,-0.05999999865889549,-0.11999999731779099,0.05999999865889549,48.459999084472656,53.2599983215332,28.209999084472656,6523,1604569666.3254576,body_FLU,-0.03551273270190554,0.0034203193301239184,0.7141777437592232,0.6990545740861069,-0.0018603079952299595,0.003409560304135084,-0.002373423660174012,-0.5478232871778309,-0.3826713779009879,9.807239097118378,587,1604569666.2284396,rc,0.0,0.0,0.0,0.0,0.0,-10000.0
,,94746.352276,0.6032826900482178,8819,1604583461.3673742,/world,vicon/test_obj/test_obj,-0.04879209235706427,-0.11967163743156031,0.6434359875599458,0.011848245694947046,-0.007389128993503221,-0.0014503679186831317,0.9999014532840573,1149247.0,0.019999999552965164,-0.07000000029802322,-1.0,-0.05999999865889549,-0.05999999865889549,0.0,-16.649999618530273,6.150000095367432,-65.12000274658203,1148851.0,0.15000000596046448,-0.07999999821186066,1.0099999904632568,0.05999999865889549,0.05999999865889549,0.0,47.560001373291016,52.959999084472656,28.059999465942383,6523,1604569666.3254576,body_FLU,-0.03551273270190554,0.0034203193301239184,0.7141777437592232,0.6990545740861069,-0.0018603079952299595,0.003409560304135084,-0.002373423660174012,-0.5478232871778309,-0.3826713779009879,9.807239097118378,587,1604569666.2284396,rc,0.0,0.0,0.0,0.0,0.0,-10000.0
,,94746.372204,0.6231517791748047,8821,1604583461.387343,/world,vicon/test_obj/test_obj,-0.04878437972106051,-0.11967363484236268,0.6434384225488178,0.011867941082731311,-0.007404187803307402,-0.0014535245898988083,0.9999011037316125,1149267.0,0.019999999552965164,-0.07000000029802322,-1.0,-0.05999999865889549,-0.18000000715255737,0.0,-16.350000381469727,6.300000190734863,-65.72000122070312,1148871.0,0.15000000596046448,-0.07999999821186066,0.9900000095367432,0.0,-0.05999999865889549,0.0,48.61000061035156,53.709999084472656,26.709999084472656,6524,1604569666.3532434,body_FLU,-0.03555220087183415,0.003404123240392835,0.7141870264629997,0.6990431633240336,0.00033278821501880884,0.005170912481844425,0.0008781047072261572,-0.466661243095994,-0.3250764935575426,9.777111501932144,588,1604569666.367214,rc,0.0,0.0,0.0,0.0,0.0,-10000.0
,,94746.392737,0.6436822414398193,8823,1604583461.4071274,/world,vicon/test_obj/test_obj,-0.04879081951733724,-0.11967008224587741,0.6434295371175752,0.011864543000176656,-0.007385872306246346,-0.001427226968770749,0.9999013173972982,1149287.0,0.029999999329447746,-0.07999999821186066,-0.9900000095367432,0.05999999865889549,-0.05999999865889549,-0.05999999865889549,-16.049999237060547,5.699999809265137,-66.7699966430664,1148890.0,0.14000000059604645,-0.07000000029802322,0.9900000095367432,-0.11999999731779099,-0.05999999865889549,0.0,47.560001373291016,51.310001373291016,28.059999465942383,6525,1604569666.375375,body_FLU,-0.03555536750107443,0.003388556472909561,0.7141887534422227,0.6990413135026695,-0.002647608984261751,0.005793794058263302,0.003018751973286271,-0.4979524620249868,-0.2607325367387384,9.837020854711533,588,1604569666.367214,rc,0.0,0.0,0.0,0.0,0.0,-10000.0
,,94746.412367,0.6633281707763672,8825,1604583461.4269807,/world,vicon/test_obj/test_obj,-0.04879284767231376,-0.11967920218890034,0.6434277045080647,0.01192029246864733,-0.007464802709584876,-0.0014454918255890946,0.9999000419548701,1149287.0,0.029999999329447746,-0.07999999821186066,-0.9900000095367432,0.05999999865889549,-0.05999999865889549,-0.05999999865889549,-16.049999237060547,5.699999809265137,-66.7699966430664,1148890.0,0.14000000059604645,-0.07000000029802322,0.9900000095367432,-0.11999999731779099,-0.05999999865889549,0.0,47.560001373291016,51.310001373291016,28.059999465942383,6526,1604569666.3949184,body_FLU,-0.035567799368148446,0.0033756500551248127,0.7141869783627656,0.6990425570534852,0.0008329192642122507,0.0003884621837642044,0.00014637736603617668,-0.44679675820469855,-0.4838860875070095,9.699326668560506,589,1604569666.4087331,rc,0.0,0.0,0.0,0.0,0.0,-10000.0
,,94746.432316,0.683361291885376,8827,1604583461.44711,/world,vicon/test_obj/test_obj,-0.04878727336843273,-0.11967147768579905,0.6434337624700663,0.011897285928213963,-0.0073885096458798,-0.0014340968521820473,0.9999008990289856,1149307.0,0.019999999552965164,-0.07000000029802322,-1.0099999904632568,-0.05999999865889549,-0.05999999865889549,-0.05999999865889549,-17.850000381469727,5.25,-65.2699966430664,1148910.0,0.15000000596046448,-0.07999999821186066,1.0,-0.18000000715255737,-0.05999999865889549,0.0,47.2599983215332,51.90999984741211,27.309999465942383,6527,1604569666.422546,body_FLU,-0.035579889136410525,0.003376369330514748,0.7141867475629943,0.6990421741387114,-0.00044610246550291777,0.0052313972264528275,-0.0015244926325976849,-0.5362428394295276,-0.356247041746974,9.723406779348851,589,1604569666.4087331,rc,0.0,0.0,0.0,0.0,0.0,-10000.0
,,94746.452105,0.7030496597290039,8829,1604583461.467288,/world,vicon/test_obj/test_obj,-0.04879170842779699,-0.11967278814413605,0.6434337512015524,0.011878008344674248,-0.0074228712697174465,-0.0014434284552502065,0.999900860292745,1149327.0,0.019999999552965164,-0.07000000029802322,-1.0,0.0,0.0,-0.11999999731779099,-17.25,7.199999809265137,-66.16999816894531,1148951.0,0.14000000059604645,-0.07000000029802322,1.0199999809265137,0.0,-0.11999999731779099,0.0,48.310001373291016,52.36000061035156,27.760000228881836,6529,1604569666.4502861,body_FLU,-0.03557700318113365,0.00336803608863821,0.7141879925374157,0.6990410892736789,-0.0005330442800186574,0.0064894938841462135,-7.241284765768796e-05,-0.6126041231900453,-0.4568173586502671,9.815091713547707,589,1604569666.4087331,rc,0.0,0.0,0.0,0.0,0.0,-10000.0
,,94746.472445,0.7234041690826416,8831,1604583461.4874115,/world,vicon/test_obj/test_obj,-0.04879454417132692,-0.1196749626454813,0.6434276400966777,0.011889035433161515,-0.007403852741346688,-0.0014276408775092445,0.9999008929101816,1149347.0,0.029999999329447746,-0.07000000029802322,-1.0,0.0,-0.11999999731779099,-0.05999999865889549,-17.399999618530273,4.949999809265137,-66.0199966430664,1148970.0,0.14000000059604645,-0.07000000029802322,1.0199999809265137,0.05999999865889549,-0.05999999865889549,-0.11999999731779099,49.810001373291016,51.7599983215332,28.209999084472656,6530,1604569666.4641347,body_FLU,-0.0355833067604799,0.0033516160643047837,0.7141899891721859,0.6990388074463249,-0.0015885642496868968,0.003966033458709717,5.565947503782809e-05,-0.47185519651696084,-0.4594734293371439,9.868555167675018,589,1604569666.4087331,rc,0.0,0.0,0.0,0.0,0.0,-10000.0
,,94746.49226,0.743311882019043,8833,1604583461.5071304,/world,vicon/test_obj/test_obj,-0.0487897366093983,-0.1196750899037027,0.6434394574803847,0.011846158026241142,-0.007425596384190664,-0.0014469059415863888,0.9999012128813288,1149387.0,0.019999999552965164,-0.07000000029802322,-1.0099999904632568,-0.05999999865889549,-0.11999999731779099,0.05999999865889549,-17.399999618530273,7.050000190734863,-65.72000122070312,1148991.0,0.14000000059604645,-0.07000000029802322,1.0,-0.05999999865889549,-0.18000000715255737,-0.05999999865889549,47.709999084472656,54.310001373291016,27.90999984741211,6532,1604569666.4835682,body_FLU,-0.035584015835949834,0.0033630443663561923,0.7141834304227657,0.6990454173078795,0.0027140844613313675,0.009123871102929115,-0.00034555094316601753,-0.42898955424875024,-0.47848179093003274,9.84306483399868,589,1604569666.4087331,rc,0.0,0.0,0.0,0.0,0.0,-10000.0
,,94746.512192,0.7631583213806152,8835,1604583461.5272503,/world,vicon/test_obj/test_obj,-0.04878980522182893,-0.11967322759820974,0.6434246395592291,0.011929572358355756,-0.007488840554876273,-0.0014531292256193633,0.999899740466985,1149407.0,0.019999999552965164,-0.07999999821186066,-0.9900000095367432,0.05999999865889549,0.05999999865889549,0.0,-16.350000381469727,6.300000190734863,-66.0199966430664,1149011.0,0.14000000059604645,-0.07999999821186066,1.0,0.0,0.05999999865889549,0.05999999865889549,46.959999084472656,51.90999984741211,26.709999084472656,6534,1604569666.5029738,body_FLU,-0.03558535128489738,0.003341398125835456,0.7141828145021142,0.6990460823882313,-0.001969053875654936,0.004808174446225166,3.1140632927417755e-05,-0.5856188962943852,-0.39689296310395,9.982437384009362,589,1604569666.4087331,rc,0.0,0.0,0.0,0.0,0.0,-10000.0
,,94746.532193,0.7831366062164307,8837,1604583461.5473616,/world,vicon/test_obj/test_obj,-0.04878704750594202,-0.11967769058320016,0.6434329785064965,0.011865893644951744,-0.007420066593511352,-0.001441626247899709,0.9999010275489849,1149427.0,0.019999999552965164,-0.05999999865889549,-1.0099999904632568,0.0,0.0,0.0,-17.100000381469727,5.699999809265137,-67.06999969482422,1149031.0,0.15000000596046448,-0.07000000029802322,1.0199999809265137,-0.05999999865889549,-0.11999999731779099,-0.05999999865889549,48.7599983215332,52.810001373291016,27.90999984741211,6536,1604569666.5251498,body_FLU,-0.0355755500600741,0.003344382453684877,0.7141778704856105,0.6990516180172713,0.0008379627834074199,0.002895052544772625,-0.0005055710207670927,-0.5921593234017491,-0.4014811530634761,9.777969085693359,589,1604569666.4087331,rc,0.0,0.0,0.0,0.0,0.0,-10000.0
,,94746.552221,0.8031740188598633,8839,1604583461.5670877,/world,vicon/test_obj/test_obj,-0.048790138635376935,-0.11967223279136954,0.6434391283514995,0.011899390027091611,-0.0073936847154636096,-0.0014580865145724022,0.9999008010432973,1149427.0,0.019999999552965164,-0.05999999865889549,-1.0099999904632568,0.0,0.0,0.0,-17.100000381469727,5.699999809265137,-67.06999969482422,1149031.0,0.15000000596046448,-0.07000000029802322,1.0199999809265137,-0.05999999865889549,-0.11999999731779099,-0.05999999865889549,48.7599983215332,52.810001373291016,27.90999984741211,6538,1604569666.5418198,body_FLU,-0.035574839097418647,0.0033249384180047766,0.7141848163123127,0.6990446507603485,2.6735360734164715e-05,0.007240684702992439,0.004260065499693155,-0.5775182567685843,-0.36612970148026946,9.721960921168327,589,1604569666.4087331,rc,0.0,0.0,0.0,0.0,0.0,-10000.0
,,94746.572295,0.8232951164245605,8841,1604583461.5873954,/world,vicon/test_obj/test_obj,-0.04878685968379061,-0.11967251923230343,0.6434352428239313,0.01187077790414451,-0.0073740164003646665,-0.0014513461889401028,0.999901296182937,1149447.0,0.019999999552965164,-0.07000000029802322,-1.0099999904632568,-0.05999999865889549,-0.05999999865889549,-0.11999999731779099,-16.950000762939453,6.599999904632568,-65.56999969482422,1149051.0,0.15000000596046448,-0.07999999821186066,1.0099999904632568,0.0,0.0,-0.05999999865889549,49.36000061035156,52.959999084472656,28.360000610351562,6539,1604569666.555685,body_FLU,-0.03557124174051829,0.003330762672521543,0.7141824978132927,0.699047174801689,0.005506304558366537,0.00620327889919281,0.0004404401406645775,-0.6239717815071344,-0.3473316465318203,9.796696892380714,589,1604569666.4087331,rc,0.0,0.0,0.0,0.0,0.0,-10000.0
,,94746.592185,0.843123197555542,8843,1604583461.6071222,/world,vicon/test_obj/test_obj,-0.048794288428519475,-0.11967208539993306,0.6434350229485991,0.011903290924906348,-0.007420000788404744,-0.0014685505921791379,0.9999005443605956,1149467.0,0.019999999552965164,-0.07999999821186066,-0.9900000095367432,-0.30000001192092896,-0.05999999865889549,0.0,-18.149999618530273,5.25,-65.2699966430664,1149091.0,0.14000000059604645,-0.07999999821186066,1.0,-0.05999999865889549,0.0,0.0,47.709999084472656,52.810001373291016,28.959999084472656,6540,1604569666.5750687,body_FLU,-0.035574740031871374,0.0033212413227671467,0.7141708000795619,0.699058992890771,-0.001420884858816862,0.008786384016275406,-0.00023466038692276925,-0.5153496045358479,-0.37515653000772,9.715182036995888,590,1604569666.5889447,rc,0.0,0.0,0.0,0.0,0.0,-10000.0
,,94746.612235,0.8632552623748779,8845,1604583461.6273131,/world,vicon/test_obj/test_obj,-0.04878568397283803,-0.11967541682799142,0.6434370426190256,0.011880164517690542,-0.007401967678530184,-0.0014619009902364125,0.9999009628013233,1149487.0,0.019999999552965164,-0.07999999821186066,-1.0,-0.11999999731779099,-0.05999999865889549,0.0,-16.350000381469727,5.699999809265137,-65.2699966430664,1149111.0,0.15000000596046448,-0.07000000029802322,1.0099999904632568,-0.05999999865889549,-0.05999999865889549,-0.11999999731779099,49.060001373291016,52.36000061035156,27.309999465942383,6541,1604569666.6027994,body_FLU,-0.03556852789217406,0.003313494135816804,0.7141729009606199,0.6990571994577325,0.002314481884241104,0.0018423382425680757,-0.001696107559837401,-0.5424586786776782,-0.47746793764829637,9.763329406499864,590,1604569666.5889447,rc,0.0,0.0,0.0,0.0,0.0,-10000.0
,,94746.632632,0.8835773468017578,8847,1604583461.6474485,/world,vicon/test_obj/test_obj,-0.04879438537395313,-0.11967618717873567,0.643442190121272,0.011886883275728961,-0.007423611777747775,-0.0014463186499097146,0.9999007451525004,1149527.0,0.019999999552965164,-0.05999999865889549,-0.9900000095367432,0.0,-0.11999999731779099,-0.05999999865889549,-16.950000762939453,6.599999904632568,-65.56999969482422,1149131.0,0.14000000059604645,-0.07000000029802322,1.0,0.0,0.0,-0.18000000715255737,48.0099983215332,54.0099983215332,27.309999465942383,6543,1604569666.6222682,body_FLU,-0.0355772367431992,0.0033017761418738197,0.7141715661193356,0.6990581754379835,-0.001904885983094573,0.004980891477316618,0.0005535936797969043,-0.48961953588947654,-0.4619722812026739,9.792499522268772,590,1604569666.5889447,rc,0.0,0.0,0.0,0.0,0.0,-10000.0
,,94746.652099,0.9030342102050781,8849,1604583461.6673348,/world,vicon/test_obj/test_obj,-0.04878024386077912,-0.11966733363435246,0.6434396525529695,0.011862289785523235,-0.007404835066654701,-0.0014429988844039425,0.9999011812438765,1149547.0,0.019999999552965164,-0.07000000029802322,-1.0,-0.05999999865889549,-0.11999999731779099,0.05999999865889549,-16.799999237060547,5.25,-66.0199966430664,1149151.0,0.15000000596046448,-0.07999999821186066,1.0099999904632568,-0.05999999865889549,-0.11999999731779099,-0.11999999731779099,47.560001373291016,52.36000061035156,28.65999984741211,6545,1604569666.6500475,body_FLU,-0.035567466490277734,0.0033060935515108326,0.7141703842646756,0.6990598596058404,0.0003805719316005707,0.00733872689306736,0.0013682248536497355,-0.5379267165362835,-0.4885982707589865,9.689038000166416,590,1604569666.5889447,rc,0.0,0.0,0.0,0.0,0.0,-10000.0
,,94746.672221,0.92313551902771,8851,1604583461.6874063,/world,vicon/test_obj/test_obj,-0.04878781938642073,-0.11967058783780654,0.64342851998922,0.011878211582446115,-0.007411111664546814,-0.0014413536214903677,0.9999009481009786,1149547.0,0.019999999552965164,-0.07000000029802322,-1.0,-0.05999999865889549,-0.11999999731779099,0.05999999865889549,-16.799999237060547,5.25,-66.0199966430664,1149151.0,0.15000000596046448,-0.07999999821186066,1.0099999904632568,-0.05999999865889549,-0.11999999731779099,-0.11999999731779099,47.560001373291016,52.36000061035156,28.65999984741211,6546,1604569666.6638412,body_FLU,-0.035563608952615865,0.0032893087112722897,0.7141608035936465,0.6990699226664987,-0.0012437121476978064,0.00023069219605531543,-0.0019138188799843192,-0.621403630681336,-0.46419127188250425,9.772654753625392,590,1604569666.5889447,rc,0.0,0.0,0.0,0.0,0.0,-10000.0
,,94746.692177,0.9431235790252686,8853,1604583461.7070982,/world,vicon/test_obj/test_obj,-0.04879112981959585,-0.11967168776995002,0.6434380271343196,0.01189648747698068,-0.007458058064393976,-0.001446479579518367,0.9999003743635884,1149567.0,0.019999999552965164,-0.05999999865889549,-1.0,-0.05999999865889549,-0.11999999731779099,0.05999999865889549,-16.049999237060547,5.699999809265137,-65.72000122070312,1149171.0,0.15000000596046448,-0.07000000029802322,0.9900000095367432,0.05999999865889549,0.0,0.0,49.810001373291016,51.15999984741211,28.209999084472656,6548,1604569666.6833148,body_FLU,-0.035548921852684205,0.0032914369829938187,0.7141665714548825,0.6990647672527038,0.0031346906907856464,0.007852510549128056,0.0043407017365098,-0.5247888677604496,-0.5063870363719761,9.855144613981247,590,1604569666.5889447,rc,0.0,0.0,0.0,0.0,0.0,-10000.0
,,94746.712187,0.9631431102752686,8855,1604583461.7271068,/world,vicon/test_obj/test_obj,-0.04878937584586616,-0.11967214167063338,0.6434408084616706,0.011842057449210058,-0.007369653631534042,-0.0014387686520999081,0.9999016870800281,1149587.0,0.019999999552965164,-0.07999999821186066,-1.0,-0.18000000715255737,-0.05999999865889549,0.0,-17.700000762939453,6.150000095367432,-66.16999816894531,1149191.0,0.15000000596046448,-0.07999999821186066,1.0,0.0,0.0,-0.11999999731779099,48.310001373291016,52.65999984741211,27.309999465942383,6549,1604569666.702745,body_FLU,-0.035540972955689,0.003267290766277658,0.7141480662987404,0.6990841891032735,-0.0017585750902071595,0.0007866021478548646,-0.002687908709049225,-0.45133726405352353,-0.4514086441732943,9.812204670667649,590,1604569666.5889447,rc,0.0,0.0,0.0,0.0,0.0,-10000.0
,,94746.732198,0.9831087589263916,8857,1604583461.7472515,/world,vicon/test_obj/test_obj,-0.04879172406224539,-0.11967459735544714,0.6434394719282719,0.011917112052204614,-0.0074338784377709684,-0.0014380372727056878,0.9999003210023036,1149607.0,0.019999999552965164,-0.07999999821186066,-1.0,-0.05999999865889549,-0.05999999865889549,-0.11999999731779099,-15.449999809265137,6.599999904632568,-67.22000122070312,1149230.0,0.14000000059604645,-0.07000000029802322,1.0,-0.11999999731779099,-0.05999999865889549,0.05999999865889549,48.15999984741211,52.5099983215332,28.209999084472656,6550,1604569666.7221596,body_FLU,-0.03553527273831752,0.0032733309495546602,0.7141521126500716,0.6990803170547341,0.0014242304023355246,0.006122381892055273,0.005026680417358875,-0.6640083977803588,-0.3863755497224629,9.845817514300347,590,1604569666.5889447,rc,0.0,0.0,0.0,0.0,0.0,-10000.0
,,94746.752077,1.0030200481414795,8859,1604583461.767013,/world,vicon/test_obj/test_obj,-0.048798149864990786,-0.1196715323783401,0.6434294975833225,0.011891861118012012,-0.007436526428514289,-0.0014481695331143862,0.9999005873179749,1149627.0,0.019999999552965164,-0.07000000029802322,-1.0099999904632568,-0.05999999865889549,-0.11999999731779099,-0.11999999731779099,-18.0,5.099999904632568,-66.16999816894531,1149251.0,0.14000000059604645,-0.07999999821186066,1.0099999904632568,-0.05999999865889549,-0.05999999865889549,0.0,49.060001373291016,50.86000061035156,26.709999084472656,6552,1604569666.7498927,body_FLU,-0.03554787441932909,0.0032411015213973772,0.7141502751368048,0.6990817036707666,0.00019750543287955225,0.0066930148750543594,0.0025529013946652412,-0.385439137481153,-0.36713333152234556,9.847781544685365,590,1604569666.5889447,rc,0.0,0.0,0.0,0.0,0.0,-10000.0
,,94746.77218,1.0231413841247559,8861,1604583461.7871382,/world,vicon/test_obj/test_obj,-0.04878651293267814,-0.11967276230388152,0.6434356282025573,0.011884247060542441,-0.007405465461647084,-0.00146310533816105,0.9999008866262045,1149667.0,0.019999999552965164,-0.07000000029802322,-1.0,0.05999999865889549,0.05999999865889549,-0.11999999731779099,-17.399999618530273,5.25,-65.72000122070312,1149271.0,0.14000000059604645,-0.07000000029802322,1.0,-0.05999999865889549,-0.11999999731779099,0.0,48.459999084472656,53.560001373291016,27.15999984741211,6554,1604569666.7693293,body_FLU,-0.035532262556313254,0.0032391654835721784,0.7141428149655961,0.6990901272065095,-0.0012452692026272416,-0.0006746562430635095,-0.002757965587079525,-0.4795080216340721,-0.23317464412003755,9.81775559771061,590,1604569666.5889447,rc,0.0,0.0,0.0,0.0,0.0,-10000.0
,,94746.792137,1.0430848598480225,8863,1604583461.80735,/world,vicon/test_obj/test_obj,-0.048791398372477424,-0.11967112738128016,0.6434439812861541,0.011829410900272683,-0.007409281607513869,-0.0014483007934757428,0.9999015301561572,1149687.0,0.019999999552965164,-0.07000000029802322,-1.0,-0.11999999731779099,-0.05999999865889549,0.0,-17.25,6.599999904632568,-65.12000274658203,1149291.0,0.14000000059604645,-0.07999999821186066,1.0099999904632568,-0.05999999865889549,-0.11999999731779099,0.0,48.15999984741211,52.5099983215332,27.90999984741211,6555,1604569666.7831638,body_FLU,-0.035539085838831794,0.0032311760915346506,0.7141465899075371,0.6990859610965175,-0.0034179268404841423,0.006808986887335777,-0.00014372216537594795,-0.5187826414369047,-0.20036845060810446,9.756008398532867,590,1604569666.5889447,rc,0.0,0.0,0.0,0.0,0.0,-10000.0
,,94746.812704,1.0636789798736572,8865,1604583461.8271277,/world,vicon/test_obj/test_obj,-0.04879234916705936,-0.11967253283554359,0.6434343615135558,0.011891570306321878,-0.007397071302349994,-0.0014477968935060234,0.9999008839759833,1149687.0,0.019999999552965164,-0.07000000029802322,-1.0,-0.11999999731779099,-0.05999999865889549,0.0,-17.25,6.599999904632568,-65.12000274658203,1149291.0,0.14000000059604645,-0.07999999821186066,1.0099999904632568,-0.05999999865889549,-0.11999999731779099,0.0,48.15999984741211,52.5099983215332,27.90999984741211,6556,1604569666.8026063,body_FLU,-0.03551046165407231,0.0032276646226317815,0.7141466630782031,0.6990873571367644,0.0022997278720140457,-0.002233099192380905,-0.0007188753806985915,-0.5046860718503594,-0.3606041134670377,9.892274252057076,590,1604569666.5889447,rc,0.0,0.0,0.0,0.0,0.0,-10000.0
,,94746.832164,1.0831263065338135,8867,1604583461.847374,/world,vicon/test_obj/test_obj,-0.04879054852521225,-0.11966605279477259,0.6434352981115817,0.01186093448682692,-0.0073978308545873716,-0.0014468487203152791,0.9999012436038504,1149707.0,0.019999999552965164,-0.07999999821186066,-1.0,-0.18000000715255737,-0.05999999865889549,-0.05999999865889549,-17.25,6.599999904632568,-66.16999816894531,1149310.0,0.14000000059604645,-0.07000000029802322,1.0099999904632568,-0.05999999865889549,-0.11999999731779099,0.05999999865889549,47.709999084472656,51.7599983215332,27.610000610351562,6558,1604569666.8219683,body_FLU,-0.03550336223147733,0.0032222741079646604,0.7141421804411828,0.6990923217533909,-0.0004472033469937742,0.006980058271437883,-0.0004713587695732713,-0.5340693056546152,-0.3807157816886902,9.844076642632485,590,1604569666.5889447,rc,0.0,0.0,0.0,0.0,0.0,-10000.0
,,94746.852066,1.1029939651489258,8869,1604583461.8674345,/world,vicon/test_obj/test_obj,-0.048787955754068316,-0.11966788469076435,0.6434356362625366,0.011859949032903263,-0.007436431455000708,-0.0014313160139266601,0.9999009913139502,1149727.0,0.019999999552965164,-0.05999999865889549,-1.0,-0.05999999865889549,-0.05999999865889549,0.0,-17.700000762939453,6.150000095367432,-66.91999816894531,1149351.0,0.15000000596046448,-0.07000000029802322,1.0199999809265137,-0.05999999865889549,0.0,-0.11999999731779099,48.0099983215332,51.90999984741211,28.059999465942383,6560,1604569666.8498852,body_FLU,-0.035464193384096336,0.0032299157442944523,0.7141451548612342,0.6990912361202392,0.001834208844229579,0.008408589288592339,0.0027671735733747482,-0.4809056480303407,-0.47628751858323815,9.781668730080128,590,1604569666.5889447,rc,0.0,0.0,0.0,0.0,0.0,-10000.0
,,94746.87225,1.1232967376708984,8871,1604583461.887127,/world,vicon/test_obj/test_obj,-0.04879319654627815,-0.11967475773317747,0.6434342776880484,0.011890549918542676,-0.007425185584748773,-0.0014419627344783859,0.9999006961619434,1149747.0,0.019999999552965164,-0.07000000029802322,-1.0099999904632568,-0.05999999865889549,-0.23999999463558197,-0.05999999865889549,-17.25,6.150000095367432,-65.56999969482422,1149371.0,0.14000000059604645,-0.07999999821186066,1.0099999904632568,-0.05999999865889549,-0.05999999865889549,0.0,48.0099983215332,52.959999084472656,27.309999465942383,6561,1604569666.8636274,body_FLU,-0.035476363880307074,0.0032220065593026484,0.7141469124492794,0.6990888596728781,-0.0033901853021234274,0.0063317748717963696,-3.894651308655739e-05,-0.5058443649038673,-0.42379242432117464,9.80842031943798,590,1604569666.5889447,rc,0.0,0.0,0.0,0.0,0.0,-10000.0
,,94746.89223,1.1431756019592285,8873,1604583461.9072425,/world,vicon/test_obj/test_obj,-0.04879251779309446,-0.11966959365439903,0.6434339353206838,0.011880286642131508,-0.007399466063974616,-0.0014407111042982303,0.9999010106219429,1149787.0,0.009999999776482582,-0.07000000029802322,-1.0099999904632568,0.05999999865889549,0.11999999731779099,0.05999999865889549,-15.899999618530273,6.900000095367432,-65.12000274658203,1149391.0,0.14000000059604645,-0.07000000029802322,1.0099999904632568,-0.05999999865889549,-0.05999999865889549,-0.05999999865889549,48.459999084472656,51.7599983215332,27.90999984741211,6563,1604569666.8832707,body_FLU,-0.03544786400938057,0.00322325246178667,0.714144617145484,0.6990926443489948,0.004869349300861359,0.004081075079739094,-0.0006268408615142107,-0.44038204043358564,-0.44085756712406876,9.883710098147393,590,1604569666.5889447,rc,0.0,0.0,0.0,0.0,0.0,-10000.0
,,94746.912124,1.1630704402923584,8875,1604583461.927373,/world,vicon/test_obj/test_obj,-0.04879484884714104,-0.11966731982997915,0.6434367835193905,0.011862030610949786,-0.007394123497181412,-0.0014510359494455032,0.9999012519554952,1149807.0,0.029999999329447746,-0.07999999821186066,-1.0099999904632568,-0.11999999731779099,-0.11999999731779099,-0.05999999865889549,-18.0,5.099999904632568,-65.87000274658203,1149411.0,0.14000000059604645,-0.07000000029802322,1.0,0.0,0.0,-0.11999999731779099,48.7599983215332,52.5099983215332,27.610000610351562,6564,1604569666.9024155,body_FLU,-0.03545134169279366,0.0032159084255140706,0.7141604178628049,0.6990763605381055,-0.00039024295983836055,0.002391253598034382,0.0035317144356667995,-0.5851618809700012,-0.40601946821808815,9.869350827813149,590,1604569666.5889447,rc,0.0,0.0,0.0,0.0,0.0,-10000.0
,,94746.932229,1.1831519603729248,8877,1604583461.9471474,/world,vicon/test_obj/test_obj,-0.04879324896204459,-0.11967303493503793,0.6434300691765065,0.011893892431735033,-0.007441749102287325,-0.0014478574775445923,0.9999005247532604,1149807.0,0.029999999329447746,-0.07999999821186066,-1.0099999904632568,-0.11999999731779099,-0.11999999731779099,-0.05999999865889549,-18.0,5.099999904632568,-65.87000274658203,1149411.0,0.14000000059604645,-0.07000000029802322,1.0,0.0,0.0,-0.11999999731779099,48.7599983215332,52.5099983215332,27.610000610351562,6566,1604569666.9218898,body_FLU,-0.03543396654937278,0.0032243456876678367,0.7141449287356849,0.6990930255485087,0.001200797501951456,0.009097696281969547,-0.0029399495106190443,-0.5812761005982757,-0.42814423837512733,9.819213723778725,590,1604569666.5889447,rc,0.0,0.0,0.0,0.0,0.0,-10000.0
,,94746.952189,1.2031652927398682,8879,1604583461.9672046,/world,vicon/test_obj/test_obj,-0.04878781169724201,-0.11967546989475418,0.6434304039840071,0.011914174563211859,-0.007437955877957784,-0.0014577701109312474,0.9999002971112363,1149827.0,0.019999999552965164,-0.07000000029802322,-1.0099999904632568,-0.11999999731779099,-0.05999999865889549,0.11999999731779099,-19.049999237060547,6.599999904632568,-65.56999969482422,1149431.0,0.14000000059604645,-0.07000000029802322,0.9900000095367432,0.05999999865889549,0.0,0.0,47.560001373291016,51.90999984741211,27.760000228881836,6567,1604569666.9440472,body_FLU,-0.0354237041463536,0.0032188125095046647,0.714152474020541,0.6990858633107386,-0.0004125765117350966,0.00309878122061491,0.0028444770723581314,-0.5381036150939763,-0.4790109166055918,9.721871540844441,590,1604569666.5889447,rc,0.0,0.0,0.0,0.0,0.0,-10000.0
,,94746.972222,1.2231800556182861,8881,1604583461.9873912,/world,vicon/test_obj/test_obj,-0.04879877575614379,-0.11966796927886836,0.6434281475887229,0.0119079533819042,-0.007415074663777409,-0.0014458314875318908,0.9999005584983413,1149847.0,0.019999999552965164,-0.07999999821186066,-1.0,0.0,0.0,0.05999999865889549,-15.899999618530273,5.849999904632568,-65.87000274658203,1149450.0,0.15000000596046448,-0.07000000029802322,1.0099999904632568,0.0,0.05999999865889549,0.0,48.61000061035156,51.310001373291016,28.059999465942383,6569,1604569666.963413,body_FLU,-0.03542136137133716,0.003240814750567434,0.7141477836240708,0.6990906718181705,0.002345417160540819,0.007574834860861301,-0.0024205315858125687,-0.513718158043921,-0.5785282033123076,9.746031684994698,590,1604569666.5889447,rc,0.0,0.0,0.0,0.0,0.0,-10000.0
,,94746.992452,1.24349045753479,8883,1604583462.710874,/world,vicon/test_obj/test_obj,-0.0487771087294458,-0.11967115138713416,0.6434301517269874,0.01188811034599094,-0.0074044146610609644,-0.0014631782488337144,0.9999008483771482,1149867.0,0.019999999552965164,-0.07000000029802322,-1.0099999904632568,-0.05999999865889549,-0.18000000715255737,-0.05999999865889549,-16.950000762939453,7.949999809265137,-65.56999969482422,1149491.0,0.15000000596046448,-0.07999999821186066,1.0099999904632568,-0.05999999865889549,-0.11999999731779099,-0.11999999731779099,47.11000061035156,50.709999084472656,26.860000610351562,6570,1604569666.982828,body_FLU,-0.03541591072787237,0.0032439742780173255,0.714147690419985,0.6990910285263287,0.00045406882418319583,0.0052180509082973,0.0017345701344311237,-0.39282480743899945,-0.3888709695003927,9.731984953701497,590,1604569666.5889447,rc,0.0,0.0,0.0,0.0,0.0,-10000.0
,,94747.012262,1.2633063793182373,8885,1604583462.2718534,/world,vicon/test_obj/test_obj,-0.04879080033556001,-0.11967290550805587,0.6434313261543133,0.011936711508559157,-0.007464248280470989,-0.001460707708443707,0.9998998281072756,1149887.0,0.009999999776482582,-0.07000000029802322,-0.9900000095367432,0.0,-0.05999999865889549,-0.05999999865889549,-17.100000381469727,6.0,-65.2699966430664,1149510.0,0.15000000596046448,-0.07000000029802322,1.0099999904632568,-0.05999999865889549,-0.05999999865889549,-0.11999999731779099,47.709999084472656,52.209999084472656,27.15999984741211,6571,1604569667.2250578,body_FLU,-0.03540062319219183,0.0032573059658036704,0.7141432523345365,0.6990962744719073,0.0023717584554105997,0.0009096473222598433,-0.0014546639285981655,-0.5199624398052692,-0.34016365855559705,9.786924059450627,590,1604569666.5889447,rc,0.0,0.0,0.0,0.0,0.0,-10000.0
,,94747.032218,1.28316330909729,8887,1604583462.4711425,/world,vicon/test_obj/test_obj,-0.048795729351763385,-0.11967193081777698,0.6434347868819938,0.011896706282866707,-0.007397396193641922,-0.00147442786855749,0.9999007815636679,1149927.0,0.019999999552965164,-0.07000000029802322,-1.0099999904632568,-0.05999999865889549,-0.05999999865889549,0.05999999865889549,-16.200000762939453,7.199999809265137,-65.56999969482422,1149530.0,0.12999999523162842,-0.07000000029802322,0.9900000095367432,-0.05999999865889549,-0.18000000715255737,-0.05999999865889549,47.40999984741211,52.5099983215332,26.860000610351562,6573,1604569667.2168531,body_FLU,-0.03540108304235573,0.003255998113547954,0.7141421082457413,0.699097425990141,0.0015616110758855939,0.006886494345963001,-0.0017780645284801722,-0.6430593732073904,-0.43495119994506243,9.799104319274425,590,1604569666.5889447,rc,0.0,0.0,0.0,0.0,0.0,-10000.0
,,94747.052659,1.3036108016967773,8889,1604583462.6732585,/world,vicon/test_obj/test_obj,-0.048788796081856566,-0.119673878736778,0.6434342016779222,0.01188405057076197,-0.007421525134193143,-0.0014544556794122319,0.9999007825106403,1149947.0,0.019999999552965164,-0.07000000029802322,-1.0,-0.05999999865889549,0.0,-0.05999999865889549,-17.700000762939453,5.849999904632568,-65.56999969482422,1149550.0,0.15000000596046448,-0.07000000029802322,1.0099999904632568,-0.11999999731779099,-0.05999999865889549,-0.18000000715255737,48.7599983215332,52.5099983215332,27.90999984741211,6575,1604569667.4940062,body_FLU,-0.03539377143369991,0.0032678994100538324,0.7141433664872796,0.6990964553474435,-0.0010669552721083164,0.007776977494359016,0.0036430309992283583,-0.5223038902916014,-0.507545000821352,9.71130947381258,590,1604569666.5889447,rc,0.0,0.0,0.0,0.0,0.0,-10000.0
,,94747.072396,1.3234047889709473,8891,1604583462.8738704,/world,vicon/test_obj/test_obj,-0.04879074917684462,-0.11967456925157824,0.643434177692667,0.011885030373944738,-0.007416074292305608,-0.0014447957703479532,0.9999008253123324,1149967.0,0.009999999776482582,-0.07000000029802322,-1.0099999904632568,-0.05999999865889549,-0.18000000715255737,-0.05999999865889549,-18.149999618530273,6.300000190734863,-65.2699966430664,1149571.0,0.15000000596046448,-0.07000000029802322,0.9900000095367432,0.0,-0.11999999731779099,0.0,49.060001373291016,51.90999984741211,27.010000228881836,6576,1604569667.6328015,body_FLU,-0.03539072372366078,0.0032622201252684863,0.7141438716182078,0.6990961201611167,-0.0008650979725643992,0.0011662732576951385,0.001176029909402132,-0.5131310885064304,-0.513007861956954,9.780229297935962,590,1604569666.5889447,rc,0.0,0.0,0.0,0.0,0.0,-10000.0
