name,date,time,time_since_start,vicon_sequence,vicon_time_stamp,vicon_frame_id,vicon_child_frame_id,vicon_translation_x,vicon_translation_y,vicon_translation_z,vicon_rotation_x,vicon_rotation_y,vicon_rotation_z,vicon_rotation_w,int_imu_time_stamp,int_imu_acc_x,int_imu_acc_y,int_imu_acc_z,int_imu_gyro_x,int_imu_gyro_y,int_imu_gyro_z,int_imu_mag_x,int_imu_mag_y,int_imu_mag_z,ext_imu_time_stamp,ext_imu_acc_x,ext_imu_acc_y,ext_imu_acc_z,ext_imu_gyro_x,ext_imu_gyro_y,ext_imu_gyro_z,ext_imu_mag_x,ext_imu_mag_y,ext_imu_mag_z,dji_imu_sequence,dji_imu_time_stamp,dji_imu_frame_id,dji_imu_orientation_x,dji_imu_orientation_y,dji_imu_orientation_z,dji_imu_orientation_w,dji_imu_ang_vel_x,dji_imu_ang_vel_y,dji_imu_ang_vel_z,dji_imu_lin_acc_x,dji_imu_lin_acc_y,dji_imu_lin_acc_z,rc_sequence,rc_time_stamp,rc_frame_id,rc_roll,rc_pitch,rc_yaw,rc_throttle,rc_mode,rc_landing_gear
/root/Desktop/transfer/20102020/dji_vicon_test3.csv,20201020,122039.131081,0.00025582313537597656,28321,1603197220.2527237,/world,vicon/testobj/testobj,-0.009788139596245433,-0.21006387062053283,1.3940667485778502,0.0018900138294831934,-0.0016523733109597455,0.0024570887518484863,0.9999938300934818,1786525.0,0.03,0.16,-1.0,-0.06,-0.12,-0.06,-55.66,1.5,-51.76,1836965.0,0.15,0.11,1.0,0.0,0.0,-0.06,-6.9,35.26,17.7,29545,1603196439.126819,body_FLU,-0.026598485802746877,0.004054965150415332,-0.5950871516236771,0.803210657164762,0.004602232947945595,0.009506253525614738,6.0862861573696136e-05,0.14201418037153782,-0.35942362137883904,9.706800148844719,3043,1603196439.2418513,rc,0.0,0.0,0.0,0.0,0.0,-10000.0
,,122039.160631,0.029825687408447266,28323,1603197220.2729962,/world,vicon/testobj/testobj,-0.009792730814125161,-0.21006367249537064,1.3940796079784923,0.001819507811407898,-0.0017273290993040857,0.0024590739312021657,0.9999938293214152,1786535.0,0.04,0.15,-0.99,-0.06,-0.12,-0.06,-55.66,0.45,-52.51,1836973.0,0.16,0.11,0.99,-0.06,-0.12,0.0,-4.5,35.26,17.1,29548,1603196439.1572948,body_FLU,-0.02662054628919911,0.004033539032732858,-0.5950909131332193,0.8032072473430548,-0.0019320473074913025,0.005856528878211975,-0.0017801725771278143,0.10106681949086488,-0.48000917944684623,9.886870539665223,3043,1603196439.2418513,rc,0.0,0.0,0.0,0.0,0.0,-10000.0
,,122039.186066,0.05524134635925293,28326,1603197220.302986,/world,vicon/testobj/testobj,-0.0097918116159045,-0.210064906942479,1.394063645554192,0.0019602691145788956,-0.0016096792842438996,0.002464850269584505,0.9999937453758143,1786545.0,0.04,0.15,-0.98,-0.06,-0.12,-0.06,-55.96,0.45,-52.51,1836982.0,0.15,0.13,0.99,0.06,-0.06,-0.06,-5.4,34.81,17.25,29550,1603196439.1766834,body_FLU,-0.02662298325132323,0.004011932041200061,-0.5950811766106806,0.8032144884199641,0.002667331602424383,0.0026257503777742386,0.0033724585082381964,0.056878499952144924,-0.5992656433358788,9.825416601419448,3043,1603196439.2418513,rc,0.0,0.0,0.0,0.0,0.0,-10000.0
,,122039.212165,0.08134651184082031,28329,1603197220.3329296,/world,vicon/testobj/testobj,-0.009792717485948194,-0.2100665724199981,1.394063682861354,0.001926933646708883,-0.0016018815959276456,0.00247959386490852,0.999993786238864,1786554.0,0.04,0.15,-0.98,-0.06,-0.18,0.06,-54.91,-0.3,-51.76,1836991.0,0.15,0.11,1.01,0.0,0.06,-0.12,-5.4,34.81,17.25,29552,1603196439.2071817,body_FLU,-0.02664733105420014,0.004003600150786353,-0.5950870793153226,0.8032093494011877,0.0006097527802921832,0.002973902504891157,-0.002208939753472805,0.1779897242244333,-0.3005421970915049,9.85602206003666,3043,1603196439.2418513,rc,0.0,0.0,0.0,0.0,0.0,-10000.0
,,122039.235331,0.10454058647155762,28331,1603197220.352992,/world,vicon/testobj/testobj,-0.009795457208944617,-0.21006182615517732,1.3940809635811553,0.001864744625530194,-0.0016568451566152033,0.0024791147784650617,0.9999938157716395,1786564.0,0.04,0.15,-0.99,-0.12,-0.06,0.06,-53.56,0.75,-53.41,1836999.0,0.14,0.12,1.0,-0.06,0.0,0.06,-6.15,34.96,17.1,29552,1603196439.2071817,body_FLU,-0.02664733105420014,0.004003600150786353,-0.5950870793153226,0.8032093494011877,0.0006097527802921832,0.002973902504891157,-0.002208939753472805,0.1779897242244333,-0.3005421970915049,9.85602206003666,3043,1603196439.2418513,rc,0.0,0.0,0.0,0.0,0.0,-10000.0
,,122039.257198,0.12637710571289062,28333,1603197220.372963,/world,vicon/testobj/testobj,-0.009791225724159774,-0.21005626111079012,1.3940797047749696,0.0019664536767934537,-0.001622570762213673,0.0024755245533469696,0.9999936860311891,1786574.0,0.04,0.15,-0.99,0.06,0.0,-0.06,-54.91,0.15,-52.06,1837044.0,0.15,0.11,0.99,0.0,0.06,-0.06,-4.35,35.86,17.85,29553,1603196439.2377527,body_FLU,-0.026643568308114214,0.004008693360518453,-0.5950831530779425,0.8032123577038432,-0.0004122700775042176,0.00468393974006176,-0.001246100291609764,0.25685080915130676,-0.5632973652854562,9.857154210805893,3043,1603196439.2418513,rc,0.0,0.0,0.0,0.0,0.0,-10000.0
,,122039.279798,0.14901995658874512,28335,1603197220.3929603,/world,vicon/testobj/testobj,-0.009791766295397752,-0.21005065822979804,1.394070520094675,0.0019490636917656931,-0.001587484080957481,0.0024872885041045635,0.9999937472009091,1786584.0,0.04,0.15,-0.99,-0.06,-0.12,0.0,-57.31,1.35,-52.66,1837053.0,0.13,0.12,1.01,0.0,0.12,0.06,-4.5,34.96,17.4,29555,1603196439.2654624,body_FLU,-0.026649211819439723,0.004003004820886435,-0.595092831515383,0.8032050282093673,-0.0007210553158074617,0.005607919301837683,-0.0009247438283637166,0.27266716497391463,-0.5242057049609721,9.89566603088379,3043,1603196439.2418513,rc,0.0,0.0,0.0,0.0,0.0,-10000.0
,,122039.305385,0.17456316947937012,28338,1603197220.4229815,/world,vicon/testobj/testobj,-0.009798273283924408,-0.2100679959723703,1.394058787865661,0.0018807138595148803,-0.0016438989644426505,0.0024544375597194456,0.9999938681051194,1786594.0,0.03,0.14,-0.99,-0.06,-0.06,0.0,-54.76,0.0,-50.86,1837062.0,0.14,0.12,1.0,0.06,0.0,0.0,-5.4,34.36,17.85,29558,1603196439.2987168,body_FLU,-0.026656121942389508,0.003993745786384636,-0.595090096484363,0.8032068713748768,0.0044096363708376884,0.00704573281109333,0.0010555681074038148,0.19786368386819958,-0.472482392270118,9.830565609097482,3043,1603196439.2418513,rc,0.0,0.0,0.0,0.0,0.0,-10000.0
,,122039.328949,0.19812750816345215,28340,1603197220.4429476,/world,vicon/testobj/testobj,-0.009791349974673413,-0.21006617339368064,1.3940676349505157,0.0019040376056484846,-0.001571416907888841,0.0024260522625887105,0.999994009762117,1786604.0,0.04,0.15,-0.99,-0.12,-0.06,0.06,-56.26,0.6,-54.01,1837070.0,0.13,0.12,1.0,0.0,0.0,0.0,-5.4,34.36,17.85,29561,1603196439.3265028,body_FLU,-0.026667230812779837,0.003991014224843855,-0.5950977582251994,0.8032008396170767,-0.0003941472969017923,0.007735753431916237,-0.00329365162178874,0.20576431301236153,-0.39940780703723433,9.878004946231842,3043,1603196439.2418513,rc,0.0,0.0,0.0,0.0,0.0,-10000.0
,,122039.352948,0.22212624549865723,28343,1603197220.473008,/world,vicon/testobj/testobj,-0.009794877683091502,-0.21006659588212676,1.3940639779755895,0.00187747414355427,-0.001638119229501774,0.002426846551746492,0.9999939510177271,1786614.0,0.04,0.15,-0.99,-0.06,-0.12,0.0,-54.61,-0.3,-51.46,1837078.0,0.14,0.12,1.0,0.0,0.0,0.0,-5.1,34.51,16.35,29563,1603196439.348626,body_FLU,-0.026668066969722584,0.003978163358078481,-0.5950988813110001,0.8032000435027322,0.0015394878573715687,0.00849983561784029,-0.0035275355912745,0.29698852596245706,-0.5801179535910487,9.864649305939675,3043,1603196439.2418513,rc,0.0,0.0,0.0,0.0,0.0,-10000.0
,,122039.376757,0.24596881866455078,28345,1603197220.4929996,/world,vicon/testobj/testobj,-0.00979387238810338,-0.21005989310901593,1.3940605246588622,0.0019129053805771073,-0.0015998847247438062,0.0024675921600874366,0.9999938460564665,1786625.0,0.04,0.16,-0.98,-0.06,-0.06,-0.06,-56.41,1.5,-52.06,1837087.0,0.14,0.12,1.0,-0.06,-0.12,-0.12,-7.2,34.21,18.0,29565,1603196439.368086,body_FLU,-0.02667958912888414,0.003972294448729523,-0.595084683719159,0.803210208851702,6.020889850333333e-05,0.0007389271631836891,0.002294856822118163,0.23461365638114512,-0.5963829818442464,9.869751578807831,3043,1603196439.2418513,rc,0.0,0.0,0.0,0.0,0.0,-10000.0
,,122039.402155,0.27133703231811523,28348,1603197220.5229106,/world,vicon/testobj/testobj,-0.009790026295203137,-0.2100623903270051,1.3940754306401082,0.0019213060803717542,-0.0015908043275097803,0.0024278646921126615,0.9999939416804353,1786635.0,0.03,0.15,-1.0,-0.06,-0.06,0.0,-55.66,-0.6,-52.06,1837096.0,0.15,0.12,1.01,-0.06,-0.12,-0.06,-5.4,36.16,17.85,29566,1603196439.3875184,body_FLU,-0.026658007520703006,0.003975982329788224,-0.5950973219885565,0.803201543550302,0.0017001035157591105,0.010027926415205002,-0.0017236083513125777,0.1264875712422654,-0.5070747683085501,9.855761513471604,3043,1603196439.2418513,rc,0.0,0.0,0.0,0.0,0.0,-10000.0
,,122039.425392,0.294569730758667,28350,1603197220.5432677,/world,vicon/testobj/testobj,-0.009792671156535138,-0.21006258253161844,1.3940661578732574,0.0018626783951962776,-0.0016175493470424194,0.0024318019741174533,0.9999940001332331,1786644.0,0.04,0.15,-1.0,-0.06,-0.12,-0.06,-55.36,2.25,-53.41,1837104.0,0.14,0.11,1.01,0.06,0.06,0.06,-5.4,34.36,16.8,29567,1603196439.41802,body_FLU,-0.026642543873029365,0.003990455470997554,-0.5951013263710238,0.8031990179728534,0.0026935243513435125,0.0063694436103105545,-0.0007488048868253827,0.2806868766043335,-0.4743363402709365,9.930323397517204,3044,1603196439.4041495,rc,0.0,0.0,0.0,0.0,0.0,-10000.0
,,122039.44688,0.3160593509674072,28352,1603197220.563162,/world,vicon/testobj/testobj,-0.009786377872185911,-0.2100705072343337,1.3940509846206945,0.0018412142122773015,-0.001631757602619533,0.0024697711563479064,0.9999939237454326,1786654.0,0.04,0.15,-1.0,0.06,0.06,0.06,-55.06,0.0,-52.21,1837113.0,0.14,0.12,1.0,0.0,-0.06,0.0,-7.05,34.36,17.25,29567,1603196439.41802,body_FLU,-0.026642543873029365,0.003990455470997554,-0.5951013263710238,0.8031990179728534,0.0026935243513435125,0.0063694436103105545,-0.0007488048868253827,0.2806868766043335,-0.4743363402709365,9.930323397517204,3044,1603196439.4041495,rc,0.0,0.0,0.0,0.0,0.0,-10000.0
,,122039.469924,0.33910536766052246,28354,1603197220.5832279,/world,vicon/testobj/testobj,-0.009788956405733545,-0.21005941504423015,1.3940724718076223,0.0019910327039904087,-0.0015903976350475396,0.002477244799529712,0.9999936848212279,1786664.0,0.03,0.15,-0.99,0.06,0.12,0.0,-56.41,0.15,-52.81,1837121.0,0.14,0.12,1.0,0.0,0.0,0.06,-6.9,36.01,17.7,29570,1603196439.465136,body_FLU,-0.026627404345585942,0.003999083782171936,-0.5951045176182398,0.8031971126548464,0.004915229976177216,0.0046548377722501755,0.0013690460473299026,0.049441686412319545,-0.48308538877218965,9.967193657398225,3044,1603196439.4041495,rc,0.0,0.0,0.0,0.0,0.0,-10000.0
,,122039.496401,0.36558008193969727,28357,1603197220.6130502,/world,vicon/testobj/testobj,-0.00979179461184497,-0.21005808769223128,1.394065247561891,0.0018926197897407755,-0.0016617314135195585,0.002498142577582624,0.9999937079415564,1786674.0,0.03,0.15,-0.99,-0.06,-0.06,0.0,-54.61,1.95,-52.81,1837130.0,0.16,0.12,0.98,0.0,0.0,0.06,-6.9,36.01,17.7,29572,1603196439.4845493,body_FLU,-0.026625464929826988,0.004024419205445341,-0.5951140596456015,0.8031899804401578,-0.002357752528041601,0.0036238497123122215,-0.002502760849893093,0.23750374797731638,-0.3805127043351531,9.884230022907257,3044,1603196439.4041495,rc,0.0,0.0,0.0,0.0,0.0,-10000.0
,,122039.51915,0.3883323669433594,28359,1603197220.6330092,/world,vicon/testobj/testobj,-0.009786706202240444,-0.21007594991333978,1.394063387848185,0.0019183876701911499,-0.0015830664190616148,0.0024333135193730874,0.9999939463190646,1786684.0,0.03,0.15,-0.99,0.0,0.0,-0.12,-55.66,-0.3,-52.51,1837138.0,0.14,0.11,1.0,0.0,-0.12,-0.18,-5.55,34.51,17.1,29574,1603196439.517812,body_FLU,-0.026624831875482993,0.004037515091188301,-0.59511530284403,0.8031890145665272,-0.0028205220587551594,0.0057846722193062305,-0.0019006982911378145,0.24943561958894134,-0.5066625891923905,9.838202077031136,3044,1603196439.4041495,rc,0.0,0.0,0.0,0.0,0.0,-10000.0
,,122039.541949,0.411130428314209,28362,1603197220.6630526,/world,vicon/testobj/testobj,-0.009796433161675203,-0.21006283942366516,1.3940818511053028,0.0019240174786390866,-0.0016224713348334972,0.0024499946396836494,0.9999938316158631,1786695.0,0.04,0.14,-0.99,-0.06,-0.18,-0.06,-53.86,0.75,-53.11,1837147.0,0.16,0.12,1.0,0.12,0.0,0.06,-5.85,34.51,16.35,29574,1603196439.517812,body_FLU,-0.026624831875482993,0.004037515091188301,-0.59511530284403,0.8031890145665272,-0.0028205220587551594,0.0057846722193062305,-0.0019006982911378145,0.24943561958894134,-0.5066625891923905,9.838202077031136,3044,1603196439.4041495,rc,0.0,0.0,0.0,0.0,0.0,-10000.0
,,122039.566278,0.43546056747436523,28364,1603197220.6832073,/world,vicon/testobj/testobj,-0.009795331599607413,-0.2100702918170466,1.394077544857421,0.0018858159216859356,-0.0016367058706826935,0.002473415696762821,0.9999938235344223,1786704.0,0.04,0.14,-0.98,-0.06,0.0,0.06,-55.06,0.0,-51.91,1837156.0,0.14,0.11,1.0,0.12,0.12,-0.18,-5.4,33.76,16.5,29577,1603196439.5649788,body_FLU,-0.02661648431423944,0.004057161928870056,-0.5951033175485064,0.8031980724843617,-0.0006662399973720312,0.00635677482932806,0.005912993103265762,0.23379493918642402,-0.5436542135328054,9.951975634932518,3044,1603196439.4041495,rc,0.0,0.0,0.0,0.0,0.0,-10000.0
,,122039.589872,0.4590616226196289,28366,1603197220.703147,/world,vicon/testobj/testobj,-0.009793213140804825,-0.21006605057304548,1.3940766352104434,0.0018183467169254279,-0.0017150606876013635,0.002498454075498214,0.9999937549351433,1786714.0,0.04,0.15,-0.98,-0.06,-0.12,-0.12,-56.56,1.05,-52.96,1837164.0,0.15,0.12,0.99,-0.06,-0.12,0.0,-4.8,34.96,17.7,29579,1603196439.5844173,body_FLU,-0.02662185598349052,0.0040693413399213955,-0.5951189437698394,0.8031862548695193,0.00027513771783560514,0.0022583953104913235,-0.0010135495103895664,0.17803613043017685,-0.4700277559161186,9.802050364851953,3044,1603196439.4041495,rc,0.0,0.0,0.0,0.0,0.0,-10000.0
,,122039.614079,0.4832651615142822,28369,1603197220.7329621,/world,vicon/testobj/testobj,-0.009786820460692515,-0.21006386033281635,1.394074946425818,0.0018515666621488614,-0.001644112970942613,0.0024838726384729714,0.9999938494661607,1786724.0,0.04,0.15,-1.0,-0.12,-0.12,0.0,-56.86,-0.75,-52.66,1837209.0,0.15,0.11,1.01,0.06,0.0,-0.06,-5.55,34.51,18.0,29580,1603196439.598259,body_FLU,-0.02661275114065235,0.00407866504245151,-0.5951127946525951,0.8031910654439423,0.001437203143723309,0.0061327628791332245,-0.0013559097424149513,0.18397926476038992,-0.42169023415446283,9.877803986549377,3044,1603196439.4041495,rc,0.0,0.0,0.0,0.0,0.0,-10000.0
,,122039.637645,0.5068295001983643,28371,1603197220.7531137,/world,vicon/testobj/testobj,-0.009799167650198526,-0.21006508076561511,1.3940735573241185,0.0019217111560245453,-0.0016380307353462953,0.0024806949810977324,0.9999937349973518,1786735.0,0.04,0.15,-0.99,-0.06,-0.12,-0.06,-56.41,0.15,-52.81,1837218.0,0.15,0.12,0.99,0.0,0.06,-0.06,-4.5,36.01,18.0,29581,1603196439.6176975,body_FLU,-0.02661868105326756,0.0040939090885748946,-0.5951054695513325,0.8031962187644105,-0.00046054593985900283,0.0008482288103550673,0.00019155119662173092,0.2358731047399342,-0.3515329233817756,9.9144849704504,3044,1603196439.4041495,rc,0.0,0.0,0.0,0.0,0.0,-10000.0
,,122039.662519,0.5316972732543945,28374,1603197220.78331,/world,vicon/testobj/testobj,-0.00978798722192918,-0.2100655955014916,1.3940599405373275,0.0018507634144993982,-0.0016308715715089496,0.0024427532802786104,0.9999939739263994,1786745.0,0.03,0.15,-0.99,0.0,0.06,-0.06,-54.61,0.75,-52.51,1837226.0,0.13,0.12,1.01,0.0,0.0,0.06,-5.1,34.96,16.65,29583,1603196439.6564867,body_FLU,-0.026602241882580924,0.004123535394290313,-0.5951074711730739,0.8031951288053619,-0.0004357311117928475,0.006142572499811649,0.0030861825216561556,0.25641478797979655,-0.5161183556467295,9.8658784314394,3044,1603196439.4041495,rc,0.0,0.0,0.0,0.0,0.0,-10000.0
,,122039.687515,0.5567474365234375,28376,1603197220.8030367,/world,vicon/testobj/testobj,-0.009797151681406206,-0.21006551553961095,1.394072947260664,0.0018986149641782107,-0.0016774083232663662,0.0024576050284345866,0.9999937708506283,1786754.0,0.04,0.15,-1.0,-0.12,-0.12,0.12,-54.46,0.0,-52.96,1837235.0,0.14,0.12,0.99,0.06,0.0,-0.06,-5.55,33.91,16.35,29586,1603196439.6842666,body_FLU,-0.026586160608269613,0.0041329025899478206,-0.5951060045698467,0.8031966997599073,-0.000533064769115299,0.0017249155789613724,0.002931189024820924,0.3214639292657375,-0.4786944343149662,9.77234864062071,3044,1603196439.4041495,rc,0.0,0.0,0.0,0.0,0.0,-10000.0
,,122039.709884,0.5790610313415527,28378,1603197220.8230062,/world,vicon/testobj/testobj,-0.009785346826081263,-0.21006727555709215,1.3940727742669667,0.0019301536691500147,-0.0016096840772719396,0.0024536098349686353,0.9999938315923567,1786764.0,0.04,0.14,-1.0,-0.18,0.0,0.0,-56.26,0.6,-52.21,1837243.0,0.14,0.11,1.0,0.0,0.0,0.12,-4.05,34.96,17.7,29587,1603196439.698107,body_FLU,-0.026581512850763142,0.004144641842507448,-0.5951167575980209,0.8031888258339882,-0.0035526040010154247,0.006151410285383463,-0.0007107176934368908,0.2629905400313437,-0.3997774501740933,9.842722501516342,3044,1603196439.4041495,rc,0.0,0.0,0.0,0.0,0.0,-10000.0
,,122039.734426,0.6036081314086914,28381,1603197220.8530858,/world,vicon/testobj/testobj,-0.009793841541118335,-0.21005578569161973,1.3940700732039504,0.0019379651543058548,-0.0015893713969531986,0.0024708718575064408,0.9999938064717636,1786774.0,0.03,0.14,-0.99,-0.06,0.0,0.0,-55.96,0.15,-52.81,1837252.0,0.14,0.12,0.99,0.0,0.0,0.0,-6.15,34.96,17.1,29589,1603196439.7286234,body_FLU,-0.02656098626468851,0.00415333446194771,-0.5951014026663539,0.8032008368808092,-0.0003760449180845171,0.008098715916275978,0.0028530778363347054,0.2174226034283638,-0.29456611106917263,9.769933035135269,3044,1603196439.4041495,rc,0.0,0.0,0.0,0.0,0.0,-10000.0
,,122039.76305,0.6322324275970459,28384,1603197220.8830466,/world,vicon/testobj/testobj,-0.009796212950352701,-0.2100617859047194,1.3940616676189646,0.001915160596188489,-0.001613453305200537,0.0024900498919991324,0.9999937642704869,1786784.0,0.04,0.14,-0.98,-0.06,-0.06,-0.06,-56.71,0.15,-52.06,1837260.0,0.13,0.11,0.99,0.0,0.12,0.12,-6.15,34.96,17.11848058,29591,1603196439.7590816,body_FLU,-0.02653779580663539,0.004183263013434992,-0.5951053391569237,0.8031985315046392,0.004482701420783997,0.01074217353016138,0.0024514952674508095,0.3036335039511323,-0.4584452635198832,9.753626675784588,3044,1603196439.4041495,rc,0.0,0.0,0.0,0.0,0.0,-10000.0
,,122039.787022,0.6562039852142334,28386,1603197220.903178,/world,vicon/testobj/testobj,-0.0097968635429319,-0.21006133048951242,1.3940529291148513,0.0019281005467947183,-0.0016123451619446032,0.0025075151078572896,0.9999936975498116,1786794.0,0.04,0.14,-1.0,0.0,0.0,0.0,-55.51,0.3,-52.96,1848067.0,0.14,0.12,0.99,-0.06,-0.06,0.06,-4.95,35.86,17.55,29593,1603196439.7785196,body_FLU,-0.026527397434832106,0.004190816526106231,-0.5951132848667342,0.8031929484359934,3.0657160095870495e-05,0.0035303777549415827,-0.003344713244587183,0.3483617839738727,-0.4287782617919147,9.82208324110508,3044,1603196439.4041495,rc,0.0,0.0,0.0,0.0,0.0,-10000.0
,,122039.811903,0.6810855865478516,28389,1603197220.9333453,/world,vicon/testobj/testobj,-0.009791167650539775,-0.21006899042989882,1.3940660238699598,0.0019350126031689278,-0.00158719898888786,0.0024669985003557176,0.9999938252029332,1786804.0,0.04,0.14,-0.99,-0.06,-0.06,0.0,-55.06,-0.45,-52.21,1848076.0,0.14,0.12,1.0,0.06,0.0,0.0,-3.9,34.81,17.25,29594,1603196439.7979994,body_FLU,-0.02650568308446169,0.004202466256994187,-0.5951033704210423,0.8032009502951927,0.0034860142040997744,0.00817828718572855,0.0017161783762276173,0.257869390681386,-0.3948116210438311,9.718362340807914,3044,1603196439.4041495,rc,0.0,0.0,0.0,0.0,0.0,-10000.0
,,122039.835385,0.7046034336090088,28391,1603197220.9530332,/world,vicon/testobj/testobj,-0.00977996037496373,-0.2100632420040319,1.394064702699824,0.0018305356021787681,-0.0017031540251748948,0.002444904625818576,0.999993885404879,1786815.0,0.04,0.15,-0.99,-0.06,-0.06,-0.06,-56.41,0.45,-51.76,1848084.0,0.15,0.11,1.0,0.0,0.0,0.06,-6.9,34.51,16.65,29596,1603196439.8284276,body_FLU,-0.026506992579129782,0.004227113890145927,-0.595106816388522,0.8031982245625843,0.0014390174765139818,0.010176432318985462,0.001673429855145514,0.16557935022935272,-0.5253283262103796,9.655985390067102,3044,1603196439.4041495,rc,0.0,0.0,0.0,0.0,0.0,-10000.0
,,122039.858009,0.7271864414215088,28393,1603197220.9731562,/world,vicon/testobj/testobj,-0.009785022868722997,-0.21005702833807646,1.3940605937973602,0.0019707642555829366,-0.0015797569953692552,0.0024253716428886455,0.9999938689954445,1786825.0,0.05,0.15,-1.0,-0.06,0.0,0.0,-56.26,0.3,-51.61,1848092.0,0.13,0.11,0.99,0.0,0.0,0.0,-6.9,34.51,16.65,29597,1603196439.836752,body_FLU,-0.026506027515012392,0.004230164536047788,-0.5951100256385761,0.8031958625377901,0.002458134898915887,0.003599440446123481,0.00022062245989218354,0.15687740165367722,-0.5934087493345142,9.72264500194788,3044,1603196439.4041495,rc,0.0,0.0,0.0,0.0,0.0,-10000.0
,,122039.883805,0.7531828880310059,28396,1603197221.309562,/world,vicon/testobj/testobj,-0.009783122806479154,-0.21008155782567997,1.3940683639840183,0.0019310683544887127,-0.001583280582970172,0.0024105430575037173,0.999993976721747,1786834.0,0.03,0.15,-0.99,0.0,-0.06,0.0,-54.16,-0.6,-51.01,1848101.0,0.14,0.11,1.0,-0.06,-0.12,0.0,-6.0,34.36,17.25,29600,1603196439.878358,body_FLU,-0.026500369587256215,0.004252042536021524,-0.5951020578161054,0.8032018372296266,0.005165034905076027,0.005992181599140167,-0.00040592235745862126,0.31509269677475094,-0.44012229712307455,9.79380868113041,3044,1603196439.4041495,rc,0.0,0.0,0.0,0.0,0.0,-10000.0
,,122039.907863,0.7770459651947021,28398,1603197221.2324886,/world,vicon/testobj/testobj,-0.009785730245865437,-0.21005923411121163,1.394077551623856,0.001855797320536917,-0.0016649994969104845,0.0024625504830594848,0.9999938598001984,1786845.0,0.03,0.15,-0.99,-0.06,-0.06,0.06,-56.71,0.75,-53.11,1848109.0,0.14,0.12,1.0,0.06,0.0,-0.06,-5.1,34.96,17.1,29601,1603196439.8950722,body_FLU,-0.02649731524675212,0.00427280270255203,-0.595083816485366,0.8032153427313192,-0.0019561038352549076,0.0020929526071995497,0.004111527465283871,0.2592998044677079,-0.4963774989321828,9.760119893431664,3044,1603196439.4041495,rc,0.0,0.0,0.0,0.0,0.0,-10000.0
,,122039.932016,0.8011922836303711,28401,1603197221.5317981,/world,vicon/testobj/testobj,-0.009791505796573325,-0.2100535730478842,1.3940760843466025,0.0019428079750176568,-0.0015669298243697549,0.002500257744335968,0.9999937594501825,1786854.0,0.04,0.14,-0.99,0.0,-0.06,-0.12,-55.96,0.75,-52.81,1848118.0,0.14,0.12,0.99,0.0,0.06,0.0,-3.6,35.11,17.25,29604,1603196439.9282606,body_FLU,-0.026488600584325398,0.004286438182235504,-0.5950848330969305,0.8032148043361702,0.002238929970189929,0.0036209309473633766,-0.0002963299339171499,0.187295811496675,-0.5461168094091118,9.826768405795098,3044,1603196439.4041495,rc,0.0,0.0,0.0,0.0,0.0,-10000.0
,,122039.954609,0.8237903118133545,28403,1603197221.731755,/world,vicon/testobj/testobj,-0.009793228440412237,-0.21005913125623127,1.3940656860986729,0.0019208418392852554,-0.0016613331735828598,0.0024736129774566252,0.9999937157690305,1786864.0,0.04,0.16,-1.0,0.0,-0.12,0.06,-54.16,1.2,-52.81,1848126.0,0.14,0.11,0.99,0.0,0.06,-0.06,-5.1,33.91,17.7,29605,1603196439.9366217,body_FLU,-0.026498861158697543,0.004281047623122509,-0.5950808583336762,0.8032174394479964,0.0003510451060719788,0.0037510194815695286,0.0015641426434740424,0.19769742843322458,-0.5691354193165898,9.861729548692704,3044,1603196439.4041495,rc,0.0,0.0,0.0,0.0,0.0,-10000.0
,,122039.978586,0.8478028774261475,28405,1603197221.934197,/world,vicon/testobj/testobj,-0.009788413398243554,-0.21006082480845517,1.3940791063417972,0.0018497582948699708,-0.001708916566136354,0.0025115374550296705,0.9999936750690139,1786875.0,0.03,0.15,-0.99,-0.06,-0.06,0.06,-54.91,0.15,-51.76,1848135.0,0.14,0.11,1.0,0.0,0.0,0.0,-6.0,36.46,18.15,29607,1603196439.9643698,body_FLU,-0.026488433876479384,0.00428111064851846,-0.5950958776696285,0.8032066554399317,0.0031158430501818657,0.0015515442937612534,-0.0004397556185722351,0.22113082803413273,-0.46281883846968414,9.812066802978515,3044,1603196439.4041495,rc,0.0,0.0,0.0,0.0,0.0,-10000.0
,,122040.003759,0.8729615211486816,28408,1603197221.1231883,/world,vicon/testobj/testobj,-0.009792701091666911,-0.21006183663926642,1.3940671905499797,0.0018610940739271806,-0.0015904359351680327,0.0024801893110957506,0.9999939277332464,1786885.0,0.04,0.14,-0.99,-0.06,-0.12,0.06,-54.91,0.45,-52.51,1848143.0,0.15,0.11,0.98,0.0,0.0,-0.06,-6.0,36.46,18.15,29609,1603196439.997599,body_FLU,-0.026494129326472386,0.0043149192770573835,-0.5951106561423648,0.803195337093455,0.000982251949608326,0.0032082777470350266,-0.0011432984611019492,0.17675393536314368,-0.5400153974220157,9.98779786670208,3044,1603196439.4041495,rc,0.0,0.0,0.0,0.0,0.0,-10000.0
,,122040.026921,0.8961050510406494,28410,1603197221.143315,/world,vicon/testobj/testobj,-0.009789504245914118,-0.21006549813947373,1.3940657511079557,0.0018511101253143932,-0.0016513546770095967,0.0024773407614803594,0.99999385458201,1786894.0,0.04,0.15,-1.0,-0.06,-0.12,-0.06,-56.26,1.35,-52.96,1848152.0,0.14,0.12,0.99,0.06,0.06,0.06,-5.85,33.91,17.1,29611,1603196440.17066,body_FLU,-0.026471132163142678,0.004321359713526045,-0.5951112811414614,0.8031955976413195,-0.0015061809681355953,0.010293031111359596,0.0007656939560547471,0.2819076957218349,-0.47810908082127573,9.979501269578934,3044,1603196439.4041495,rc,0.0,0.0,0.0,0.0,0.0,-10000.0
,,122040.048442,0.9176256656646729,28412,1603197221.1633258,/world,vicon/testobj/testobj,-0.009788247621204465,-0.21006868334848014,1.3940606706554668,0.001915003798327794,-0.001581603245574937,0.0024548870970873943,0.9999939023918928,1786904.0,0.04,0.15,-0.99,-0.06,-0.12,0.0,-55.36,0.75,-52.06,1848160.0,0.15,0.12,0.99,0.12,0.06,0.0,-5.55,36.61,18.0,29612,1603196440.3092654,body_FLU,-0.026471784087049553,0.004316716969152846,-0.5951115859161972,0.8031953753042692,-9.988441888708621e-05,0.004725653678178787,0.0010305542964488268,0.3324828290641308,-0.4224194797463715,9.924140382170677,3044,1603196439.4041495,rc,0.0,0.0,0.0,0.0,0.0,-10000.0
,,122040.071953,0.9411370754241943,28415,1603197221.1933753,/world,vicon/testobj/testobj,-0.009788921850323968,-0.21006216049280457,1.3940738262480994,0.0018554259282968471,-0.0016946218220407314,0.0024786887260717073,0.9999937708574509,1786914.0,0.03,0.15,-0.99,-0.06,-0.06,-0.06,-55.96,0.75,-53.11,1848169.0,0.14,0.11,1.0,0.0,-0.06,0.0,-5.4,35.11,17.25,29613,1603196440.5861425,body_FLU,-0.026463451065658207,0.0043052001615111095,-0.5951224241569123,0.8031876812270375,-0.0011295387521386147,0.0030562570318579674,0.0006181613425724208,0.2562685043737292,-0.487830213367939,9.75033245587349,3044,1603196439.4041495,rc,0.0,0.0,0.0,0.0,0.0,-10000.0
,,122040.095011,0.9641954898834229,28417,1603197221.2131903,/world,vicon/testobj/testobj,-0.009791402610168488,-0.21006429530473897,1.3940748518819652,0.0019114444066363986,-0.001664351261827022,0.002477721644755686,0.9999937185855763,1786924.0,0.04,0.15,-0.98,-0.12,-0.06,0.0,-55.51,1.35,-51.61,1848177.0,0.15,0.11,0.99,0.0,0.0,0.06,-5.4,35.41,17.25,29614,1603196440.7805808,body_FLU,-0.02646810384839997,0.004302031379610844,-0.5951319046664858,0.8031805202149265,0.0018066572956740856,0.009081196039915085,0.0001755987759679556,0.13496995749045163,-0.5194405434206129,9.782271024942398,3044,1603196439.4041495,rc,0.0,0.0,0.0,0.0,0.0,-10000.0
,,122040.117591,0.9867749214172363,28419,1603197221.2332053,/world,vicon/testobj/testobj,-0.009792143971448003,-0.21006729746686403,1.394065384968093,0.0018884743264176971,-0.0015704973348657045,0.0024689256739134123,0.9999939357860409,1786935.0,0.04,0.15,-0.98,-0.06,-0.06,-0.06,-55.06,1.65,-51.91,1848223.0,0.15,0.11,0.99,0.12,0.06,0.0,-5.1,33.46,18.75,29615,1603196440.108537,body_FLU,-0.026454709574316986,0.004301949804760527,-0.5951420210857835,0.8031734658883751,-0.0020565383601933718,0.007657479960471392,-0.002006352413445711,0.1622846191562712,-0.41260045967996123,9.811815603375434,3044,1603196439.4041495,rc,0.0,0.0,0.0,0.0,0.0,-10000.0
,,122040.141284,1.0104649066925049,28422,1603197221.2632895,/world,vicon/testobj/testobj,-0.009779654999051965,-0.21006636649962096,1.3940670023663972,0.0018909291515744747,-0.0016091538930464936,0.0024510637584747555,0.9999939136300501,1786945.0,0.03,0.15,-0.99,0.06,-0.12,-0.12,-56.41,-0.3,-52.51,1848232.0,0.15,0.12,0.99,-0.06,0.06,-0.06,-3.9,34.81,17.25,29616,1603196440.1307313,body_FLU,-0.02643950752723471,0.004302051401401126,-0.5951344596630453,0.8031795687871001,0.004822469316422939,0.0050842417404055595,0.00227476772852242,0.27232052412629126,-0.4823854619711638,9.873498542189598,3045,1603196440.122429,rc,0.0,0.0,0.0,0.0,0.0,-10000.0
,,122040.164194,1.0333874225616455,28424,1603197221.2834888,/world,vicon/testobj/testobj,-0.00978627069723953,-0.21006520514323485,1.3940650500681981,0.0019474285882583532,-0.0015892937932678829,0.002448690699811374,0.9999938427715388,1786955.0,0.04,0.16,-1.0,-0.06,-0.18,0.0,-54.91,1.5,-52.51,1848241.0,0.14,0.11,1.0,0.0,-0.06,0.06,-6.75,34.06,16.8,29617,1603196440.1584783,body_FLU,-0.026447920249432745,0.004303996390459225,-0.595132524994066,0.803180714922699,-0.00044570135651156306,0.0007141135865822434,0.0014519725227728486,0.22576370815560223,-0.4489616022258997,9.765299862921237,3045,1603196440.122429,rc,0.0,0.0,0.0,0.0,0.0,-10000.0
,,122040.188037,1.0572113990783691,28426,1603197221.3031151,/world,vicon/testobj/testobj,-0.00979028292011302,-0.2100635587570411,1.3940664718184115,0.001827978268708174,-0.001712895323777735,0.002525933829604685,0.9999936720516522,1786964.0,0.04,0.15,-0.98,-0.06,-0.06,-0.06,-55.66,0.45,-52.51,1848250.0,0.15,0.12,0.99,0.0,0.06,0.12,-6.0,35.11,17.85,29618,1603196440.175137,body_FLU,-0.026423902314159642,0.004301008211195347,-0.5951434503101312,0.8031734260219343,0.0026455873157829046,0.008752025663852692,-0.0021895752288401127,0.2439481861665845,-0.5572376495115459,9.750947018623352,3045,1603196440.122429,rc,0.0,0.0,0.0,0.0,0.0,-10000.0
,,122040.213202,1.082383155822754,28429,1603197221.3331575,/world,vicon/testobj/testobj,-0.009791077324959662,-0.21006354312728157,1.3940631318735537,0.0018211760250350596,-0.0016482066432561128,0.0024600016012135285,0.9999939575441789,1786974.0,0.03,0.15,-0.98,-0.06,0.0,-0.06,-54.16,-0.3,-52.51,1848259.0,0.13,0.12,0.99,0.06,0.0,-0.06,-5.1,34.96,17.7,29621,1603196440.208414,body_FLU,-0.026413528991488043,0.0042968104456828984,-0.5951255203488267,0.8031870753042207,0.0009417354594916105,0.005932756699621677,0.004103006795048714,0.12531386117823423,-0.3870896795243025,9.752915138304234,3045,1603196440.122429,rc,0.0,0.0,0.0,0.0,0.0,-10000.0
,,122040.236727,1.105905294418335,28431,1603197221.3530889,/world,vicon/testobj/testobj,-0.00979148351984213,-0.21005935106406778,1.394070475527803,0.001934537238305993,-0.001557932552670016,0.002448020255486068,0.9999939187858413,1786984.0,0.04,0.15,-1.0,-0.24,-0.06,-0.06,-55.06,0.3,-52.21,1848268.0,0.14,0.12,1.02,-0.12,-0.06,0.0,-7.5,34.81,17.25,29623,1603196440.2305634,body_FLU,-0.026409777785544614,0.004286491245265677,-0.595139065552523,0.803177217233776,-0.0013379869051277637,0.008338069543242455,-0.0017411727458238602,0.1900984396263957,-0.36006772198900583,9.908351026654243,3045,1603196440.122429,rc,0.0,0.0,0.0,0.0,0.0,-10000.0
,,122040.258269,1.127467393875122,28433,1603197221.373197,/world,vicon/testobj/testobj,-0.00979792926922654,-0.2100608406804395,1.3940611177263997,0.0018612153097927002,-0.0016606749034094343,0.002526362951590614,0.9999936977434771,1786994.0,0.04,0.15,-0.99,0.0,0.0,0.0,-56.71,0.75,-52.51,1848277.0,0.14,0.11,1.0,-0.06,-0.18,0.0,-7.05,34.36,15.9,29623,1603196440.2305634,body_FLU,-0.026409777785544614,0.004286491245265677,-0.595139065552523,0.803177217233776,-0.0013379869051277637,0.008338069543242455,-0.0017411727458238602,0.1900984396263957,-0.36006772198900583,9.908351026654243,3045,1603196440.122429,rc,0.0,0.0,0.0,0.0,0.0,-10000.0
,,122040.283012,1.1521925926208496,28436,1603197221.4031687,/world,vicon/testobj/testobj,-0.009789556792848418,-0.21006134228098602,1.3940671527886284,0.0019713935680300745,-0.0016247848638696802,0.002449310557537656,0.9999937372600585,1787004.0,0.04,0.15,-0.99,-0.12,-0.18,0.0,-54.91,0.75,-53.11,1848286.0,0.15,0.11,0.99,-0.06,-0.06,0.06,-5.85,34.51,16.35,29625,1603196440.277733,body_FLU,-0.026389351392786142,0.004271594810414461,-0.5951418252286516,0.8031759231166936,0.0010486895916983485,0.005566745530813932,0.002647027373313904,0.2945440763365477,-0.5111107207685709,9.848309648036956,3045,1603196440.122429,rc,0.0,0.0,0.0,0.0,0.0,-10000.0
,,122040.306575,1.1757512092590332,28438,1603197221.4232805,/world,vicon/testobj/testobj,-0.009797340564745977,-0.21005778403011147,1.3940715587467989,0.0019005287094854355,-0.0016514469657404095,0.0025077775218119544,0.9999936858627883,1787014.0,0.04,0.15,-0.98,-0.06,-0.06,-0.12,-55.51,1.65,-51.91,1848295.0,0.14,0.11,1.0,0.06,0.12,0.0,-4.5,34.96,15.3,29627,1603196440.2971463,body_FLU,-0.026386851494861186,0.004252705110204085,-0.5951385047422848,0.8031785659120588,0.001295928843319416,0.006076496094465256,0.00034119433257728815,0.3178487726524472,-0.3925173069946468,9.939775512814522,3045,1603196440.122429,rc,0.0,0.0,0.0,0.0,0.0,-10000.0
,,122040.328877,1.1980578899383545,28440,1603197221.4435225,/world,vicon/testobj/testobj,-0.009788627245519998,-0.2100675224291524,1.3940674709544694,0.0019212775574238802,-0.001640872221381536,0.0024544425755532655,0.9999937959520268,1787025.0,0.05,0.15,-0.99,0.0,0.0,-0.06,-55.36,0.15,-51.01,1848304.0,0.14,0.11,0.99,0.0,0.06,0.06,-4.8,35.56,17.4,29629,1603196440.3165653,body_FLU,-0.02639811112291514,0.004249258261722553,-0.5951427578415789,0.8031750626868885,0.0006453667301684618,0.0022163765970617533,-0.0009753177873790264,0.19499664932861924,-0.5450186144001782,9.972974753379821,3045,1603196440.122429,rc,0.0,0.0,0.0,0.0,0.0,-10000.0
,,122040.352289,1.2214686870574951,28443,1603197221.473265,/world,vicon/testobj/testobj,-0.009788055599206298,-0.21005988329397132,1.3940591825106414,0.0018881807185390017,-0.001604735269208509,0.002437176160233606,0.9999939598670853,1787034.0,0.03,0.15,-0.98,-0.06,0.0,0.06,-57.31,1.65,-52.96,1848313.0,0.13,0.11,1.0,0.0,0.06,0.0,-4.8,35.56,17.4,29630,1603196440.330438,body_FLU,-0.026391949027827395,0.004236100844952796,-0.5951359092541756,0.8031804093678765,0.0042785778641700745,0.007017686031758785,-0.0005239825695753098,0.11423508240468801,-0.5589963753372431,9.869010832071304,3045,1603196440.122429,rc,0.0,0.0,0.0,0.0,0.0,-10000.0
,,122040.375398,1.2446255683898926,28445,1603197221.493473,/world,vicon/testobj/testobj,-0.009776216264178723,-0.21006289770839667,1.3940821843653746,0.0018826521777663974,-0.0016208101044458928,0.0024183398138408274,0.9999939900959044,1787045.0,0.04,0.16,-0.98,-0.06,-0.12,-0.06,-55.36,0.15,-53.11,1848322.0,0.14,0.12,1.0,0.06,0.0,0.06,-5.1,36.01,17.1,29631,1603196440.3582084,body_FLU,-0.026391246282549508,0.0042311392523532824,-0.5951362192767837,0.8031802288933768,-0.0009916361887007952,0.0060654496774077415,0.0009003860177472234,0.2177516456991434,-0.44254104260355237,9.689375659167768,3045,1603196440.122429,rc,0.0,0.0,0.0,0.0,0.0,-10000.0
,,122040.398173,1.2673537731170654,28447,1603197221.5134563,/world,vicon/testobj/testobj,-0.009786791728944673,-0.21005978765910618,1.3940683423510511,0.001954910727810224,-0.001633127160600032,0.002442015438492977,0.9999937738707785,1787055.0,0.04,0.15,-0.99,-0.12,-0.06,0.0,-56.26,-0.45,-51.91,1848330.0,0.15,0.11,0.99,0.0,0.0,-0.06,-5.1,35.26,16.65,29634,1603196440.3969593,body_FLU,-0.02638327399851926,0.004226181527248937,-0.5951283409752706,0.8031863544725096,-0.001708243042230606,0.007837779819965363,-0.0017591898795217276,0.1463624162916094,-0.45131382362544537,9.895324866771698,3045,1603196440.122429,rc,0.0,0.0,0.0,0.0,0.0,-10000.0
,,122040.42243,1.2916076183319092,28450,1603197221.5435581,/world,vicon/testobj/testobj,-0.009789151550712841,-0.21007090080462096,1.394065811771241,0.0018312517827269788,-0.00165338657961905,0.00246117639390942,0.999993927701806,1787064.0,0.04,0.15,-0.99,0.0,0.0,-0.06,-54.61,1.5,-52.51,1848339.0,0.15,0.12,1.01,0.12,0.0,0.0,-4.95,35.86,17.85,29635,1603196440.408101,body_FLU,-0.026377470721191162,0.004222663764138004,-0.5951167024134905,0.8031951871479192,0.0037163891829550266,0.003928893245756626,0.0016471375711262226,0.16624566812999547,-0.417327028490603,9.941456797599793,3045,1603196440.122429,rc,0.0,0.0,0.0,0.0,0.0,-10000.0
,,122040.446506,1.315685749053955,28452,1603197221.5633593,/world,vicon/testobj/testobj,-0.009792341813405114,-0.21004872396076724,1.394075090941543,0.0019530775095428319,-0.0016452769492647057,0.0025192138948167842,0.9999935660359791,1787074.0,0.03,0.15,-0.99,0.06,0.12,-0.18,-54.46,0.6,-53.71,1848347.0,0.14,0.12,0.99,0.06,0.06,0.06,-4.5,35.26,16.05,29636,1603196440.4276006,body_FLU,-0.026381097886943455,0.004228636536081191,-0.5951189464347911,0.803193373915441,-0.003021321492269635,0.008862961083650589,0.000618217047303915,0.17540945155732335,-0.309526873011142,9.951713919997216,3046,1603196440.4441257,rc,0.0,0.0,0.0,0.0,0.0,-10000.0
,,122040.470271,1.3394536972045898,28454,1603197221.5832694,/world,vicon/testobj/testobj,-0.00978838736464519,-0.21006090929775534,1.3940569109861216,0.0019126842399871205,-0.0015061426518983066,0.002433318041474353,0.999994076050763,1787085.0,0.04,0.16,-0.99,-0.06,-0.12,0.0,-55.36,0.15,-52.06,1848388.0,0.14,0.12,1.0,0.06,0.06,-0.12,-3.75,36.31,18.45,29637,1603196440.4580147,body_FLU,-0.026368738735296278,0.004236274189282123,-0.5951157228245293,0.8031961280070645,0.00233690463937819,0.008078851737082005,-0.0005556928226724267,0.2608740008175373,-0.5110006018728018,9.826402705907821,3046,1603196440.4441257,rc,0.0,0.0,0.0,0.0,0.0,-10000.0
,,122040.494782,1.3639614582061768,28457,1603197221.6132522,/world,vicon/testobj/testobj,-0.009795491934267528,-0.21006359531335986,1.3940745821023512,0.0019084750136183,-0.0015994649134035083,0.0024967568829695435,0.9999937828007635,1787094.0,0.04,0.15,-1.0,-0.06,-0.06,0.18,-55.66,0.45,-51.46,1848397.0,0.15,0.12,1.0,0.0,-0.12,0.06,-4.8,36.01,18.0,29638,1603196440.488477,body_FLU,-0.02637011407396782,0.004250717434132735,-0.5951045395592744,0.8032042924941107,0.0005261559272184968,0.006639459636062384,0.0014613897074013948,0.20440489597432315,-0.4537661962620914,9.771092058420182,3046,1603196440.4441257,rc,0.0,0.0,0.0,0.0,0.0,-10000.0
,,122040.517682,1.3868672847747803,28459,1603197221.6332085,/world,vicon/testobj/testobj,-0.00979150442695931,-0.2100636700306868,1.3940768881363712,0.0019747588728130324,-0.0016052516695354141,0.0024661825895767255,0.9999937206992384,1787104.0,0.03,0.14,-1.0,-0.06,-0.12,0.0,-56.26,0.0,-52.21,1848406.0,0.15,0.11,0.99,0.0,-0.06,0.0,-3.9,33.31,16.5,29639,1603196440.5107067,body_FLU,-0.026357491321554728,0.004246720318185682,-0.5951090314672142,0.8032013998269224,-0.0021427096799016,0.0010517907794564962,-0.00037786952452734113,0.3302934857793152,-0.44221652776747944,9.688117908596993,3047,1603196440.502372,rc,0.0,0.0,0.0,0.0,0.0,-10000.0
,,122040.5398,1.4089815616607666,28461,1603197221.6531925,/world,vicon/testobj/testobj,-0.009785679856784111,-0.21006487596618573,1.3940633096470032,0.001874459460677751,-0.0016569251094045753,0.00249202296825361,0.9999937653917838,1787115.0,0.04,0.14,-1.0,0.06,0.0,0.06,-55.36,1.2,-51.46,1848415.0,0.15,0.12,1.0,0.0,0.12,-0.12,-4.8,34.51,18.0,29640,1603196440.53012,body_FLU,-0.02635645512369528,0.004261782391670137,-0.5951012019543492,0.803207155045725,-0.0002545334864407778,0.004864331800490618,0.0034199305810034275,0.30850560788065196,-0.445092252060771,9.918157158136369,3047,1603196440.502372,rc,0.0,0.0,0.0,0.0,0.0,-10000.0
,,122040.56332,1.4325571060180664,28464,1603197221.6833506,/world,vicon/testobj/testobj,-0.009791561731752694,-0.21006614378882266,1.3940668836040273,0.0018589890691595853,-0.0016804577314311216,0.002485840579711691,0.9999937703896289,1787124.0,0.05,0.16,-0.98,-0.06,-0.06,0.0,-56.26,0.0,-52.21,1848424.0,0.14,0.12,1.0,0.0,0.06,0.0,-4.65,35.11,17.55,29641,1603196440.5578516,body_FLU,-0.02636092489451854,0.004268351623182752,-0.5951028700592882,0.8032057375668605,-0.0014311204431578517,0.005791163071990013,0.0015455149114131927,0.22719996379315854,-0.5705469566211104,9.91944002866745,3048,1603196440.5440366,rc,0.0,0.0,0.0,0.0,0.0,-10000.0
,,122040.586328,1.4555113315582275,28466,1603197221.7032483,/world,vicon/testobj/testobj,-0.009785999074893961,-0.2100685460412565,1.3940593816517013,0.0020101898952522342,-0.001577191639305561,0.002457951077918049,0.9999937150200577,1787135.0,0.04,0.15,-0.99,-0.06,-0.06,-0.06,-54.76,1.05,-52.21,1848433.0,0.15,0.12,1.0,0.0,0.12,0.0,-4.65,35.11,17.55,29642,1603196440.574481,body_FLU,-0.02636020819864337,0.004258856144085238,-0.595104956156049,0.8032042658792189,0.005866948049515486,0.0025532031431794167,-0.0029443171806633472,0.2541276484541595,-0.5357117421291768,9.860363723874093,3048,1603196440.5440366,rc,0.0,0.0,0.0,0.0,0.0,-10000.0
,,122040.609789,1.4789679050445557,28468,1603197221.7231712,/world,vicon/testobj/testobj,-0.009791625704993798,-0.21005965459647657,1.3940649472133024,0.001924536633919943,-0.0016269530605968678,0.0024944962270923615,0.9999937133157669,1787145.0,0.03,0.15,-0.99,-0.12,-0.06,0.0,-56.86,2.1,-53.71,1848442.0,0.14,0.11,1.0,0.06,0.0,0.0,-5.7,34.36,17.85,29645,1603196440.6077788,body_FLU,-0.026351171157639637,0.00428826831623851,-0.5950830894106776,0.8032206068266129,0.0027521392330527306,0.005513263866305351,0.0020055403001606464,0.19796974997967481,-0.3018138403147459,9.815268137454987,3048,1603196440.5440366,rc,0.0,0.0,0.0,0.0,0.0,-10000.0
,,122040.633152,1.5023319721221924,28471,1603197221.7532094,/world,vicon/testobj/testobj,-0.009792926210242038,-0.21005944863824644,1.3940756260909706,0.002022160672809705,-0.001607363472639373,0.002474772270206221,0.9999936013550741,1787154.0,0.04,0.15,-0.99,-0.06,-0.06,-0.06,-55.06,0.3,-51.61,1848451.0,0.15,0.12,0.99,0.0,0.0,0.0,-6.0,34.36,16.8,29646,1603196440.627149,body_FLU,-0.02633778162896457,0.004288330433419581,-0.595084267608901,0.8032201727579659,0.00048157997662201524,0.006115383934229612,0.0020100101828575134,0.20719479982182384,-0.45221733894199134,9.779688342511655,3048,1603196440.5440366,rc,0.0,0.0,0.0,0.0,0.0,-10000.0
,,122040.656311,1.525489330291748,28473,1603197221.7731597,/world,vicon/testobj/testobj,-0.009790516273588675,-0.21005431877403408,1.3940720556216297,0.001963544072894334,-0.0016038903138858266,0.002469318292374191,0.9999937372292417,1787164.0,0.04,0.15,-0.99,-0.06,-0.06,-0.06,-54.91,0.15,-52.06,1848459.0,0.13,0.12,1.01,-0.12,-0.06,0.0,-5.55,34.51,17.4,29646,1603196440.627149,body_FLU,-0.02633778162896457,0.004288330433419581,-0.595084267608901,0.8032201727579659,0.00048157997662201524,0.006115383934229612,0.0020100101828575134,0.20719479982182384,-0.45221733894199134,9.779688342511655,3049,1603196440.643799,rc,0.0,0.0,0.0,0.0,0.0,-10000.0
,,122040.680093,1.5493073463439941,28475,1603197221.7934537,/world,vicon/testobj/testobj,-0.00979772709757096,-0.21006544032025382,1.3940770971339937,0.001962562455169976,-0.0016187921118371923,0.0024596731025971984,0.9999937389148678,1787174.0,0.04,0.14,-1.0,-0.06,-0.06,0.0,-54.91,-0.3,-53.41,1848468.0,0.14,0.11,1.0,0.0,0.0,-0.06,-5.1,34.96,17.1,29648,1603196440.6660156,body_FLU,-0.026319718610587954,0.004306326295710719,-0.5950746433731513,0.8032277988095352,0.0009879072895273566,0.0034137507900595665,0.0006064237677492201,0.30501670827716587,-0.5741472895368934,9.835763688325882,3049,1603196440.643799,rc,0.0,0.0,0.0,0.0,0.0,-10000.0
,,122040.704614,1.5738024711608887,28478,1603197221.8231823,/world,vicon/testobj/testobj,-0.009794447745986456,-0.21006605168887693,1.3940734625967426,0.001979219475617105,-0.001598488351737453,0.002516401319160774,0.9999935976043335,1787184.0,0.04,0.16,-0.99,0.0,0.0,-0.06,-55.81,0.6,-52.66,1848477.0,0.14,0.12,1.0,-0.06,-0.06,0.06,-4.95,35.86,17.85,29650,1603196440.688188,body_FLU,-0.026328698116840344,0.0043316000650085226,-0.5950647805285891,0.8032346754659009,-0.0036207041703164577,0.006675115320831537,-0.0010928476694971323,0.2785935404933989,-0.5375462294630706,9.79241247868538,3050,1603196440.702068,rc,0.0,0.0,0.0,0.0,0.0,-10000.0
,,122040.726798,1.5959820747375488,28480,1603197221.8434277,/world,vicon/testobj/testobj,-0.00978886722643344,-0.21005515049276482,1.3940647438923275,0.001827585773315258,-0.0017113115945123663,0.00248083151146207,0.9999937883896477,1787194.0,0.03,0.15,-0.99,-0.06,-0.06,0.0,-54.91,1.2,-52.81,1848486.0,0.14,0.12,0.99,-0.06,-0.12,0.0,-5.55,35.26,17.1,29651,1603196440.7076764,body_FLU,-0.02633003410945216,0.004331788268447109,-0.5950738860495924,0.803227884884501,0.00024324544938281178,0.007822166197001934,-5.5578420870006084e-05,0.2621043859664351,-0.4688022815734148,9.699468625545501,3050,1603196440.702068,rc,0.0,0.0,0.0,0.0,0.0,-10000.0
,,122040.751355,1.6205790042877197,28483,1603197221.8732924,/world,vicon/testobj/testobj,-0.009793276726358815,-0.21006496743916897,1.3940693784247618,0.0019628735079401595,-0.001599746492205903,0.002436579972117588,0.9999938254893337,1787204.0,0.04,0.15,-1.0,0.06,-0.06,-0.06,-55.96,0.45,-52.81,1848495.0,0.14,0.11,0.99,0.06,0.0,0.0,-5.7,35.41,18.15,29652,1603196440.7269967,body_FLU,-0.026327008600705595,0.004334833902565537,-0.5950724241207418,0.8032290506973959,0.0010235885856673121,0.0012894384562969208,-0.0009077470749616623,0.1887111277487129,-0.5364230240285397,9.835215722680092,3051,1603196440.74365,rc,0.0,0.0,0.0,0.0,0.0,-10000.0
,,122040.775439,1.6446795463562012,28485,1603197221.8935845,/world,vicon/testobj/testobj,-0.009790138057254117,-0.21005651108847834,1.394061964146742,0.0018692166106859388,-0.0016281805339362736,0.002486154238270502,0.9999938370282663,1787214.0,0.04,0.16,-1.0,-0.12,-0.06,0.06,-55.81,0.6,-52.21,1848504.0,0.14,0.11,0.99,0.06,0.0,0.06,-5.4,35.11,17.55,29654,1603196440.765816,body_FLU,-0.02631287053172257,0.004350963668301071,-0.5950638627882113,0.8032357693498908,0.0013580553932115436,0.007700771559029818,0.0031263409182429314,0.15752595667541028,-0.4786112244464457,9.84091386437416,3051,1603196440.74365,rc,0.0,0.0,0.0,0.0,0.0,-10000.0
,,122040.798484,1.6676642894744873,28487,1603197221.9130902,/world,vicon/testobj/testobj,-0.009786268216605056,-0.2100632068318529,1.3940537441114116,0.0019255450629351901,-0.001535257703428571,0.0024584827511479816,0.9999939455429503,1787225.0,0.04,0.15,-0.99,-0.18,-0.06,0.06,-55.96,0.45,-51.46,1848513.0,0.14,0.12,0.99,-0.06,0.0,-0.12,-5.4,35.11,17.55,29656,1603196440.7880182,body_FLU,-0.026297169360744607,0.004358144629705093,-0.5950674715844988,0.8032335710869102,0.002036323305219412,0.0042414492927491665,-0.0017401311779394746,0.22447287810221314,-0.43075872238352897,9.890687605261803,3051,1603196440.74365,rc,0.0,0.0,0.0,0.0,0.0,-10000.0
,,122040.822689,1.6918680667877197,28490,1603197221.9435024,/world,vicon/testobj/testobj,-0.009787096392250947,-0.21006377978125362,1.394060558677113,0.002018582864970385,-0.0015542992424110121,0.0025042711399403893,0.9999936190312116,1787234.0,0.04,0.15,-0.99,-0.06,-0.06,0.12,-54.46,0.0,-53.26,1848559.0,0.15,0.13,0.99,0.0,0.06,-0.06,-4.8,34.21,19.05,29657,1603196440.8102393,body_FLU,-0.026286166878316548,0.004373571553183437,-0.5950571266285566,0.803241511222671,0.0013537773629650474,0.00771745853126049,0.0010245363228023052,0.24955369800701738,-0.3655873951278627,9.923418329358102,3052,1603196440.8018887,rc,0.0,0.0,0.0,0.0,0.0,-10000.0
,,122040.847133,1.7163145542144775,28492,1603197221.9632127,/world,vicon/testobj/testobj,-0.009785001619836847,-0.21005688259048388,1.3940793208012945,0.0019300578463226294,-0.00160902624302037,0.0024708228941491208,0.9999937904534631,1787244.0,0.04,0.15,-0.98,-0.06,-0.12,-0.06,-55.36,0.15,-53.41,1848568.0,0.14,0.12,0.98,0.0,0.0,-0.12,-5.55,35.26,17.4,29658,1603196440.837947,body_FLU,-0.026266429097685968,0.0043748085380088345,-0.5950425973105404,0.8032529135575157,-0.0008104476146399975,0.007268519140779972,0.0031922233756631613,0.27176328454166654,-0.42731674014776944,9.821871766090393,3053,1603196440.824102,rc,0.0,0.0,0.0,0.0,0.0,-10000.0
,,122040.87191,1.7411153316497803,28495,1603197221.9935312,/world,vicon/testobj/testobj,-0.009798959075817872,-0.2100543646373611,1.3940688331889033,0.0019672471375798105,-0.0016468124942268347,0.0025205021467071607,0.9999935324872041,1787254.0,0.04,0.14,-1.0,-0.06,-0.18,0.0,-56.86,1.05,-52.96,1848577.0,0.15,0.12,1.0,0.06,0.06,-0.06,-4.65,35.41,16.5,29660,1603196440.8656669,body_FLU,-0.026260713113670557,0.004369893192223415,-0.5950369326877984,0.8032573234759497,0.004649501293897629,0.006405968219041824,0.003983878996223211,0.19665191962011158,-0.4400190058909357,9.780061052620411,3053,1603196440.824102,rc,0.0,0.0,0.0,0.0,0.0,-10000.0
,,122040.89537,1.7645869255065918,28497,1603197222.1350362,/world,vicon/testobj/testobj,-0.009791005552628549,-0.21006100150168716,1.3940720105205828,0.0019358221781231794,-0.0015804604055618483,0.0024844361559246885,0.9999937911379191,1787264.0,0.04,0.15,-0.98,-0.06,-0.12,0.06,-55.51,2.1,-53.71,1848586.0,0.15,0.12,0.99,0.06,0.0,0.06,-5.85,34.51,17.1,29662,1603196440.8851376,body_FLU,-0.026259443176854153,0.004372432825597844,-0.5950340897315802,0.8032594571696849,0.00043703807750716805,0.002670729300007224,0.0011132914805784822,0.38407415242865683,-0.48511670998111367,9.83066375219822,3053,1603196440.824102,rc,0.0,0.0,0.0,0.0,0.0,-10000.0
,,122040.918917,1.7881169319152832,28499,1603197222.3334837,/world,vicon/testobj/testobj,-0.009791686633258677,-0.2100765237786132,1.3940678051815896,0.0018803383450858317,-0.001644960521297555,0.0024643482705604064,0.9999938426911401,1787275.0,0.04,0.15,-0.99,-0.06,-0.12,0.0,-55.96,1.2,-52.81,1848595.0,0.15,0.11,0.99,-0.06,-0.12,-0.06,-5.85,34.51,17.1,29664,1603196440.9073017,body_FLU,-0.02624365712676185,0.004373906195484624,-0.5950219794602618,0.8032689358890944,0.005202779546380043,0.0038241446018218994,0.0017921049147844315,0.2595665214881301,-0.37852457631379366,9.940686841607095,3053,1603196440.824102,rc,0.0,0.0,0.0,0.0,0.0,-10000.0
,,122040.945023,1.8142006397247314,28502,1603197222.63442,/world,vicon/testobj/testobj,-0.009797002471778737,-0.21006643998708252,1.394075872491784,0.001847764874687894,-0.0016646685745100225,0.0025153615822734103,0.9999937437802375,1787284.0,0.03,0.15,-1.0,0.0,0.06,-0.06,-54.76,0.0,-51.91,1848604.0,0.15,0.12,0.99,-0.12,-0.06,0.0,-4.8,35.26,16.65,29667,1603196440.9378033,body_FLU,-0.0262354043152843,0.004394564198747859,-0.5950335547081879,0.8032605182238541,0.001624004915356636,0.007799010723829269,-0.0036075622774660587,0.11543662341311574,-0.5263683947995305,9.924558658719063,3053,1603196440.824102,rc,0.0,0.0,0.0,0.0,0.0,-10000.0
,,122040.967276,1.8365838527679443,28504,1603197222.8351972,/world,vicon/testobj/testobj,-0.009793061510266,-0.2100700125008171,1.394066044467835,0.0019319669931850386,-0.0015758506658167485,0.0024341639551415783,0.9999939295036024,1787295.0,0.03,0.15,-1.0,-0.06,0.06,0.06,-54.76,1.35,-51.61,1848613.0,0.15,0.11,1.0,0.0,0.0,0.0,-4.8,35.26,16.65,29669,1603196440.9571812,body_FLU,-0.026228859644033927,0.0043833536764369225,-0.5950251934202098,0.8032669869523847,-0.0007279139244928956,0.008252844214439392,0.0010238795075565577,0.26636884608864786,-0.4848801880292595,9.79659582835436,3053,1603196440.824102,rc,0.0,0.0,0.0,0.0,0.0,-10000.0
,,122040.993018,1.862199306488037,28507,1603197222.1133935,/world,vicon/testobj/testobj,-0.00979134112049997,-0.21006271500219467,1.3940616124962917,0.0018852312320050424,-0.0015974454622748057,0.002459722185212843,0.9999939219005126,1787304.0,0.04,0.15,-1.0,0.0,0.06,0.0,-55.66,1.2,-53.41,1848622.0,0.15,0.12,0.98,0.06,-0.12,-0.06,-4.65,34.06,16.8,29672,1603196440.9904575,body_FLU,-0.026212665699303812,0.004402857294339793,-0.5950114125953901,0.8032776169456116,0.0010179784148931503,0.00837672408670187,0.003110296558588743,0.269666571110487,-0.398961927741766,9.75120113915205,3053,1603196440.824102,rc,0.0,0.0,0.0,0.0,0.0,-10000.0
,,122041.016482,1.8856654167175293,28509,1603197222.133569,/world,vicon/testobj/testobj,-0.009796146188809071,-0.2100655319454156,1.3940622812794783,0.0018787017123896054,-0.0016258844299056553,0.0024977279076049876,0.9999937941482417,1787315.0,0.04,0.15,-1.0,-0.06,0.06,0.0,-54.46,-0.45,-52.96,1848631.0,0.15,0.11,0.99,0.0,0.12,-0.12,-4.65,33.76,16.5,29673,1603196441.9861495,body_FLU,-0.026218147788245653,0.004402518642516411,-0.5950262055940779,0.8032664820671096,-0.002271621022373438,0.0029686628840863705,-0.0029718298465013504,0.28238333194702864,-0.5127211731076241,9.745082384169102,3053,1603196440.824102,rc,0.0,0.0,0.0,0.0,0.0,-10000.0
,,122041.040558,1.909736156463623,28511,1603197222.1532419,/world,vicon/testobj/testobj,-0.009791730189163135,-0.21007049415632284,1.3940646219536654,0.0019436109717851668,-0.001642716719211989,0.002464558076775666,0.99999372488614,1787324.0,0.04,0.15,-1.0,-0.06,-0.06,-0.06,-57.01,-0.6,-52.51,1848640.0,0.15,0.12,1.0,-0.06,-0.18,0.0,-5.85,33.46,17.4,29674,1603196441.3766618,body_FLU,-0.026207656683978252,0.004407391241294204,-0.5950328264577459,0.803261893202514,-0.0003205650136806071,0.003944958094507456,-0.0025220406241714954,0.14762348941527306,-0.48019024032354357,9.80627752840519,3054,1603196441.2377946,rc,0.0,0.0,0.0,0.0,0.0,-10000.0
,,122041.064899,1.9340786933898926,28514,1603197222.1834986,/world,vicon/testobj/testobj,-0.009788847649307382,-0.2100625838205074,1.3940643703129802,0.0019379053643279421,-0.0015558617797081498,0.0023955230618268853,0.9999940426253456,1787334.0,0.03,0.15,-0.99,-0.06,-0.12,-0.12,-55.51,0.3,-52.21,1848649.0,0.15,0.11,1.0,-0.06,-0.18,0.06,-6.45,35.11,18.15,29675,1603196441.598405,body_FLU,-0.026214226091714303,0.0044271501706529695,-0.5950229693666905,0.8032688719338161,0.0007251868955790997,0.008840357884764671,0.0029792017303407192,0.24782642689906062,-0.4681713616400957,9.815595281124114,3054,1603196441.2377946,rc,0.0,0.0,0.0,0.0,0.0,-10000.0
,,122041.090443,1.959813117980957,28516,1603197222.2033274,/world,vicon/testobj/testobj,-0.009787246056279342,-0.2100660516784466,1.394078302161121,0.0019153346778060646,-0.001611590899953091,0.0024723735112936558,0.9999938107993788,1787344.0,0.04,0.15,-0.99,0.0,0.0,0.0,-56.56,-0.45,-52.96,1848659.0,0.14,0.12,1.0,0.06,0.12,0.0,-5.85,33.91,17.1,29678,1603196441.8477175,body_FLU,-0.026207176880607478,0.004421181867707518,-0.5950373424268283,0.803258487753761,-0.0006931818788871169,0.008523347787559032,-0.0034803845919668674,0.37492431642115115,-0.4996120589375496,9.82795313322544,3054,1603196441.2377946,rc,0.0,0.0,0.0,0.0,0.0,-10000.0
,,122041.115053,1.98423433303833,28519,1603197222.23355,/world,vicon/testobj/testobj,-0.009787655470518717,-0.21006070569371282,1.3940671395761162,0.0019278781001571042,-0.0016042078981128212,0.002489207475992974,0.9999937568051073,1787355.0,0.04,0.15,-0.99,-0.18,-0.12,-0.06,-54.46,0.0,-51.91,1848668.0,0.14,0.12,1.0,-0.12,-0.06,0.06,-6.45,34.81,15.9,29679,1603196441.9867733,body_FLU,-0.02621818132175809,0.004420636842396444,-0.5950321919512462,0.8032619469885165,-0.0008417727658525109,0.003308776067569852,0.0019659139215946198,0.3401995494291186,-0.38820255218446253,9.849624064564704,3054,1603196441.2377946,rc,0.0,0.0,0.0,0.0,0.0,-10000.0
,,122041.137604,2.0067837238311768,28521,1603197222.2532947,/world,vicon/testobj/testobj,-0.009787808071629496,-0.21007065890287846,1.3940849319971513,0.001894406791201258,-0.0016989746690729548,0.002459642077524101,0.9999937374148069,1787364.0,0.03,0.14,-0.98,-0.12,-0.06,0.0,-54.91,1.2,-53.41,1848677.0,0.15,0.11,1.01,0.0,0.0,0.0,-5.1,35.56,17.7,29681,1603196441.1347408,body_FLU,-0.02622479592687768,0.004414401330407305,-0.5950369410963741,0.803258247309144,-0.0001296370173804462,0.0021360008977353573,0.0030503866728395224,0.2735594712384045,-0.3912985872924328,9.84250167953968,3054,1603196441.2377946,rc,0.0,0.0,0.0,0.0,0.0,-10000.0
,,122041.161535,2.030712366104126,28524,1603197222.2832363,/world,vicon/testobj/testobj,-0.009787465683561288,-0.21006769856029048,1.3940640859581188,0.001928749684547246,-0.0016134045578179727,0.0024561022409675887,0.9999938221870018,1787374.0,0.04,0.15,-1.0,-0.06,-0.06,-0.12,-56.56,0.0,-53.26,1848685.0,0.14,0.12,1.01,0.06,0.0,0.06,-5.7,34.81,16.5,29682,1603196441.1568937,body_FLU,-0.02620646676412816,0.004421567740099961,-0.5950365685803022,0.8032590820467825,0.00048208265798166394,0.008709589019417763,-0.0014867102727293968,0.3167582815848291,-0.5190995253548026,9.782185149729251,3054,1603196441.2377946,rc,0.0,0.0,0.0,0.0,0.0,-10000.0
,,122041.186094,2.05527400970459,28526,1603197222.303357,/world,vicon/testobj/testobj,-0.00979161380293064,-0.21006014545486243,1.3940648654398005,0.001944031035645562,-0.001591894365351608,0.002465172349146415,0.999993804751285,1787384.0,0.04,0.15,-0.99,0.0,0.0,0.0,-55.36,0.45,-53.11,1848730.0,0.14,0.11,1.0,0.0,-0.06,0.0,-2.7,35.26,17.7,29685,1603196441.1845975,body_FLU,-0.026207300209627464,0.004431331274606019,-0.5950413776859833,0.8032554385501687,0.004903517663478851,0.009290008805692196,-0.0019890067633241415,0.2614958293698728,-0.5160814789608121,9.960654289126396,3054,1603196441.2377946,rc,0.0,0.0,0.0,0.0,0.0,-10000.0
,,122041.209301,2.078545331954956,28528,1603197222.323241,/world,vicon/testobj/testobj,-0.009785211841524671,-0.21007085730459638,1.3940636698424989,0.0019370216950601706,-0.0016125731323023554,0.0024585694902127314,0.999993801476243,1787394.0,0.04,0.15,-0.99,0.0,0.0,0.0,-55.06,-0.75,-52.66,1848739.0,0.14,0.11,1.0,0.0,0.06,-0.06,-4.95,35.11,17.85,29686,1603196441.1984854,body_FLU,-0.026207970177943265,0.004425515484553874,-0.5950372120444912,0.8032585345915516,-0.0008042960544116795,0.004349188879132271,-0.001776622491888702,0.18639954372681677,-0.4544602447003126,9.984319628477097,3054,1603196441.2377946,rc,0.0,0.0,0.0,0.0,0.0,-10000.0
,,122041.234331,2.103543519973755,28531,1603197222.3533108,/world,vicon/testobj/testobj,-0.009797120047934553,-0.21005767933651864,1.3940623845965427,0.001976805109996936,-0.0015528887879410116,0.0025054059884644137,0.9999937018395678,1787404.0,0.03,0.15,-0.99,0.0,0.06,-0.12,-54.46,0.6,-53.26,1848748.0,0.14,0.12,1.0,0.0,0.0,-0.06,-5.4,35.41,17.25,29688,1603196441.2289767,body_FLU,-0.026186205537099695,0.004424503455774967,-0.5950391925884919,0.8032577828395902,0.004931405186653137,0.003343673888593912,-0.00306525407359004,0.20547627323493362,-0.4436907919496298,9.894018628835678,3054,1603196441.2377946,rc,0.0,0.0,0.0,0.0,0.0,-10000.0
,,122041.256561,2.125744581222534,28533,1603197222.3732657,/world,vicon/testobj/testobj,-0.009785436170786017,-0.21007647706978536,1.3940622565615122,0.0018256390730903107,-0.001663691175368166,0.0024421313542627157,0.999993967565853,1787414.0,0.03,0.15,-0.99,0.06,0.0,0.0,-55.66,0.75,-53.11,1848757.0,0.13,0.11,1.0,0.06,0.0,-0.06,-6.75,35.86,16.8,29689,1603196441.2373269,body_FLU,-0.02618585175734141,0.004429465017286611,-0.5950341572555036,0.8032614970896064,-0.001425325172021985,0.005681228823959827,-0.0007140162051655352,0.23191965017281474,-0.43797957911342383,9.855690242886544,3054,1603196441.2377946,rc,0.0,0.0,0.0,0.0,0.0,-10000.0
,,122041.280565,2.149773120880127,28535,1603197222.3935494,/world,vicon/testobj/testobj,-0.009787822796302255,-0.2100701600281371,1.3940668217912693,0.0019693996627099942,-0.0015735918719608495,0.00240638109016433,0.99999392728338,1787424.0,0.04,0.15,-0.99,0.06,0.06,-0.06,-54.61,-0.3,-52.81,1848766.0,0.15,0.12,1.01,0.0,0.0,-0.06,-6.6,35.26,17.1,29692,1603196441.278893,body_FLU,-0.026173718389928775,0.004425775245761598,-0.5950355447184913,0.8032608850807358,0.0005467816372402012,0.0071266889572143555,0.002342290012165904,0.10096189436595887,-0.42939256896078587,9.84756189107895,3054,1603196441.2377946,rc,0.0,0.0,0.0,0.0,0.0,-10000.0
