name,date,time,time_since_start,vicon_sequence,vicon_time_stamp,vicon_frame_id,vicon_child_frame_id,vicon_translation_x,vicon_translation_y,vicon_translation_z,vicon_rotation_x,vicon_rotation_y,vicon_rotation_z,vicon_rotation_w,int_imu_time_stamp,int_imu_acc_x,int_imu_acc_y,int_imu_acc_z,int_imu_gyro_x,int_imu_gyro_y,int_imu_gyro_z,int_imu_mag_x,int_imu_mag_y,int_imu_mag_z,ext_imu_time_stamp,ext_imu_acc_x,ext_imu_acc_y,ext_imu_acc_z,ext_imu_gyro_x,ext_imu_gyro_y,ext_imu_gyro_z,ext_imu_mag_x,ext_imu_mag_y,ext_imu_mag_z,dji_imu_sequence,dji_imu_time_stamp,dji_imu_frame_id,dji_imu_orientation_x,dji_imu_orientation_y,dji_imu_orientation_z,dji_imu_orientation_w,dji_imu_ang_vel_x,dji_imu_ang_vel_y,dji_imu_ang_vel_z,dji_imu_lin_acc_x,dji_imu_lin_acc_y,dji_imu_lin_acc_z,rc_sequence,rc_time_stamp,rc_frame_id,rc_roll,rc_pitch,rc_yaw,rc_throttle,rc_mode,rc_landing_gear
/root/Desktop/transfer/20102020/dji_vicon_test1.csv,20201020,121635.027213,0.00028896331787109375,4120,1603196976.1324291,/world,vicon/testobj/testobj,-0.02245430757666671,-0.21380809670436557,1.3964222170243146,0.005553614543021412,-0.007598504177158259,0.003571736533910826,0.9999493301152362,1587277.0,0.04,0.15,-0.99,0.0,0.0,-0.06,-55.06,0.6,-52.66,1591458.0,0.14,0.13,1.0,-0.12,-0.12,-0.06,-5.85,36.01,16.35,13515,1603196195.1612809,body_FLU,-0.025840421329353925,0.003923209484021918,-0.5975124893011348,0.8014335319800558,-0.0014411916490644217,0.006670254282653332,0.004305706359446049,0.16690922940708697,-0.5412000518292188,9.804334528684617,1661,1603196194.8829787,rc,0.0,0.0,0.0,0.0,0.0,-10000.0
,,121635.04874,0.02179718017578125,4122,1603196976.1526082,/world,vicon/testobj/testobj,-0.022449987491229006,-0.21381176418319786,1.3964165314802457,0.00550539300417867,-0.007691071593240347,0.0035801763634162246,0.9999488588937057,1587286.0,0.04,0.16,-0.99,0.0,0.0,0.0,-54.46,0.6,-52.66,1591467.0,0.14,0.13,1.0,0.06,-0.12,-0.12,-5.85,35.56,17.1,13516,1603196195.3003435,body_FLU,-0.025848851253338113,0.003917537065734197,-0.5975095401464692,0.8014354866276988,0.0005016344948671758,0.0036629352252930403,0.004311828874051571,0.14058943500649185,-0.583845748398453,9.78383547270298,1661,1603196194.8829787,rc,0.0,0.0,0.0,0.0,0.0,-10000.0
,,121635.073306,0.04637312889099121,4125,1603196976.1826177,/world,vicon/testobj/testobj,-0.022450738187273035,-0.21381515171709997,1.3964046814379047,0.0056698687256588965,-0.007514408788511251,0.0035530134988849735,0.9999493798909371,1587296.0,0.04,0.15,-0.99,-0.12,-0.24,0.06,-55.51,-0.75,-53.71,1591476.0,0.14,0.13,0.99,0.0,-0.06,0.0,-7.05,35.41,17.25,13517,1603196195.494011,body_FLU,-0.025853399914489313,0.00391311946375009,-0.5975185254561887,0.8014286624183002,0.0019402466714382172,0.010442820377647877,0.0008399516227655113,0.18801465129107237,-0.4992312067486346,9.800790861725808,1662,1603196195.6328847,rc,0.0,0.0,0.0,0.0,0.0,-10000.0
,,121635.095341,0.06844472885131836,4127,1603196976.2023103,/world,vicon/testobj/testobj,-0.022448440295439343,-0.21381016196700714,1.3964229093273768,0.005523635484025369,-0.007609571511846268,0.0035635772722335183,0.999949441116635,1587306.0,0.04,0.14,-0.99,0.0,0.0,0.0,-54.91,-0.3,-52.06,1591484.0,0.12,0.13,1.0,-0.12,-0.12,0.0,-5.4,35.11,16.5,13519,1603196195.8823595,body_FLU,-0.025858120368293963,0.003908592430843107,-0.5975074948533668,0.8014367561512773,0.0037016517017036676,0.008649075403809547,0.003618881106376648,0.26306115340813996,-0.5606813112795354,9.796443940222263,1662,1603196195.6328847,rc,0.0,0.0,0.0,0.0,0.0,-10000.0
,,121635.11763,0.09068489074707031,4129,1603196976.222375,/world,vicon/testobj/testobj,-0.022446041286953277,-0.21381134099804833,1.3964309212374584,0.005548462196027238,-0.007610543089233798,0.00355486161590487,0.9999493272961575,1587316.0,0.04,0.15,-0.98,-0.06,-0.06,0.0,-55.06,-0.75,-54.01,1591493.0,0.14,0.13,1.0,-0.12,-0.12,-0.06,-6.15,35.56,17.4,13520,1603196195.9654791,body_FLU,-0.02587760186241188,0.003899297799382175,-0.5975178308020194,0.8014284665970953,-0.0018760355887934566,0.0025403357576578856,0.0012012181105092168,0.24773775855079294,-0.5461493412181735,9.714971730351449,1662,1603196195.6328847,rc,0.0,0.0,0.0,0.0,0.0,-10000.0
,,121635.140979,0.11403775215148926,4132,1603196976.2528424,/world,vicon/testobj/testobj,-0.022448025117671678,-0.2138127222899247,1.396428419705454,0.00550704294809191,-0.007621105977448878,0.003565851130443858,0.9999494366853575,1587326.0,0.04,0.14,-0.99,-0.06,-0.06,0.0,-56.26,0.6,-53.26,1591502.0,0.14,0.13,0.99,-0.06,-0.06,0.0,-6.75,34.36,15.9,13523,1603196195.1381714,body_FLU,-0.02588368494371188,0.0039056891882263156,-0.5975216779435605,0.801425370719702,-0.0007244544103741646,0.007236131466925144,-0.00236210017465055,0.13216965697333216,-0.45071591015160084,9.836670343637467,1662,1603196195.6328847,rc,0.0,0.0,0.0,0.0,0.0,-10000.0
,,121635.165123,0.13817548751831055,4134,1603196976.2724771,/world,vicon/testobj/testobj,-0.022447710024209068,-0.21381780920522817,1.3964141170542606,0.005591608444924499,-0.007570607235540195,0.003562373790404654,0.9999493633749967,1587336.0,0.04,0.15,-0.99,-0.06,0.0,-0.06,-55.36,1.2,-53.41,1591510.0,0.14,0.12,0.98,-0.18,-0.06,0.0,-6.45,35.41,17.25,13525,1603196195.1575482,body_FLU,-0.025895905401622968,0.003923798081428715,-0.5975070835183673,0.8014357685038901,-0.001671310281381011,0.0043770791962742805,0.004215234890580177,0.1438923537991941,-0.4206831355132163,9.796655999422073,1662,1603196195.6328847,rc,0.0,0.0,0.0,0.0,0.0,-10000.0
,,121635.187303,0.16036009788513184,4136,1603196976.2927275,/world,vicon/testobj/testobj,-0.022453973707054122,-0.21380867510315543,1.396410676769152,0.005566644157896229,-0.0075749189549105785,0.003565020742602228,0.9999494605742586,1587346.0,0.04,0.14,-1.0,0.12,0.0,-0.06,-55.96,0.75,-53.11,1591554.0,0.14,0.13,1.01,0.0,0.06,0.06,-7.05,35.11,17.55,13526,1603196195.1769712,body_FLU,-0.025896078891104013,0.003934345673711196,-0.5975197166809022,0.801426292431038,0.001198059064336121,0.008371023461222649,-0.0016575693152844906,0.21743572933785618,-0.426849465072155,9.823747000336647,1662,1603196195.6328847,rc,0.0,0.0,0.0,0.0,0.0,-10000.0
,,121635.209511,0.18256688117980957,4138,1603196976.312629,/world,vicon/testobj/testobj,-0.02244768987152088,-0.21380478822580481,1.3964309121831142,0.005532289599336588,-0.007588201793568485,0.0035404828458721776,0.9999496377050933,1587356.0,0.04,0.15,-1.0,-0.06,-0.12,-0.06,-55.06,0.6,-54.01,1591563.0,0.14,0.14,1.0,-0.12,-0.06,0.0,-6.0,34.81,16.5,13527,1603196195.1963642,body_FLU,-0.025919366761721397,0.003938579420050442,-0.5975157493817349,0.8014284766962096,-0.0030219147447496653,0.0069692255929112434,0.0022022798657417297,0.270988947160542,-0.5604967818036676,9.780446614801884,1662,1603196195.6328847,rc,0.0,0.0,0.0,0.0,0.0,-10000.0
,,121635.234051,0.2071061134338379,4141,1603196976.3425202,/world,vicon/testobj/testobj,-0.022451704185584863,-0.2138106385157927,1.3964211197166438,0.0056160132168009995,-0.0075718796333581525,0.003535259132712762,0.9999493132040399,1587366.0,0.04,0.15,-1.0,-0.06,-0.06,0.0,-54.91,-0.9,-51.76,1591572.0,0.14,0.13,0.99,-0.06,0.0,0.0,-6.9,35.26,16.65,13529,1603196195.2241075,body_FLU,-0.025918763077167284,0.003931459167586701,-0.5975180885145481,0.8014267872034749,-0.00018608634127303958,0.010103229433298111,0.003392165992408991,0.21533655137568714,-0.4096628117635846,9.8517096054554,1662,1603196195.6328847,rc,0.0,0.0,0.0,0.0,0.0,-10000.0
,,121635.256868,0.22992396354675293,4143,1603196976.362327,/world,vicon/testobj/testobj,-0.02244961294084693,-0.21381495539451578,1.396406654514307,0.005613260744004152,-0.007554796818906483,0.0035627033481012,0.9999493604646679,1587376.0,0.03,0.15,-1.0,-0.06,-0.06,-0.06,-55.96,0.15,-52.06,1591581.0,0.14,0.13,0.99,-0.06,-0.18,0.0,-6.6,36.01,17.1,13531,1603196195.2435293,body_FLU,-0.0259300592301957,0.003936943647181196,-0.5975327213259712,0.801415484906435,-0.0010981801897287369,0.004117846488952637,-0.0026825459208339453,0.255490990485996,-0.2944372617378831,9.91390779554844,1662,1603196195.6328847,rc,0.0,0.0,0.0,0.0,0.0,-10000.0
,,121635.280532,0.2535855770111084,4146,1603196976.3923266,/world,vicon/testobj/testobj,-0.022453314076250806,-0.21380555039432192,1.3964015652312292,0.005682526421484676,-0.007537060797781837,0.0035383534435334514,0.9999491895406027,1587386.0,0.04,0.15,-0.98,0.0,0.0,0.0,-54.46,0.3,-52.96,1591590.0,0.14,0.13,0.99,0.0,0.0,0.12,-6.0,34.81,17.25,13533,1603196195.2767901,body_FLU,-0.025927432458111004,0.003919513216323157,-0.5975382416542495,0.8014115393622833,0.0005257819429971278,0.0067770229652523994,0.0007591441972181201,0.328035318184644,-0.4883326490856707,9.820976794481277,1662,1603196195.6328847,rc,0.0,0.0,0.0,0.0,0.0,-10000.0
,,121635.304021,0.27707886695861816,4148,1603196976.4128284,/world,vicon/testobj/testobj,-0.022445745314661262,-0.21381685871282172,1.3964207052792108,0.005494474286832358,-0.007620552860445752,0.0035449361665273365,0.9999495844061278,1587396.0,0.03,0.15,-1.01,0.0,0.0,0.06,-55.81,0.6,-52.66,1591598.0,0.15,0.13,0.99,0.0,0.0,0.06,-6.0,34.81,17.25,13535,1603196195.296205,body_FLU,-0.02592570155863548,0.003911293028452405,-0.5975381951243318,0.8014116702126903,0.004470588639378548,0.007026674225926399,0.0005062262061983347,0.32001361667364836,-0.5502024541161954,9.770524814665318,1662,1603196195.6328847,rc,0.0,0.0,0.0,0.0,0.0,-10000.0
,,121635.32644,0.29949426651000977,4150,1603196976.4326725,/world,vicon/testobj/testobj,-0.022446143430935272,-0.21382314262329033,1.3964204306595704,0.005591821643782421,-0.007560430030868972,0.0035619325709198447,0.9999494407542877,1587406.0,0.04,0.15,-0.99,0.0,0.0,0.0,-55.66,0.15,-52.06,1591607.0,0.14,0.12,0.99,-0.12,-0.12,0.0,-6.75,36.16,17.25,13537,1603196195.3239722,body_FLU,-0.025936366654453463,0.003886565535695164,-0.5975357064687711,0.8014133009801927,0.0004936766345053911,0.006972842384129763,0.0020855809561908245,0.4212359937094152,-0.4633072902560234,9.8924343187809,1662,1603196195.6328847,rc,0.0,0.0,0.0,0.0,0.0,-10000.0
,,121635.350428,0.3234879970550537,4153,1603196976.4624524,/world,vicon/testobj/testobj,-0.022450991402135058,-0.21381683335047488,1.3964131686305734,0.005641163182894683,-0.007523094697837303,0.003552999962837077,0.9999494769814,1587416.0,0.04,0.15,-0.99,0.0,-0.12,0.06,-54.91,-0.3,-52.51,1591615.0,0.15,0.13,1.01,-0.06,-0.12,0.0,-4.65,33.76,16.5,13539,1603196195.3461523,body_FLU,-0.025933936805477547,0.003865759508288763,-0.5975310639296881,0.8014169417127697,-0.0015203249640762806,0.009787872433662415,0.0028203963302075863,0.3157251136824489,-0.4922457766234875,9.867504802823067,1662,1603196195.6328847,rc,0.0,0.0,0.0,0.0,0.0,-10000.0
,,121635.373078,0.3461482524871826,4155,1603196976.4825892,/world,vicon/testobj/testobj,-0.022437780186405045,-0.21381893884260547,1.396417757522217,0.005614205615828749,-0.007530924976324505,0.0035335294177270132,0.9999496387489513,1587426.0,0.04,0.14,-0.98,-0.06,-0.18,0.06,-55.36,0.45,-52.81,1591624.0,0.14,0.12,1.0,0.0,0.0,0.06,-6.0,35.86,17.85,13540,1603196195.3572924,body_FLU,-0.025936657007650393,0.003865825228051901,-0.5975358583888256,0.8014132786260176,-0.003522197250276804,0.007530788891017437,-0.0029240434523671865,0.34947487570345404,-0.4673186704292894,9.79495368397236,1662,1603196195.6328847,rc,0.0,0.0,0.0,0.0,0.0,-10000.0
,,121635.396478,0.3695828914642334,4157,1603196976.5023165,/world,vicon/testobj/testobj,-0.022456048846827288,-0.21381249337009395,1.3964220929172488,0.00558969126168845,-0.00759375503585622,0.003553855804297927,0.9999492288836352,1587436.0,0.04,0.14,-1.0,0.06,0.0,-0.06,-55.96,-0.3,-52.81,1591632.0,0.13,0.13,0.99,-0.18,-0.18,-0.06,-6.6,36.01,17.4,13542,1603196195.390523,body_FLU,-0.02592700644174229,0.003845304383917072,-0.5975217379501878,0.8014242176576349,-4.133251786697656e-05,0.0058244457468390465,-0.0009121741750277579,0.2109517673738301,-0.534591603666544,9.81516532087326,1662,1603196195.6328847,rc,0.0,0.0,0.0,0.0,0.0,-10000.0
,,121635.420418,0.39348506927490234,4159,1603196976.5223694,/world,vicon/testobj/testobj,-0.02244612125488492,-0.21382162491766288,1.396407135579001,0.005570470592533361,-0.007625677693668188,0.0035433202209622,0.9999491305956028,1587446.0,0.04,0.15,-1.0,0.0,0.06,-0.06,-55.36,-0.9,-53.11,1591641.0,0.13,0.13,1.0,-0.12,-0.06,-0.18,-6.0,35.86,16.5,13544,1603196195.4182494,body_FLU,-0.025948021528740157,0.003870046795584834,-0.5975262105541965,0.8014200837371658,0.0025690854527056217,0.004823822062462568,0.001324885874055326,0.29577133974619213,-0.5592089091874659,9.883354913592338,1662,1603196195.6328847,rc,0.0,0.0,0.0,0.0,0.0,-10000.0
,,121635.445831,0.4188985824584961,4162,1603196976.5523815,/world,vicon/testobj/testobj,-0.022452387206128046,-0.21381361707710447,1.3963950084887826,0.005699774531810571,-0.0074880760326704226,0.003569550317806646,0.9999493485162856,1587456.0,0.04,0.15,-0.99,-0.06,-0.12,-0.12,-55.66,0.15,-52.81,1591650.0,0.13,0.13,1.0,-0.06,-0.06,-0.06,-6.0,35.86,17.55,13546,1603196195.4376757,body_FLU,-0.025951832136378063,0.003879488653231696,-0.5975243859320796,0.8014212751063238,-0.00134433270432055,0.010610384866595268,-0.0007365827332250774,0.2367028301730752,-0.4938776977658272,9.919283467054367,1662,1603196195.6328847,rc,0.0,0.0,0.0,0.0,0.0,-10000.0
,,121635.469318,0.4423809051513672,4164,1603196976.5724583,/world,vicon/testobj/testobj,-0.02245184172927012,-0.21381388017699296,1.39642398285236,0.005502908326554599,-0.007615948043437318,0.0035740963063776504,0.9999494693087956,1587466.0,0.04,0.16,-0.99,0.0,0.06,0.0,-55.06,1.05,-52.66,1591659.0,0.14,0.13,1.01,-0.06,-0.06,0.06,-6.0,35.86,17.55,13547,1603196195.4571004,body_FLU,-0.02595310361637041,0.003877751486063635,-0.5975305822446925,0.8014166224495277,0.002488854806870222,0.003948417492210865,-0.002041307743638754,0.4059708713181317,-0.4500568397976458,9.93553082370758,1662,1603196195.6328847,rc,0.0,0.0,0.0,0.0,0.0,-10000.0
,,121635.495705,0.46878600120544434,4167,1603196976.6023686,/world,vicon/testobj/testobj,-0.022444900572327443,-0.21380976098846374,1.3964211058677494,0.005546570643041819,-0.007628373029503954,0.003568652668749734,0.9999491528058586,1587476.0,0.04,0.14,-0.99,-0.12,-0.18,0.06,-56.26,1.35,-54.01,1591667.0,0.15,0.13,1.0,-0.12,-0.12,0.06,-6.6,36.61,15.3,13549,1603196195.4876292,body_FLU,-0.02594962682039017,0.0038967928863325742,-0.5975205784266596,0.8014241013531809,-0.0009228651179000735,0.004504621494561434,9.646167745813727e-05,0.17375673707574607,-0.5649640454426408,9.947094184041024,1662,1603196195.6328847,rc,0.0,0.0,0.0,0.0,0.0,-10000.0
,,121635.517992,0.4910757541656494,4169,1603196976.6225245,/world,vicon/testobj/testobj,-0.022446965784973013,-0.21380957242717816,1.396411749069434,0.005603879883296148,-0.007568394037755344,0.003561275010414926,0.9999493153466544,1587486.0,0.04,0.16,-0.99,-0.06,-0.06,0.06,-54.61,-0.6,-52.06,1591676.0,0.15,0.13,0.98,-0.18,-0.06,0.0,-6.0,35.11,15.9,13550,1603196195.495932,body_FLU,-0.025939117149886608,0.0039058699725113646,-0.5975183422312125,0.8014260646363495,0.0026220965664833784,0.008925116620957851,0.0009440010180696845,0.19364407820999624,-0.5620842683650553,9.874588631629944,1662,1603196195.6328847,rc,0.0,0.0,0.0,0.0,0.0,-10000.0
,,121635.543726,0.5168881416320801,4172,1603196976.6524255,/world,vicon/testobj/testobj,-0.02245503270468961,-0.21381398079134123,1.396417609500603,0.00559071200793337,-0.00759006591433304,0.0035449039052438003,0.9999492829613725,1587496.0,0.04,0.15,-0.99,-0.18,-0.06,0.06,-56.26,0.6,-52.66,1591721.0,0.15,0.13,0.99,0.06,-0.12,0.0,-5.55,34.96,18.75,13553,1603196195.5374851,body_FLU,-0.02594563749498485,0.003925183120355661,-0.5975175752723026,0.8014263310330894,0.0018673556623980403,0.007833138108253479,-0.001011545187793672,0.2779122345931828,-0.4977176196053624,9.741112846255303,1662,1603196195.6328847,rc,0.0,0.0,0.0,0.0,0.0,-10000.0
,,121635.568722,0.5417869091033936,4174,1603196976.672585,/world,vicon/testobj/testobj,-0.022456925804847875,-0.21380205848235065,1.39642051180404,0.005592636710181875,-0.007575039210083942,0.003567447388010803,0.9999493059724215,1587506.0,0.04,0.14,-0.99,0.06,0.0,0.06,-55.51,0.3,-52.96,1591730.0,0.14,0.13,1.0,-0.06,-0.12,0.0,-5.7,35.11,16.8,13554,1603196195.5569134,body_FLU,-0.02594568846346758,0.003928149343746779,-0.5975122016424614,0.8014303212265359,0.0006089655798859894,0.010843673720955849,0.0021065198816359043,0.12706488306261599,-0.30965243630111217,9.701267915725708,1662,1603196195.6328847,rc,0.0,0.0,0.0,0.0,0.0,-10000.0
,,121635.592387,0.5654563903808594,4177,1603196976.7024744,/world,vicon/testobj/testobj,-0.02245314235954308,-0.21380654642501165,1.3964262050284577,0.005549715230374718,-0.007617130647920626,0.003544720288653571,0.9999493061848833,1587517.0,0.03,0.15,-1.0,-0.06,-0.12,-0.06,-55.66,0.15,-54.46,1591739.0,0.13,0.13,0.99,0.06,0.0,-0.06,-6.15,35.11,16.8,13555,1603196195.5874224,body_FLU,-0.025952733705290432,0.003937532864322761,-0.5975012418986273,0.8014382180665973,0.000652266840916127,0.008241329342126846,0.005400787107646465,0.19722537034191193,-0.33832979191839696,9.812545834779739,1662,1603196195.6328847,rc,0.0,0.0,0.0,0.0,0.0,-10000.0
,,121635.630184,0.603248119354248,4181,1603196976.742445,/world,vicon/testobj/testobj,-0.022447181156252695,-0.21381052200567693,1.3964110007094053,0.0056317013382807,-0.00750068438811449,0.003566911496517028,0.9999496491404566,1587526.0,0.03,0.15,-0.99,-0.06,-0.06,0.0,-56.56,0.6,-52.66,1591748.0,0.15,0.13,1.01,-0.12,-0.06,0.0,-6.15,35.26,171603823.0,13557,1603196195.6262171,body_FLU,-0.025953377233445804,0.003933464296524434,-0.5975170348021724,0.8014264427818849,0.0037054936401546,0.008665334433317184,0.0004954012110829353,0.34822121442854403,-0.4899038879983127,9.722021092236043,1663,1603196195.6013126,rc,0.0,0.0,0.0,0.0,0.0,-10000.0
,,121635.653329,0.6263909339904785,4183,1603196976.7624176,/world,vicon/testobj/testobj,-0.022443662572501293,-0.21381649618355045,1.3964213149865714,0.005485727486735868,-0.007669986768200028,0.0035559144328692147,0.9999492154951986,1587536.0,0.04,0.15,-1.0,-0.06,-0.06,-0.06,-54.91,1.2,-51.01,1603832.0,0.14,0.12,1.0,-0.06,-0.18,0.0,-7.2,36.01,16.65,13558,1603196195.637377,body_FLU,-0.025970501174806582,0.00392741158569279,-0.5975187268390074,0.8014246562114605,-0.001316343666985631,0.003274335991591215,0.000289000163320452,0.2836949735954404,-0.4601919770389795,9.771956068217754,1663,1603196195.6013126,rc,0.0,0.0,0.0,0.0,0.0,-10000.0
,,121635.676289,0.649411678314209,4185,1603196976.7826838,/world,vicon/testobj/testobj,-0.02244172715818799,-0.21381240507891852,1.3964124436619534,0.005615595422709583,-0.007542010259996285,0.0035581166507396432,0.999949460210458,1587546.0,0.04,0.15,-0.99,-0.12,0.0,-0.06,-54.76,0.3,-52.96,1603841.0,0.14,0.13,1.0,0.0,0.0,0.0,-8.1,35.41,16.8,13560,1603196195.670637,body_FLU,-0.02597779054152578,0.003923256819425012,-0.5975162492904671,0.8014262874952143,0.0024528412614017725,0.0027781203389167786,0.004437701776623726,0.2542917497064918,-0.44196905234456063,9.787940541565419,1663,1603196195.6013126,rc,0.0,0.0,0.0,0.0,0.0,-10000.0
,,121635.699399,0.6724903583526611,4187,1603196976.8026078,/world,vicon/testobj/testobj,-0.02244650871130586,-0.21381337915378268,1.3964215072626014,0.005572319170000013,-0.007614098129431827,0.003551531597084704,0.9999491794046625,1587556.0,0.04,0.15,-1.0,0.0,0.06,-0.06,-57.01,1.5,-51.76,1603850.0,0.14,0.13,1.0,0.0,0.06,0.06,-6.6,34.51,18.0,13562,1603196195.6900496,body_FLU,-0.02598129100767817,0.003932561838422165,-0.5975257787936369,0.8014190234527873,-0.00010995932098012418,0.008272599428892136,-0.00045938330003991723,0.21233803867176176,-0.39006851249188185,9.811083035230636,1663,1603196195.6013126,rc,0.0,0.0,0.0,0.0,0.0,-10000.0
,,121635.722651,0.6957066059112549,4190,1603196976.832509,/world,vicon/testobj/testobj,-0.022444496732199424,-0.2138167761152094,1.3964268000838957,0.0055625614660167666,-0.007557695097812072,0.0035474386946769292,0.9999496761504815,1587566.0,0.04,0.15,-0.99,-0.06,-0.06,-0.06,-55.06,0.0,-53.71,1603859.0,0.14,0.13,1.0,-0.06,-0.06,0.0,-5.55,34.21,17.4,13563,1603196195.7177486,body_FLU,-0.02598969679952945,0.003925229784516465,-0.5975180880277071,0.8014245209070661,-0.0026402303483337164,0.00825943611562252,-0.0012292229803279042,0.22767260606959464,-0.3198287951052189,9.873741563200952,1663,1603196195.6013126,rc,0.0,0.0,0.0,0.0,0.0,-10000.0
,,121635.745191,0.7182488441467285,4192,1603196976.8526962,/world,vicon/testobj/testobj,-0.022454940642663408,-0.21382017766630004,1.3964219345923647,0.0055886922162279445,-0.00754920936534501,0.0035631100295164505,0.9999495388289291,1587576.0,0.04,0.15,-0.99,-0.06,-0.06,0.0,-56.41,0.75,-54.46,1603868.0,0.13,0.12,1.0,-0.06,-0.06,-0.06,-5.4,35.41,18.15,13564,1603196195.737219,body_FLU,-0.026017043326643133,0.0039236291323560156,-0.597518940377576,0.8014230059594184,-0.0019858793821185827,0.005514700897037983,0.0017336959717795253,0.2745359366722405,-0.46232458134368065,9.838020979642868,1663,1603196195.6013126,rc,0.0,0.0,0.0,0.0,0.0,-10000.0
,,121635.767286,0.7403442859649658,4194,1603196976.8724256,/world,vicon/testobj/testobj,-0.022454435159055167,-0.21381028566269827,1.396439033681971,0.0055328644299477,-0.007637510453586255,0.0035738414164238697,0.9999491404580542,1587586.0,0.04,0.15,-0.99,0.0,0.0,-0.06,-55.36,0.15,-52.51,1603877.0,0.14,0.13,1.0,0.12,0.0,-0.06,-6.6,34.21,17.7,13566,1603196195.7566304,body_FLU,-0.02601758117268073,0.0039157082305538255,-0.5975341978796314,0.8014116514397089,0.00022039562463760376,0.0038230987265706062,-0.0026621967554092407,0.3105805604159832,-0.48685498932749033,9.763729573309421,1663,1603196195.6013126,rc,0.0,0.0,0.0,0.0,0.0,-10000.0
,,121635.790076,0.7632067203521729,4197,1603196976.9023907,/world,vicon/testobj/testobj,-0.02244888463060768,-0.21380632375202338,1.3964141727024282,0.005565596688002962,-0.00759446974916751,0.003566663291556643,0.9999493122532263,1587596.0,0.03,0.14,-0.99,-0.06,-0.06,0.06,-54.76,-1.2,-51.31,1603886.0,0.14,0.13,0.99,0.0,-0.06,0.06,-7.05,34.36,16.8,13568,1603196195.7760563,body_FLU,-0.0260079974463569,0.003928977254526349,-0.5975299321604796,0.8014150780830471,0.0009735706844367087,0.01157811377197504,0.0007076898473314941,0.33501494297012685,-0.4357075371220708,9.80942278110981,1663,1603196195.6013126,rc,0.0,0.0,0.0,0.0,0.0,-10000.0
,,121635.813657,0.7867171764373779,4199,1603196976.9223552,/world,vicon/testobj/testobj,-0.022445333513795334,-0.21381075465196867,1.3964040777321205,0.005603766826162424,-0.007618703032228726,0.0035691769082692847,0.9999489057635206,1587606.0,0.04,0.15,-0.99,-0.12,-0.06,-0.06,-55.66,-0.6,-52.81,1603895.0,0.15,0.13,1.0,0.0,-0.06,-0.06,-7.5,35.41,15.9,13569,1603196195.7899067,body_FLU,-0.026002821372375758,0.003920169694732404,-0.5975271853946441,0.8014173371375214,0.001393393729813397,0.007405751850455999,-0.0016964527312666178,0.3312032810859382,-0.3848814962692559,9.878413875818254,1663,1603196195.6013126,rc,0.0,0.0,0.0,0.0,0.0,-10000.0
,,121635.835267,0.8084104061126709,4201,1603196976.9425485,/world,vicon/testobj/testobj,-0.02245006215022053,-0.21380863620134616,1.396421633885226,0.005582577735578099,-0.007534295440997467,0.0035602855206214317,0.9999496955272529,1587616.0,0.04,0.15,-0.99,0.0,0.0,0.0,-54.91,-0.3,-53.86,1603904.0,0.15,0.13,0.99,-0.06,-0.18,0.0,-6.15,34.96,17.7,13570,1603196195.8176115,body_FLU,-0.02602995009997952,0.0039195697589339325,-0.5975289763633594,0.8014151240629622,-0.00010513210872886702,0.0020616773981601,-0.002344896551221609,0.24567324832454324,-0.5471393524445594,9.849870590686798,1663,1603196195.6013126,rc,0.0,0.0,0.0,0.0,0.0,-10000.0
,,121635.856786,0.8298439979553223,4203,1603196976.9624922,/world,vicon/testobj/testobj,-0.022450668907868766,-0.21380468741934927,1.396434938313856,0.005551386727747087,-0.007612646937728596,0.0035583316647291694,0.9999492827077603,1587626.0,0.05,0.15,-0.98,-0.06,-0.18,0.0,-55.51,-0.45,-52.21,1603913.0,0.14,0.13,0.99,-0.12,-0.06,0.0,-6.45,34.81,16.5,13571,1603196195.8370645,body_FLU,-0.02603630803237032,0.003927696448290789,-0.5975216809351169,0.8014203171102702,-0.002293940866366029,0.009291544556617737,0.0027748961001634598,0.22567056713998318,-0.4850461331158876,9.753876707017422,1663,1603196195.6013126,rc,0.0,0.0,0.0,0.0,0.0,-10000.0
,,121635.87864,0.851696252822876,4205,1603196976.9826014,/world,vicon/testobj/testobj,-0.022450889713337686,-0.21381742367392703,1.396417315261888,0.0055436995084291235,-0.0076178618830059185,0.0035732522098267786,0.9999492324336954,1587636.0,0.03,0.15,-0.99,-0.12,-0.06,0.0,-55.36,0.15,-52.81,1603922.0,0.14,0.13,1.0,-0.06,-0.12,0.06,-6.45,34.81,16.5,13572,1603196195.8675547,body_FLU,-0.02608305935972914,0.003933803581705092,-0.5975344408494855,0.8014092532548588,-0.0001403974019922316,0.007551719434559345,0.0007915558526292443,0.24832417088001968,-0.38456362653896214,9.899075335264206,1663,1603196195.6013126,rc,0.0,0.0,0.0,0.0,0.0,-10000.0
,,121635.901627,0.8746826648712158,4208,1603196977.1252944,/world,vicon/testobj/testobj,-0.022449720085027557,-0.21381367182803818,1.3964115168038644,0.005530164545311572,-0.007675563377664866,0.0035772656639777673,0.9999488517805831,1587646.0,0.04,0.15,-1.01,-0.06,-0.12,0.0,-55.66,0.15,-52.81,1603931.0,0.15,0.13,0.98,0.0,0.0,-0.06,-6.6,34.96,16.65,13573,1603196195.8898346,body_FLU,-0.026096505023352326,0.003949225300986081,-0.597525420569541,0.801415465172891,-0.004536641761660576,0.013510370627045631,0.0038350385148078203,0.17158075702562928,-0.3964005680680275,9.927312507390976,1664,1603196195.8814194,rc,0.0,0.0,0.0,0.0,0.0,-10000.0
,,121635.924295,0.8973519802093506,4210,1603196977.3256426,/world,vicon/testobj/testobj,-0.022457120773535334,-0.21381158209824513,1.3964168070487486,0.005524702810302428,-0.007649341901017276,0.0035524386944915543,0.9999491714115578,1587656.0,0.03,0.15,-0.99,-0.12,-0.06,-0.06,-54.16,-0.3,-53.86,1603977.0,0.14,0.13,0.99,0.0,-0.12,-0.06,-6.0,35.86,17.85,13574,1603196195.9174461,body_FLU,-0.026112810350680797,0.003942912657345209,-0.597535897780157,0.8014071533492995,0.001307327882386744,0.00889577530324459,0.0001186528243124485,0.2909133110269904,-0.45117113640904427,9.751123442530632,1664,1603196195.8814194,rc,0.0,0.0,0.0,0.0,0.0,-10000.0
,,121635.946302,0.919358491897583,4212,1603196977.526037,/world,vicon/testobj/testobj,-0.0224463836896858,-0.21380991895371854,1.3964141826280203,0.005546029993032912,-0.00762708240483664,0.0035508994030900957,0.9999492288505129,1587667.0,0.03,0.15,-0.99,-0.12,-0.18,0.06,-56.26,1.65,-51.91,1603986.0,0.14,0.12,1.0,0.06,-0.06,0.0,-6.45,35.86,17.55,13575,1603196195.9368658,body_FLU,-0.026145460587825454,0.00393801454172868,-0.5975434946636721,0.801400448538211,-0.0015739669324830174,-6.864394526928663e-05,-0.0016416778089478612,0.2764698815234006,-0.4277215804383159,9.856871465206146,1664,1603196195.8814194,rc,0.0,0.0,0.0,0.0,0.0,-10000.0
,,121635.969436,0.9424953460693359,4214,1603196977.7245142,/world,vicon/testobj/testobj,-0.022445608476974303,-0.21381289374469564,1.3964133045839753,0.005608118225644398,-0.007552004288217151,0.003575217887169427,0.9999493657472148,1587676.0,0.04,0.15,-1.0,0.0,-0.18,-0.06,-55.36,0.45,-52.81,1603995.0,0.14,0.13,0.99,-0.06,-0.18,0.0,-6.6,35.26,18.45,13577,1603196195.9563208,body_FLU,-0.026138022162365392,0.003934347443631151,-0.5975496413091044,0.8013961260693698,0.004235079977661371,0.00870811939239502,0.0013288985937833786,0.21796819582208993,-0.44712076187878846,9.907468907117844,1664,1603196195.8814194,rc,0.0,0.0,0.0,0.0,0.0,-10000.0
,,121635.995023,0.9680981636047363,4217,1603196977.1024601,/world,vicon/testobj/testobj,-0.022439872492553956,-0.21381239091139334,1.3964147340235051,0.005621539136926341,-0.007534234721014797,0.003576517553274607,0.9999494197843668,1587686.0,0.04,0.14,-0.99,-0.06,-0.12,0.06,-55.06,-1.2,-52.66,1604004.0,0.14,0.13,0.99,-0.06,-0.06,0.0,-7.5,35.11,17.85,13580,1603196195.989577,body_FLU,-0.02617310063469622,0.0039305676627541366,-0.5975348879505911,0.801406000178991,0.004811322782188654,0.006854553706943989,0.0050162882544100285,0.2194772920422256,-0.35824356742948293,9.852058948159218,1664,1603196195.8814194,rc,0.0,0.0,0.0,0.0,0.0,-10000.0
,,121636.01654,0.989600419998169,4219,1603196977.1224625,/world,vicon/testobj/testobj,-0.02244667325499027,-0.21381829990797724,1.3964027613141472,0.00561529927492482,-0.007540184252831498,0.0035598082045044262,0.9999494696238573,1587696.0,0.03,0.14,-0.99,0.0,0.0,0.0,-54.91,0.15,-53.11,1604013.0,0.14,0.12,1.0,-0.06,-0.18,0.0,-6.9,34.51,17.1,13580,1603196195.989577,body_FLU,-0.02617310063469622,0.0039305676627541366,-0.5975348879505911,0.801406000178991,0.004811322782188654,0.006854553706943989,0.0050162882544100285,0.2194772920422256,-0.35824356742948293,9.852058948159218,1664,1603196195.8814194,rc,0.0,0.0,0.0,0.0,0.0,-10000.0
,,121636.039361,1.0124766826629639,4221,1603196977.1424477,/world,vicon/testobj/testobj,-0.022449450115019014,-0.2138156681241085,1.3964071387572967,0.0055902622078268915,-0.007573769141314357,0.003567116093339695,0.9999493300523875,1587706.0,0.04,0.15,-0.99,-0.12,-0.18,-0.06,-55.81,0.3,-53.26,1604022.0,0.13,0.13,1.0,-0.06,-0.3,0.0,-6.9,34.51,17.1,13582,1603196196.3671155,body_FLU,-0.026170078717283822,0.003918832322512583,-0.5975580253426916,0.8013889043914335,0.0020799082703888416,0.006709937006235123,-0.003974276594817638,0.15597987423464657,-0.41074169215187434,9.910961165785789,1664,1603196195.8814194,rc,0.0,0.0,0.0,0.0,0.0,-10000.0
,,121636.063706,1.0367717742919922,4224,1603196977.1724596,/world,vicon/testobj/testobj,-0.022446983592234196,-0.2138212774533435,1.3964228248535615,0.005507783619846528,-0.007654862673954595,0.003546931785602751,0.9999492420477892,1587716.0,0.04,0.15,-0.99,-0.06,-0.12,0.06,-55.96,1.2,-53.11,1604031.0,0.14,0.13,0.99,0.0,0.0,-0.06,-6.15,34.96,17.7,13584,1603196196.5611546,body_FLU,-0.026178254274089905,0.003909346508517272,-0.5975537261723166,0.8013918893716218,-0.00030681706266477704,0.0022934339940547943,0.003847008803859353,0.10579680213332177,-0.44335375364497304,9.83630113863945,1664,1603196195.8814194,rc,0.0,0.0,0.0,0.0,0.0,-10000.0
,,121636.08527,1.0583276748657227,4226,1603196977.1926353,/world,vicon/testobj/testobj,-0.022455216219252967,-0.2138136892811975,1.3964257202337271,0.0055718380265712165,-0.0075758103849879604,0.0035476900652686673,0.9999494865308033,1587726.0,0.03,0.15,-0.98,0.0,0.06,0.06,-55.51,0.6,-52.66,1604040.0,0.13,0.13,1.0,0.06,0.06,0.0,-6.9,35.56,17.4,13585,1603196196.7001143,body_FLU,-0.026175502828166428,0.003896751179982778,-0.5975547787675212,0.8013912557259611,0.003663374576717615,0.004679614212363958,0.0036569032818078995,0.21288647896796464,-0.380113340780139,9.891281137347221,1664,1603196195.8814194,rc,0.0,0.0,0.0,0.0,0.0,-10000.0
,,121636.107292,1.0803520679473877,4228,1603196977.2126007,/world,vicon/testobj/testobj,-0.02244931709401709,-0.2138144283894673,1.3964214560367885,0.005529988683300205,-0.007636119011884217,0.0035697113448894236,0.999949181745009,1587736.0,0.04,0.15,-0.99,0.06,0.06,0.0,-54.46,1.35,-55.06,1604049.0,0.14,0.13,0.99,0.06,0.06,0.06,-5.1,36.01,17.4,13586,1603196196.894115,body_FLU,-0.02615977496719257,0.003886938988520586,-0.5975534065404964,0.8013928401294922,-0.0016737447585910559,0.0030452969949692488,0.0005703447386622429,0.33955274696275595,-0.4852790769338608,9.934447744488716,1665,1603196196.103328,rc,0.0,0.0,0.0,0.0,0.0,-10000.0
,,121636.12922,1.102273941040039,4230,1603196977.232736,/world,vicon/testobj/testobj,-0.022437555840389315,-0.21381611794620156,1.3964171305863262,0.005461319790693262,-0.00769339575551085,0.003534794231337157,0.9999492441507394,1587746.0,0.03,0.15,-1.0,0.0,0.0,0.0,-56.26,0.6,-52.21,1604058.0,0.14,0.12,0.99,0.0,-0.06,0.0,-5.85,34.51,16.35,13587,1603196196.1171253,body_FLU,-0.02615407056227182,0.0038813332486383363,-0.5975476318259824,0.8013973593320588,0.0003468944050837308,0.0015603480860590935,-0.0004683425067923963,0.17899300740659238,-0.46508580535277727,9.93937826693058,1665,1603196196.103328,rc,0.0,0.0,0.0,0.0,0.0,-10000.0
,,121636.153765,1.1268324851989746,4233,1603196977.2625988,/world,vicon/testobj/testobj,-0.022453210031342912,-0.2138119724207534,1.3964202820235838,0.0056084344968031375,-0.007529927727461282,0.0035711218448044066,0.9999495450969933,1587756.0,0.04,0.15,-0.98,0.0,-0.06,0.0,-55.81,-0.75,-52.21,1604067.0,0.15,0.13,1.0,0.0,-0.12,0.06,-5.85,35.26,17.1,13588,1603196196.1476407,body_FLU,-0.026167736111544614,0.003882076393719063,-0.5975756856520066,0.8013759910224441,0.0011137605179101229,0.0040151095017790794,-0.0030077463015913963,0.2472760332338512,-0.47879878438264134,9.803939619541168,1665,1603196196.103328,rc,0.0,0.0,0.0,0.0,0.0,-10000.0
,,121636.177248,1.1503033638000488,4235,1603196977.282582,/world,vicon/testobj/testobj,-0.02244913434498173,-0.21381119610652466,1.3964261882834983,0.00550601884611449,-0.007607280411981567,0.0035768250436843422,0.9999495084072029,1587767.0,0.04,0.15,-0.99,-0.06,-0.18,-0.06,-56.41,0.15,-53.41,1604076.0,0.15,0.12,1.01,-0.06,-0.18,-0.12,-6.45,36.16,16.5,13589,1603196196.1698482,body_FLU,-0.026161508317963825,0.003883249635950388,-0.5975721858954094,0.8013787983837458,-0.0008793599554337561,0.009764039888978004,0.0014469755114987493,0.24081056438013912,-0.4224139299876988,9.776781437337398,1666,1603196196.161564,rc,0.0,0.0,0.0,0.0,0.0,-10000.0
,,121636.199073,1.1721341609954834,4237,1603196977.3024821,/world,vicon/testobj/testobj,-0.02245648638980434,-0.213807621438652,1.3964166145958932,0.005631302257552187,-0.007487133824398635,0.0035750365636894074,0.9999497239239321,1587777.0,0.04,0.15,-1.0,0.0,0.0,0.06,-53.71,0.0,-52.96,1604085.0,0.15,0.14,0.98,0.06,0.0,0.12,-5.85,34.51,17.1,13590,1603196196.1892571,body_FLU,-0.026172912478333497,0.003865856278589803,-0.5975764716329447,0.801375314293094,0.002146923914551735,0.0076239705085754395,-5.8177305618301034e-05,0.20875022922456266,-0.42834815549477934,9.858007121086121,1666,1603196196.161564,rc,0.0,0.0,0.0,0.0,0.0,-10000.0
,,121636.22223,1.1952836513519287,4240,1603196977.332682,/world,vicon/testobj/testobj,-0.02245040540427185,-0.21380236542956388,1.3964234389238346,0.005581791405225624,-0.007579141210769295,0.003556961055427688,0.9999493728440786,1587786.0,0.04,0.15,-1.0,0.0,0.06,0.0,-55.66,-0.3,-53.41,1604094.0,0.14,0.14,1.0,0.0,0.0,-0.12,-5.55,34.21,17.1,13591,1603196196.2169683,body_FLU,-0.026177424250690688,0.0038635486539654895,-0.5975901457086833,0.801364981268381,-0.0022082957439124584,0.005804148968309164,-0.0026072305627167225,0.38753493812307716,-0.3199455591067672,9.792317256510257,1667,1603196196.203146,rc,0.0,0.0,0.0,0.0,0.0,-10000.0
,,121636.244852,1.2179100513458252,4242,1603196977.3524184,/world,vicon/testobj/testobj,-0.02244995986031805,-0.2138184498405041,1.3964078244309992,0.005609542501362731,-0.007546522962520136,0.0035493879047710894,0.9999494911592299,1587796.0,0.04,0.15,-0.98,0.06,0.0,-0.12,-54.61,0.45,-52.81,1604103.0,0.15,0.12,0.99,-0.06,-0.06,0.0,-6.6,34.21,17.1,13592,1603196196.236396,body_FLU,-0.026164627258499506,0.0038501700293005823,-0.5975771683917183,0.8013751407974329,0.0027963495813310146,0.0044435765594244,0.0038330249954015017,0.4454321747794747,-0.5028414342999459,9.746228555381299,1667,1603196196.203146,rc,0.0,0.0,0.0,0.0,0.0,-10000.0
,,121636.267766,1.2408251762390137,4244,1603196977.3725364,/world,vicon/testobj/testobj,-0.022443886090853595,-0.2138049901782786,1.3964124277929868,0.005569057198865417,-0.007624947336802344,0.0035655620736754763,0.9999490649763744,1587806.0,0.04,0.14,-1.0,-0.12,-0.12,-0.06,-54.91,-0.3,-52.06,1604148.0,0.15,0.12,1.0,0.06,0.0,-0.06,-6.75,35.41,16.8,13594,1603196196.2558055,body_FLU,-0.0261736257656404,0.003845085701321728,-0.5975896399330825,0.8013655713061788,-0.0009371484047733247,0.007094136439263821,-0.0029197491239756346,0.20736780989728867,-0.46896851875260476,9.773127943575382,1667,1603196196.203146,rc,0.0,0.0,0.0,0.0,0.0,-10000.0
,,121636.292097,1.2651538848876953,4247,1603196977.4024603,/world,vicon/testobj/testobj,-0.022446290120147216,-0.2138101187775007,1.3964300618550247,0.005400285130157473,-0.007736824612052133,0.003558002068061153,0.9999491582509178,1587816.0,0.03,0.15,-1.0,-0.06,-0.12,-0.06,-55.66,-0.9,-52.81,1604157.0,0.15,0.13,0.98,-0.06,-0.06,0.0,-5.55,35.26,18.45,13596,1603196196.2890573,body_FLU,-0.026170869128356335,0.0038406657485539892,-0.5975848448749232,0.8013692582520796,-0.0011630899971351027,0.008499529212713242,-0.00032411469146609306,0.32837688392400743,-0.4632683324106038,9.803238597393037,1667,1603196196.203146,rc,0.0,0.0,0.0,0.0,0.0,-10000.0
,,121636.314913,1.2879693508148193,4249,1603196977.4223692,/world,vicon/testobj/testobj,-0.02244099748065737,-0.2138077083628782,1.3964143261192357,0.005611967102415568,-0.007541483475268203,0.003558354663825347,0.9999494837062121,1587826.0,0.03,0.15,-0.99,-0.06,-0.06,0.06,-55.81,0.3,-52.66,1604166.0,0.13,0.13,1.0,-0.12,-0.18,-0.12,-6.45,35.41,16.8,13596,1603196196.2890573,body_FLU,-0.026170869128356335,0.0038406657485539892,-0.5975848448749232,0.8013692582520796,-0.0011630899971351027,0.008499529212713242,-0.00032411469146609306,0.32837688392400743,-0.4632683324106038,9.803238597393037,1668,1603196196.3029375,rc,0.0,0.0,0.0,0.0,0.0,-10000.0
,,121636.337469,1.3105297088623047,4251,1603196977.4426255,/world,vicon/testobj/testobj,-0.02245763726164228,-0.2138093423844867,1.3964133668144925,0.00554623082710658,-0.007627561946534241,0.003535530704004995,0.9999492785361692,1587836.0,0.04,0.15,-0.99,-0.06,0.06,0.0,-55.51,-0.45,-52.66,1604176.0,0.14,0.12,0.99,-0.06,-0.18,-0.06,-5.1,33.46,16.35,13599,1603196196.3362365,body_FLU,-0.026166472292280862,0.003830646787862401,-0.597592241677345,0.8013639339026991,-0.0027628643438220024,0.007927972823381424,0.0006449256325140595,0.27505971340276303,-0.39058442097902296,9.7913539352417,1668,1603196196.3029375,rc,0.0,0.0,0.0,0.0,0.0,-10000.0
,,121636.360847,1.3339102268218994,4254,1603196977.4725542,/world,vicon/testobj/testobj,-0.0224471138180462,-0.21380405745254907,1.3964107799456218,0.005635385746682893,-0.007547083379888684,0.003581394363269994,0.9999492274982554,1587846.0,0.03,0.14,-0.99,-0.06,-0.18,0.0,-55.51,0.6,-52.96,1604185.0,0.14,0.13,1.0,-0.06,-0.06,-0.06,-7.2,36.61,17.1,13601,1603196196.3556495,body_FLU,-0.02615758096320986,0.0038394459228527937,-0.5975954240132757,0.8013618089299939,0.0029770387336611748,0.008783068507909775,-0.0007213622448034585,0.27824708220362665,-0.4558930682502687,9.837633080720902,1668,1603196196.3029375,rc,0.0,0.0,0.0,0.0,0.0,-10000.0
,,121636.383767,1.35683012008667,4256,1603196977.4927197,/world,vicon/testobj/testobj,-0.022448085792881708,-0.21379753245778607,1.396407817203719,0.005604715664880863,-0.007550430166959723,0.003540238434528956,0.9999495211651618,1587856.0,0.04,0.15,-1.0,-0.06,-0.18,0.06,-56.26,0.3,-52.66,1604194.0,0.13,0.13,0.99,0.0,0.0,0.0,-6.15,35.26,16.65,13602,1603196196.3696427,body_FLU,-0.02615232650399856,0.0038278661832356034,-0.5975966733888249,0.801361104130667,-0.0006775336223654449,0.006401280872523785,-0.0016995491459965706,0.28798314798250796,-0.36210817109048365,9.854046345949174,1668,1603196196.3029375,rc,0.0,0.0,0.0,0.0,0.0,-10000.0
,,121636.407389,1.3805058002471924,4258,1603196977.5126567,/world,vicon/testobj/testobj,-0.022450491090775588,-0.21381416378732232,1.3964090698800258,0.005548205012717156,-0.007620964091565083,0.0035518112859474005,0.9999492601947565,1587866.0,0.03,0.16,-0.99,-0.06,-0.06,0.0,-55.51,0.6,-52.21,1604203.0,0.14,0.13,0.99,0.0,0.0,-0.12,-6.15,35.26,16.65,13603,1603196196.3889205,body_FLU,-0.026146580854097837,0.0038357306401356262,-0.5975916131892114,0.8013650275161828,3.196968464180827e-05,0.006350535899400711,0.0016589013393968344,0.12073663381766528,-0.24211709440872073,9.909345309734345,1669,1603196196.4027967,rc,0.0,0.0,0.0,0.0,0.0,-10000.0
,,121636.431648,1.404707670211792,4261,1603196977.542637,/world,vicon/testobj/testobj,-0.022450801201764178,-0.21381688536496413,1.396424115686142,0.005592467865608522,-0.007578720223726104,0.0035597093282421356,0.9999493066013102,1587877.0,0.04,0.15,-0.99,-0.06,-0.12,0.0,-56.26,1.65,-52.66,1604212.0,0.14,0.13,1.0,-0.06,-0.18,-0.06,-5.85,34.96,17.1,13605,1603196196.4277601,body_FLU,-0.02613906275521198,0.0038264436301098225,-0.5976004409116741,0.8013587341194938,-0.001293863169848919,0.00600022729486227,0.00033299566712230444,0.2810781893581152,-0.4980253391191363,9.821256034970284,1669,1603196196.4027967,rc,0.0,0.0,0.0,0.0,0.0,-10000.0
,,121636.455966,1.429027795791626,4263,1603196977.5623753,/world,vicon/testobj/testobj,-0.022452534490831687,-0.21381198002389776,1.3964115332079385,0.005537750639999597,-0.007637565423865009,0.0035654233702255697,0.9999491430410031,1587886.0,0.04,0.15,-0.98,0.0,0.06,-0.06,-56.56,0.6,-52.66,1604221.0,0.14,0.13,1.0,0.0,-0.18,-0.12,-6.15,33.91,17.7,13606,1603196196.4500287,body_FLU,-0.026115664166806614,0.0038346322848075895,-0.5976103098809152,0.8013520981468779,0.0004212188650853932,0.004388779401779175,-0.0018838612595573068,0.20109725806117057,-0.4320955570153892,9.903765173435211,1670,1603196196.4416366,rc,0.0,0.0,0.0,0.0,0.0,-10000.0
,,121636.478393,1.4514493942260742,4265,1603196977.5826504,/world,vicon/testobj/testobj,-0.02244861212099018,-0.21381247877825074,1.3964206180173213,0.005556751715442377,-0.007631440821098048,0.0035825831271073696,0.999949023060428,1587896.0,0.04,0.15,-1.0,-0.06,-0.06,0.06,-54.61,0.45,-53.11,1604230.0,0.15,0.13,1.0,0.0,-0.06,0.06,-6.45,36.46,16.8,13607,1603196196.4693882,body_FLU,-0.026126067151577163,0.0038522008320062214,-0.5976121588324133,0.8013502959253237,-0.0006327411392703652,0.007967406883835793,0.0029316931031644344,0.1761187435761094,-0.41295666655898094,9.787150723278522,1670,1603196196.4416366,rc,0.0,0.0,0.0,0.0,0.0,-10000.0
,,121636.501762,1.474818229675293,4268,1603196977.612596,/world,vicon/testobj/testobj,-0.022446430670870685,-0.21380805348956608,1.3964103232889231,0.005519914638508848,-0.007651973713066042,0.003571185278065439,0.9999491109433459,1587907.0,0.04,0.16,-0.98,0.06,0.0,0.0,-55.06,1.05,-53.26,1604239.0,0.15,0.13,1.01,0.06,0.06,-0.18,-5.85,34.96,18.0,13608,1603196196.4887786,body_FLU,-0.026110031003836118,0.0038422091143416786,-0.5976194592891854,0.8013454221426626,0.0012723306426778436,0.008106768131256104,0.001229344867169857,0.15518866850808263,-0.379126360014081,9.866934638142586,1670,1603196196.4416366,rc,0.0,0.0,0.0,0.0,0.0,-10000.0
,,121636.525327,1.4983844757080078,4270,1603196977.6324966,/world,vicon/testobj/testobj,-0.02245131212837689,-0.21381014480384417,1.3964294209140258,0.005513333833130959,-0.007659159153757389,0.003553892380328567,0.9999491538473598,1587916.0,0.05,0.14,-0.99,-0.06,0.06,0.06,-53.86,0.45,-52.81,1604248.0,0.16,0.12,0.98,0.0,-0.06,0.0,-6.6,36.31,17.7,13609,1603196196.516502,body_FLU,-0.026103490428469763,0.0038496890694615232,-0.5976233689704734,0.8013426835891749,0.000630707829259336,0.005826548673212528,0.000538150779902935,0.22500156563892962,-0.3854293158687651,10.02099710726738,1670,1603196196.4416366,rc,0.0,0.0,0.0,0.0,0.0,-10000.0
,,121636.54874,1.5218031406402588,4272,1603196977.6525426,/world,vicon/testobj/testobj,-0.022447403987960496,-0.213811743022109,1.396415563048118,0.005634166532380929,-0.007518378709739444,0.003574788884069103,0.9999494742403221,1587927.0,0.04,0.15,-1.0,0.0,0.0,-0.12,-56.26,0.0,-52.66,1604257.0,0.14,0.13,0.99,-0.12,-0.12,0.0,-6.6,34.96,16.35,13612,1603196196.5442457,body_FLU,-0.026090417206664225,0.003845434902046825,-0.5976223199572324,0.8013439120935105,-0.002563805552199483,0.004487107507884502,0.0008907060255296528,0.348324688218534,-0.4267705270573497,9.769782899558544,1670,1603196196.4416366,rc,0.0,0.0,0.0,0.0,0.0,-10000.0
,,121636.572314,1.5453689098358154,4275,1603196977.6825855,/world,vicon/testobj/testobj,-0.02244519481336319,-0.21380865950037029,1.3964204708208767,0.005514867290484454,-0.007660753177606702,0.003548370799567228,0.9999491527893751,1587936.0,0.04,0.15,-1.01,0.0,0.0,0.06,-55.96,-0.3,-53.11,1604266.0,0.14,0.13,1.0,0.06,-0.06,0.12,-6.6,34.21,17.1,13613,1603196196.5636616,body_FLU,-0.02607085891900762,0.003844507742739152,-0.5976288532712762,0.8013396806680053,0.00487520033493638,0.0057830810546875,-0.0018249184358865023,0.2243370550610125,-0.4554391198977828,9.834456282019616,1670,1603196196.4416366,rc,0.0,0.0,0.0,0.0,0.0,-10000.0
,,121636.595735,1.5688104629516602,4277,1603196977.702397,/world,vicon/testobj/testobj,-0.022453503085462897,-0.2138173171906707,1.3964231535778888,0.00548098789654061,-0.007695860712713241,0.0035553695936271735,0.9999490446250855,1587946.0,0.04,0.14,-0.98,0.0,0.0,0.0,-55.66,-0.9,-51.76,1604275.0,0.14,0.12,0.99,0.12,0.0,0.06,-7.2,35.56,16.35,13614,1603196196.5886018,body_FLU,-0.026053578108902114,0.0038491054169007897,-0.5976389244860842,0.8013327095497408,-0.0008721945341676474,0.007584799081087112,-0.004004570655524731,0.22277892380207778,-0.4553684334978461,9.82473310482502,1670,1603196196.4416366,rc,0.0,0.0,0.0,0.0,0.0,-10000.0
,,121636.61852,1.5915746688842773,4279,1603196977.7225997,/world,vicon/testobj/testobj,-0.022448657260692825,-0.2138133286086965,1.3964173021204724,0.005570312478221333,-0.007585984287823499,0.0035720661263111877,0.9999493311187668,1587957.0,0.03,0.15,-1.0,0.0,0.06,0.06,-54.91,0.15,-52.81,1604321.0,0.16,0.13,1.01,0.06,0.0,0.12,-4.5,33.91,18.0,13615,1603196196.6163497,body_FLU,-0.02602887939009976,0.0038551827564238168,-0.5976353028657564,0.8013361839903186,-0.004385903477668762,0.010380150750279427,-0.002186175901442766,0.233749810885638,-0.43317312298715116,9.899293820500374,1670,1603196196.4416366,rc,0.0,0.0,0.0,0.0,0.0,-10000.0
,,121636.643123,1.6161890029907227,4282,1603196977.7524102,/world,vicon/testobj/testobj,-0.022440910030352017,-0.21381188672765422,1.3964026228936992,0.005637363742336551,-0.007528931798616319,0.0035639589469313813,0.9999494154769195,1587966.0,0.04,0.14,-1.01,-0.06,-0.06,0.06,-54.76,-0.45,-53.26,1604330.0,0.15,0.13,0.99,-0.06,-0.12,-0.06,-4.65,33.31,16.5,13617,1603196196.6357567,body_FLU,-0.026035803278986382,0.003866375176116466,-0.5976384325434155,0.8013335710162558,-0.0004532102611847222,0.009950032457709312,0.00031860009767115116,0.19313757145218552,-0.5230276226364077,9.923725610733033,1670,1603196196.4416366,rc,0.0,0.0,0.0,0.0,0.0,-10000.0
,,121636.667282,1.6403357982635498,4284,1603196977.7725408,/world,vicon/testobj/testobj,-0.022450687198737742,-0.21381171278655972,1.3964137503521843,0.005587525594624918,-0.007593071490667668,0.003572783031963167,0.9999491787308361,1587976.0,0.04,0.15,-0.98,0.0,0.12,0.0,-57.01,0.75,-52.81,1604340.0,0.14,0.12,1.0,0.06,-0.18,0.06,-7.05,35.86,18.15,13619,1603196196.6635017,body_FLU,-0.02602932187154074,0.0038443378365740567,-0.597645090082943,0.8013289223341793,-0.0030061868019402027,0.007538300007581711,0.0015825250884518027,0.22688957893475892,-0.33557265720516444,9.865190261363983,1670,1603196196.4416366,rc,0.0,0.0,0.0,0.0,0.0,-10000.0
,,121636.688578,1.6616637706756592,4286,1603196977.7925074,/world,vicon/testobj/testobj,-0.022456665594144117,-0.21381060224673276,1.3964169221165827,0.005539279165287563,-0.007628243783267746,0.0035598440532635892,0.9999492256076948,1587986.0,0.04,0.15,-1.0,-0.12,-0.06,0.06,-54.46,0.6,-53.26,1604349.0,0.14,0.13,1.0,0.06,0.06,0.06,-6.15,35.56,16.35,13619,1603196196.6635017,body_FLU,-0.02602932187154074,0.0038443378365740567,-0.597645090082943,0.8013289223341793,-0.0030061868019402027,0.007538300007581711,0.0015825250884518027,0.22688957893475892,-0.33557265720516444,9.865190261363983,1670,1603196196.4416366,rc,0.0,0.0,0.0,0.0,0.0,-10000.0
,,121636.714285,1.6873385906219482,4289,1603196977.8225381,/world,vicon/testobj/testobj,-0.02245203027808063,-0.2138114536662031,1.396426875551721,0.005494672334016492,-0.007648712017118624,0.0035563864847779837,0.9999493276639531,1587996.0,0.04,0.15,-1.0,-0.06,-0.12,0.0,-55.06,1.05,-52.21,1604358.0,0.13,0.13,1.0,-0.06,-0.18,-0.06,-6.15,35.56,16.65,13621,1603196196.7106543,body_FLU,-0.02602772236327131,0.0038320560927121504,-0.5976531047809864,0.801323055552709,-0.0027200677432119846,0.007104520685970783,0.0012395321391522884,0.26542639118246736,-0.5332067563198507,9.861405910134316,1670,1603196196.4416366,rc,0.0,0.0,0.0,0.0,0.0,-10000.0
,,121636.737588,1.710724115371704,4291,1603196977.8425252,/world,vicon/testobj/testobj,-0.022456050078628824,-0.21382052857301842,1.3964073042492449,0.0056062607837380814,-0.007551547380259653,0.003566534019841985,0.9999494106239943,1588006.0,0.04,0.15,-0.99,0.06,0.0,0.0,-55.51,1.35,-52.66,1604367.0,0.14,0.13,0.99,-0.06,-0.12,-0.06,-7.05,34.81,17.55,13623,1603196196.724522,body_FLU,-0.026048904357219963,0.0038225242093442697,-0.5976571336894786,0.8013194078771175,-0.0010191365145146847,0.00535169243812561,-0.0006794711807742715,0.3457238595373929,-0.4942191174589098,9.937955191969872,1670,1603196196.4416366,rc,0.0,0.0,0.0,0.0,0.0,-10000.0
,,121636.763662,1.7367348670959473,4294,1603196977.8723848,/world,vicon/testobj/testobj,-0.02245308449259107,-0.21380634150808853,1.396416095829156,0.005607589957647164,-0.007577806244662295,0.0035757228299363748,0.9999491717050566,1588016.0,0.03,0.15,-0.98,-0.06,-0.18,0.0,-55.06,-0.45,-53.26,1604376.0,0.13,0.12,0.99,-0.06,-0.24,-0.06,-6.15,35.26,17.1,13626,1603196196.7577548,body_FLU,-0.02604535794583236,0.0038175375919598112,-0.5976657025736781,0.8013131558281813,-0.001434324774891138,0.00915948860347271,-0.0014461675891652703,0.17439872001484036,-0.48537824235856536,9.834316077589989,1670,1603196196.4416366,rc,0.0,0.0,0.0,0.0,0.0,-10000.0
,,121636.787328,1.7604405879974365,4296,1603196977.8922849,/world,vicon/testobj/testobj,-0.02244995505939353,-0.21381487901101415,1.396410237654109,0.005545239087711031,-0.007608779053529209,0.0035505186592234453,0.9999493740295181,1588026.0,0.04,0.15,-0.99,0.06,0.06,0.06,-56.56,0.3,-54.01,1604385.0,0.14,0.13,1.0,0.0,-0.12,-0.06,-6.9,35.26,18.0,13627,1603196196.7772229,body_FLU,-0.026045227670719668,0.003798593918356377,-0.5976564013349976,0.8013201874052122,0.003744160057976842,0.0024244291707873344,0.0032635009847581387,0.17443110577762128,-0.5417434170171619,9.774080749511718,1670,1603196196.4416366,rc,0.0,0.0,0.0,0.0,0.0,-10000.0
,,121636.810252,1.7833116054534912,4299,1603196977.9223874,/world,vicon/testobj/testobj,-0.022445558658110855,-0.2138184751476369,1.3963993770301752,0.0056297383347840785,-0.007569190666890957,0.0035485421459863806,0.9999492093339383,1588036.0,0.05,0.15,-1.0,-0.06,-0.06,-0.06,-55.36,0.45,-52.51,1604394.0,0.14,0.13,1.02,0.0,-0.06,0.0,-6.6,34.96,16.05,13628,1603196196.7966328,body_FLU,-0.026035569400438816,0.0037936666802242023,-0.597670982839363,0.8013096489441172,-8.473626803606749e-05,0.008749010041356087,-0.0018892699154093862,0.31885178199782965,-0.4408017774447799,9.693714986264705,1670,1603196196.4416366,rc,0.0,0.0,0.0,0.0,0.0,-10000.0
,,121636.835383,1.8084826469421387,4301,1603196977.9424562,/world,vicon/testobj/testobj,-0.022443122300972944,-0.21381034116069197,1.3964249606900796,0.0055689761853181625,-0.007599829815436125,0.003556086768956429,0.9999492903832251,1588046.0,0.04,0.16,-0.99,0.0,0.06,-0.06,-55.66,0.75,-52.06,1604403.0,0.14,0.13,0.99,-0.06,-0.06,0.0,-7.2,34.51,17.1,13631,1603196196.8271105,body_FLU,-0.026016340939663592,0.0038011557997993935,-0.5976629144948288,0.8013162558292722,-0.0008717879536561668,0.009346863254904747,-0.0016398009611293674,0.06987769604008645,-0.38936226918920874,9.91117848265171,1670,1603196196.4416366,rc,0.0,0.0,0.0,0.0,0.0,-10000.0
,,121636.858909,1.8319675922393799,4303,1603196977.9626346,/world,vicon/testobj/testobj,-0.022448102254406826,-0.21381220119678165,1.396408550363425,0.0055773917090053814,-0.0075747325141977215,0.0035802988163017415,0.999949347511887,1588056.0,0.04,0.16,-0.99,0.0,0.0,0.0,-54.16,-0.3,-52.51,1604412.0,0.15,0.13,0.99,0.0,0.0,-0.06,-7.2,34.51,17.1,13634,1603196196.857632,body_FLU,-0.02599686115654548,0.0038041715428626444,-0.597674180061736,0.8013084711747476,0.003686622017994523,0.007690460421144962,-0.001802877988666296,0.26322731756418943,-0.4775215001218021,9.759844158053399,1670,1603196196.4416366,rc,0.0,0.0,0.0,0.0,0.0,-10000.0
,,121636.883083,1.8561511039733887,4306,1603196977.9923577,/world,vicon/testobj/testobj,-0.022453632596590983,-0.21380592528679507,1.3964072814305504,0.00556204768947154,-0.007606306188416508,0.003572284203910772,0.999949221969413,1588066.0,0.03,0.15,-0.99,0.0,0.06,0.0,-54.76,-0.75,-52.66,1604421.0,0.15,0.13,0.99,-0.06,-0.18,0.0,-6.6,34.96,18.0,13636,1603196196.8798306,body_FLU,-0.02598158279701322,0.003778204182728516,-0.5976901902854915,0.8012971477329796,-3.9546284824609756e-05,0.008353149518370628,-0.000586052774451673,0.24958692353591325,-0.47290822671353816,9.786374341249466,1670,1603196196.4416366,rc,0.0,0.0,0.0,0.0,0.0,-10000.0
,,121636.906513,1.8795723915100098,4308,1603196978.1266277,/world,vicon/testobj/testobj,-0.022449422373738575,-0.21381274787714635,1.3964047840156324,0.0055602178037212685,-0.00758714909038479,0.003575797314490957,0.9999493651281655,1588076.0,0.03,0.15,-0.99,0.0,0.0,0.12,-54.91,-0.3,-52.51,1604430.0,0.14,0.12,1.0,0.0,0.0,0.0,-5.7,35.11,16.5,13638,1603196196.8992636,body_FLU,-0.02596684581894563,0.003764017806934271,-0.5976966582367114,0.80129286769622,0.0032647200860083103,0.0030450825579464436,0.0004905806272290647,0.35884096974134444,-0.5234854047037661,9.791724892795086,1670,1603196196.4416366,rc,0.0,0.0,0.0,0.0,0.0,-10000.0
,,121636.92961,1.902691125869751,4310,1603196978.3270602,/world,vicon/testobj/testobj,-0.022444589420297017,-0.21381582339724992,1.3964154296705793,0.005561259820979013,-0.007589346082428969,0.0035464503692092856,0.9999494471747177,1588086.0,0.03,0.15,-0.98,-0.06,-0.06,-0.06,-55.51,1.35,-54.31,1604439.0,0.15,0.14,0.99,-0.06,-0.06,0.06,-6.15,34.51,16.35,13640,1603196196.9158888,body_FLU,-0.02596475193536112,0.003764371954672815,-0.5977038100469138,0.8012875991902814,-0.004751823842525482,0.01267000287771225,-0.0010255698580294847,0.32574724761396645,-0.49863033583760263,9.842790266990662,1670,1603196196.4416366,rc,0.0,0.0,0.0,0.0,0.0,-10000.0
,,121636.954176,1.9272327423095703,4313,1603196978.6273139,/world,vicon/testobj/testobj,-0.022450676834722984,-0.21381771699783053,1.3964022873623843,0.005634238273116531,-0.007523333117157401,0.0035465820061724054,0.9999495370137252,1588096.0,0.04,0.15,-0.99,0.0,0.06,0.06,-55.66,1.5,-51.76,1604448.0,0.15,0.14,0.99,0.0,0.0,-0.06,-7.65,35.56,17.4,13642,1603196196.9491358,body_FLU,-0.025931408253405393,0.003757129435953993,-0.5977132542821171,0.8012816681416578,-0.0006758968811482191,0.008613403886556625,-0.0015363560523837805,0.3522148499786854,-0.4407028310894966,9.93667933166027,1670,1603196196.4416366,rc,0.0,0.0,0.0,0.0,0.0,-10000.0
,,121636.976888,1.9499683380126953,4315,1603196978.825632,/world,vicon/testobj/testobj,-0.02245438946845197,-0.2138164488330808,1.3964186034833395,0.005644283464754268,-0.007486226378989482,0.0035587712738583484,0.9999497155486332,1588107.0,0.03,0.15,-0.99,0.12,0.06,-0.12,-55.06,0.0,-51.61,1604494.0,0.14,0.12,1.0,0.0,-0.12,0.0,-5.7,34.81,17.85,13642,1603196196.9491358,body_FLU,-0.025931408253405393,0.003757129435953993,-0.5977132542821171,0.8012816681416578,-0.0006758968811482191,0.008613403886556625,-0.0015363560523837805,0.3522148499786854,-0.4407028310894966,9.93667933166027,1671,1603196196.9630437,rc,0.0,0.0,0.0,0.0,0.0,-10000.0
,,121636.999778,1.9728398323059082,4317,1603196978.102388,/world,vicon/testobj/testobj,-0.022449326256060432,-0.2138100183743705,1.3964099575194096,0.005589032263599143,-0.007561949057175594,0.003571382872628846,0.9999494111549795,1588116.0,0.03,0.15,-0.99,-0.12,-0.06,-0.06,-55.06,-0.75,-52.96,1604503.0,0.13,0.13,1.0,0.0,0.12,0.0,-5.7,34.81,17.85,13643,1603196196.9768631,body_FLU,-0.02590634046833718,0.0037640507924942583,-0.5977232094778976,0.8012750203872648,0.001767521258443594,0.010231653228402138,-0.002291203010827303,0.24260050759837032,-0.3839098138511181,9.783492556035519,1671,1603196196.9630437,rc,0.0,0.0,0.0,0.0,0.0,-10000.0
,,121637.02425,1.997342824935913,4320,1603196978.132645,/world,vicon/testobj/testobj,-0.022447496098079018,-0.21380769677192782,1.3964235216752017,0.005582069391323299,-0.007584990065804137,0.0035610131442660223,0.999949312521589,1588126.0,0.04,0.15,-0.99,-0.06,0.0,0.06,-57.01,0.15,-52.81,1604511.0,0.14,0.13,0.99,0.06,0.06,0.0,-6.75,36.16,17.25,13645,1603196197.1849124,body_FLU,-0.0258907078984449,0.003742172240041262,-0.5977142758259875,0.8012822922449107,0.0016908776015043259,0.0043503278866410255,0.0033361809328198433,0.24942587099969388,-0.48664300315082076,9.706832279026509,1671,1603196196.9630437,rc,0.0,0.0,0.0,0.0,0.0,-10000.0
,,121637.049095,2.022152900695801,4322,1603196978.1523974,/world,vicon/testobj/testobj,-0.02245698388115621,-0.2138192823727377,1.3964061861559718,0.00554580674953698,-0.0075976036032935216,0.003567898911008891,0.9999493939916884,1588136.0,0.03,0.15,-0.99,-0.12,-0.12,0.06,-55.81,1.65,-52.96,1604520.0,0.14,0.13,1.0,-0.06,-0.06,0.0,-5.7,35.11,16.2,13648,1603196197.4623454,body_FLU,-0.02589302022713539,0.0037397054535243343,-0.5977210070481753,0.8012772078625182,-0.00252380408346653,0.0033095201943069696,-0.0010907482355833054,0.29629586496390403,-0.4699102251715958,9.815785725474358,1671,1603196196.9630437,rc,0.0,0.0,0.0,0.0,0.0,-10000.0
,,121637.074167,2.047227621078491,4325,1603196978.1824982,/world,vicon/testobj/testobj,-0.02244794169706109,-0.21381876266315636,1.3964104218804143,0.005532246584404718,-0.0076146878017061305,0.0035627568695313777,0.9999493574881183,1588147.0,0.04,0.15,-0.99,-0.06,0.0,-0.06,-55.66,0.45,-52.06,1604529.0,0.13,0.13,1.01,0.0,-0.12,0.0,-5.7,35.11,18.15,13649,1603196197.573373,body_FLU,-0.02588835684748698,0.0037502947204133027,-0.5977323662674501,0.8012688354014288,9.023562597576529e-05,0.008922002278268337,-0.006000625900924206,0.2262517035473138,-0.42507354229688643,9.918765879034996,1671,1603196196.9630437,rc,0.0,0.0,0.0,0.0,0.0,-10000.0
,,121637.097547,2.0706121921539307,4327,1603196978.202399,/world,vicon/testobj/testobj,-0.02244693681417564,-0.2138103399033284,1.3964005509889836,0.005569459401103241,-0.007578091464494919,0.003585079908891744,0.9999493491441365,1588156.0,0.04,0.15,-0.99,-0.06,-0.06,0.0,-55.81,0.0,-52.96,1604538.0,0.15,0.13,0.99,-0.06,-0.24,0.0,-5.4,35.41,16.8,13652,1603196197.9610991,body_FLU,-0.025876617442166027,0.0037526129600237244,-0.5977394518527149,0.801263917984917,0.0025031077675521374,0.006611949764192104,-0.0012171491980552673,0.16298679141886532,-0.4384497751146555,9.761547057688237,1671,1603196196.9630437,rc,0.0,0.0,0.0,0.0,0.0,-10000.0
,,121637.12009,2.093153476715088,4329,1603196978.222469,/world,vicon/testobj/testobj,-0.022446565141138745,-0.21380656706278636,1.3964063815356755,0.005567265993301412,-0.007595213620172179,0.003562704701290687,0.9999493114226516,1588166.0,0.03,0.16,-1.01,-0.12,-0.12,-0.06,-55.06,-0.45,-51.91,1604547.0,0.14,0.14,1.0,0.0,0.06,-0.06,-7.2,35.56,17.7,13653,1603196197.118316,body_FLU,-0.0258725340275693,0.0037363231405052534,-0.5977315707904355,0.8012700051498127,0.00039679862675257027,0.008469859138131142,0.0005810935981571674,0.13026351568289102,-0.4438737514279783,9.95889238679409,1671,1603196196.9630437,rc,0.0,0.0,0.0,0.0,0.0,-10000.0
,,121637.144337,2.117398500442505,4332,1603196978.2523956,/world,vicon/testobj/testobj,-0.02244688878844831,-0.21382580087518704,1.3963927146016335,0.005586565711075169,-0.007573680741075793,0.0035592475591887927,0.9999493794189787,1588176.0,0.04,0.15,-1.01,0.12,-0.12,0.06,-54.46,-0.75,-53.71,1604556.0,0.14,0.12,0.99,-0.12,-0.12,-0.06,-6.45,34.81,15.15,13655,1603196197.1377258,body_FLU,-0.025871457708972374,0.0037501700409994353,-0.5977321946963198,0.8012695097931766,0.0009093122789636254,0.006725196726620197,-0.0014123596483841538,0.23889954879507422,-0.5568255434185266,9.811562067031861,1671,1603196196.9630437,rc,0.0,0.0,0.0,0.0,0.0,-10000.0
