name,date,time,time_since_start,vicon_sequence,vicon_time_stamp,vicon_frame_id,vicon_child_frame_id,vicon_translation_x,vicon_translation_y,vicon_translation_z,vicon_rotation_x,vicon_rotation_y,vicon_rotation_z,vicon_rotation_w,int_imu_time_stamp,int_imu_acc_x,int_imu_acc_y,int_imu_acc_z,int_imu_gyro_x,int_imu_gyro_y,int_imu_gyro_z,int_imu_mag_x,int_imu_mag_y,int_imu_mag_z,ext_imu_time_stamp,ext_imu_acc_x,ext_imu_acc_y,ext_imu_acc_z,ext_imu_gyro_x,ext_imu_gyro_y,ext_imu_gyro_z,ext_imu_mag_x,ext_imu_mag_y,ext_imu_mag_z,dji_imu_sequence,dji_imu_time_stamp,dji_imu_frame_id,dji_imu_orientation_x,dji_imu_orientation_y,dji_imu_orientation_z,dji_imu_orientation_w,dji_imu_ang_vel_x,dji_imu_ang_vel_y,dji_imu_ang_vel_z,dji_imu_lin_acc_x,dji_imu_lin_acc_y,dji_imu_lin_acc_z,rc_sequence,rc_time_stamp,rc_frame_id,rc_roll,rc_pitch,rc_yaw,rc_throttle,rc_mode,rc_landing_gear
/root/Desktop/transfer/20102020/dji_vicon_test2.csv,20201020,121940.847421,0.00032019615173339844,22492,1603197161.951318,/world,vicon/testobj/testobj,-0.012495474941018402,-0.20844930539820597,1.396091673566901,0.00559331397278192,-0.007943035087498131,0.008500608406114298,0.9999166778732749,1765904.0,0.04,0.15,-0.99,-0.06,-0.06,0.0,-56.26,0.3,-52.96,1768802.0,0.15,0.13,0.99,-0.06,-0.18,0.06,-6.6,35.26,15.6,25739,1603196380.8276603,body_FLU,-0.02620613657324181,0.0052036855371750766,-0.595522204139636,0.8028944291993841,-0.0049114469438791275,0.008111989125609398,-0.00018419339903630316,0.249938895072788,-0.48904254354536536,9.867842461824416,2698,1603196380.8413544,rc,0.0,0.0,0.0,0.0,0.0,-10000.0
,,121940.875617,0.028472185134887695,22495,1603197161.9817517,/world,vicon/testobj/testobj,-0.012553290504882283,-0.20848619545386143,1.396169903009111,0.005970453393606436,-0.008088432442198128,0.008558952489840762,0.99991283384062,1765913.0,0.04,0.14,-0.98,-0.06,-0.12,0.06,-56.41,1.2,-53.41,1768811.0,0.14,0.12,1.0,0.0,-0.12,0.06,-5.7,34.06,15.45,25741,1603196380.8636444,body_FLU,-0.026233672606542302,0.005184955146389671,-0.5955235133736828,0.8028926800518036,-0.0021866546012461185,0.0018714370671659708,-0.002906573936343193,0.2596907703615725,-0.4609868704341352,9.7267570810318,2698,1603196380.8413544,rc,0.0,0.0,0.0,0.0,0.0,-10000.0
,,121940.899019,0.0518801212310791,22497,1603197162.139789,/world,vicon/testobj/testobj,-0.012558416484614655,-0.208501045200615,1.396159604885395,0.0059575484626385134,-0.008072635198059354,0.008593333369189675,0.9999127435925999,1765923.0,0.04,0.15,-1.0,-0.06,-0.06,0.0,-55.66,0.75,-53.86,1768820.0,0.13,0.12,1.0,-0.06,-0.06,-0.06,-5.55,34.51,17.7,25743,1603196380.8968327,body_FLU,-0.02624068176091671,0.005171687503034256,-0.5955286929236075,0.8028886947602344,0.002361015882343054,0.005343962926417589,-0.0025224301498383284,0.2554698502868414,-0.46097259441018107,9.70959080117941,2698,1603196380.8413544,rc,0.0,0.0,0.0,0.0,0.0,-10000.0
,,121940.923551,0.07664227485656738,22500,1603197162.3169153,/world,vicon/testobj/testobj,-0.01255845808960013,-0.20849772696098257,1.3961777842473049,0.0059073867896511255,-0.00814460917511917,0.008569342180989939,0.9999126634348058,1765934.0,0.03,0.15,-0.98,-0.06,-0.06,-0.06,-55.66,1.5,-52.81,1768866.0,0.14,0.12,0.99,0.12,0.0,0.06,-2.7,34.51,17.4,25744,1603196380.9162352,body_FLU,-0.02625727367639412,0.005179969994790522,-0.5955179218433836,0.8028960880794437,-0.004300834145396948,0.009417911060154438,0.004336532671004534,0.3035529229156673,-0.5075368222296238,9.790753977119923,2698,1603196380.8413544,rc,0.0,0.0,0.0,0.0,0.0,-10000.0
,,121940.946566,0.09941506385803223,22502,1603197162.5154853,/world,vicon/testobj/testobj,-0.012548789842331497,-0.20849317185844032,1.3961637332607366,0.005912724149452446,-0.008146854745932911,0.008567858427605862,0.999912626309342,1765944.0,0.04,0.16,-1.0,0.0,0.06,-0.06,-56.26,-0.45,-52.96,1768875.0,0.13,0.12,1.0,0.0,0.06,-0.06,-5.85,34.21,16.65,25746,1603196380.935659,body_FLU,-0.026272481970262388,0.005162658680458967,-0.5955332875119427,0.8028843049354553,0.002687423722818494,0.001831025816500187,-0.0023939989041537046,0.42687597247213127,-0.4619229905828834,9.873020678758621,2698,1603196380.8413544,rc,0.0,0.0,0.0,0.0,0.0,-10000.0
,,121940.969664,0.12251043319702148,22504,1603197162.715747,/world,vicon/testobj/testobj,-0.012546971050250072,-0.20849321627757877,1.3961601744454046,0.005876691432986695,-0.008156189796377842,0.008581731428478052,0.9999126436601831,1765953.0,0.04,0.15,-1.0,-0.06,-0.18,0.0,-55.51,0.6,-51.61,1768884.0,0.13,0.12,1.0,-0.06,-0.12,-0.06,-6.75,34.36,16.5,25748,1603196380.9633741,body_FLU,-0.026295576822819612,0.005160051043596673,-0.5955272202851501,0.8028880659296318,-0.004545518197119236,0.002834469545632601,0.0010677125537768006,0.28846973767876627,-0.5249284514933824,9.962332068800926,2698,1603196380.8413544,rc,0.0,0.0,0.0,0.0,0.0,-10000.0
,,121940.993395,0.14624285697937012,22507,1603197162.101636,/world,vicon/testobj/testobj,-0.01255651960643552,-0.20848368605656234,1.3961635604809757,0.005973127200665941,-0.00810439671768434,0.008574640571176424,0.999912554198797,1765963.0,0.04,0.14,-0.99,-0.06,-0.06,0.06,-56.41,0.15,-52.51,1768893.0,0.14,0.13,1.0,-0.12,-0.18,0.0,-7.5,34.81,17.85,25749,1603196380.9772794,body_FLU,-0.026299621455878868,0.005155128265586065,-0.5955280976602749,0.8028873142982001,0.002168342238292098,0.0073404149152338505,-0.0024109426885843277,0.2283368610665202,-0.5080769378878176,9.917527406573296,2698,1603196380.8413544,rc,0.0,0.0,0.0,0.0,0.0,-10000.0
,,121941.017905,0.17075133323669434,22509,1603197162.1215386,/world,vicon/testobj/testobj,-0.012513060547497682,-0.20844145681889986,1.396145004484652,0.006071163616258949,-0.008038859328989064,0.008609189978043016,0.9999121959256999,1765973.0,0.05,0.15,-1.0,0.12,0.0,0.18,-55.66,0.45,-53.11,1768902.0,0.13,0.12,0.99,-0.06,-0.06,-0.06,-6.15,35.56,16.35,25752,1603196381.1604273,body_FLU,-0.026305208045581268,0.005127162675031417,-0.5955233851388851,0.8028908057670764,0.0020142351277172565,0.008999316021800041,-0.00027401401894167066,0.23561962316371501,-0.4119719129987061,9.833641927957535,2698,1603196380.8413544,rc,0.0,0.0,0.0,0.0,0.0,-10000.0
,,121941.042464,0.1953117847442627,22512,1603197162.1515172,/world,vicon/testobj/testobj,-0.012556490052779297,-0.2084987093563861,1.3961747287798838,0.005973260851126713,-0.008099723226891821,0.00855509484454886,0.9999127586898033,1765983.0,0.03,0.15,-1.0,-0.06,-0.12,-0.06,-54.91,-0.6,-53.41,1768912.0,0.14,0.12,1.01,-0.06,-0.06,0.06,-5.55,33.91,16.65,25754,1603196381.3547475,body_FLU,-0.02630821457036862,0.005097581311976848,-0.5955198843033134,0.8028934922580053,-0.000198216614080593,0.007513535209000111,0.000363981700502336,0.3099899127446115,-0.5202583660818636,9.781258047938348,2698,1603196380.8413544,rc,0.0,0.0,0.0,0.0,0.0,-10000.0
,,121941.066453,0.2193293571472168,22514,1603197162.1715424,/world,vicon/testobj/testobj,-0.012534912649032585,-0.2084917410958687,1.396164810348544,0.005869412449040699,-0.008192680667778915,0.00855918220975271,0.9999125813694311,1765993.0,0.04,0.14,-0.99,0.06,0.0,-0.06,-55.51,1.05,-54.31,1768921.0,0.14,0.12,0.99,-0.06,-0.06,-0.06,-6.0,35.86,17.55,25755,1603196381.576754,body_FLU,-0.026312513492282735,0.005089351067101902,-0.5955142862328011,0.8028975557517108,0.0006584683433175087,0.004821235314011574,0.0018220688216388226,0.24801878810673952,-0.4556323391273618,9.725892487049103,2698,1603196380.8413544,rc,0.0,0.0,0.0,0.0,0.0,-10000.0
,,121941.09131,0.2441563606262207,22517,1603197162.201577,/world,vicon/testobj/testobj,-0.012461124134225609,-0.20840031477324428,1.3960634523387343,0.0058200301866494905,-0.0077380811911002476,0.008556840404449931,0.9999165114300289,1766003.0,0.03,0.15,-1.0,-0.12,-0.06,-0.06,-55.36,0.15,-52.81,1768930.0,0.13,0.12,1.0,0.06,-0.12,0.06,-6.15,36.01,16.65,25757,1603196381.770973,body_FLU,-0.026290116886370868,0.005073868272635384,-0.5955125834548569,0.8028996503684475,0.0004507143166847527,0.01080266386270523,-0.0019583823159337044,0.10153597491234541,-0.3903484832122922,9.731835986495017,2698,1603196380.8413544,rc,0.0,0.0,0.0,0.0,0.0,-10000.0
,,121941.114721,0.26756906509399414,22519,1603197162.2215676,/world,vicon/testobj/testobj,-0.012557581097006625,-0.20850785360156915,1.3961602252595662,0.005898496995628874,-0.00816268554819847,0.008602455173805928,0.999912284184376,1766013.0,0.03,0.15,-0.99,-0.12,-0.06,0.0,-54.76,0.3,-52.21,1768939.0,0.15,0.12,1.0,0.0,0.0,-0.06,-6.6,33.16,17.1,25759,1603196381.1103804,body_FLU,-0.026294186559168375,0.005061248408588289,-0.5955159170449781,0.8028971242094576,0.0007735882536508143,0.006120438687503338,0.005595888011157513,0.11717287636734545,-0.34496073120832443,9.845608376026155,2698,1603196380.8413544,rc,0.0,0.0,0.0,0.0,0.0,-10000.0
,,121941.1377,0.2905466556549072,22521,1603197162.2416356,/world,vicon/testobj/testobj,-0.012552275490251973,-0.2084920599459884,1.3961485813197716,0.0059282809674759355,-0.008115243627426447,0.008578490862944411,0.9999127000894391,1766024.0,0.03,0.15,-1.0,-0.12,-0.06,-0.06,-56.26,0.6,-53.71,1768948.0,0.15,0.12,1.0,0.0,0.0,0.0,-6.6,34.21,15.6,25761,1603196381.1297548,body_FLU,-0.02630894220002363,0.005047852631887938,-0.5955216846780316,0.8028924472321071,-0.0037544218357652426,0.007352099753916264,-0.0016212339978665113,0.16140509194135666,-0.42515678867697715,9.931900697350502,2698,1603196380.8413544,rc,0.0,0.0,0.0,0.0,0.0,-10000.0
,,121941.159891,0.3127405643463135,22523,1603197162.2616937,/world,vicon/testobj/testobj,-0.012513470534497573,-0.20844660810849983,1.396141174149117,0.00604285230255105,-0.008038728242984938,0.008612365059847804,0.9999123411341421,1766034.0,0.04,0.15,-0.98,-0.06,-0.18,0.06,-55.96,1.5,-53.11,1768957.0,0.14,0.12,0.99,0.0,0.06,-0.06,-6.6,34.21,15.6,25762,1603196381.1574795,body_FLU,-0.026310036483560333,0.005023759082638545,-0.5955195618791191,0.8028941370094912,0.0015808453317731619,0.005260446574538946,-0.0030798385851085186,0.08393302580807357,-0.579260442852974,9.77295619314909,2698,1603196380.8413544,rc,0.0,0.0,0.0,0.0,0.0,-10000.0
,,121941.184782,0.3376297950744629,22526,1603197162.291699,/world,vicon/testobj/testobj,-0.012540006882946214,-0.20848582913508187,1.3961633103366482,0.00588628721510287,-0.008137386050970002,0.0085686452652093,0.9999128526473684,1766043.0,0.03,0.14,-0.99,-0.06,-0.12,-0.06,-56.56,0.6,-53.26,1768966.0,0.14,0.12,0.99,0.0,-0.12,-0.06,-6.6,35.26,17.7,25763,1603196381.1769574,body_FLU,-0.02631412239161841,0.005006830062301436,-0.5955195413854235,0.8028941240559562,-0.0011403962271288037,0.005155685357749462,0.0025330116041004658,0.09349111593794078,-0.543191684961319,9.706919322609902,2698,1603196380.8413544,rc,0.0,0.0,0.0,0.0,0.0,-10000.0
,,121941.21278,0.36564087867736816,22529,1603197162.3215647,/world,vicon/testobj/testobj,-0.01254609147908404,-0.20848837599267916,1.3961519460295777,0.005932295491026405,-0.008114284000074613,0.008575023135927244,0.9999127138123565,1766053.0,0.04,0.15,-1.0,-0.18,-0.12,-0.06,-55.96,0.75,-53.41,1768975.0,0.14,0.13,0.99,-0.06,-0.06,0.12,-7.05,36.16,171789490.0,25764,1603196381.2074378,body_FLU,-0.026326759388895116,0.0049799816128903406,-0.5955140901456476,0.8028979200130089,-0.0026764757931232452,0.005491004791110754,0.004804148338735104,0.1857454024348408,-0.5046527367867529,9.832336858391763,2698,1603196380.8413544,rc,0.0,0.0,0.0,0.0,0.0,-10000.0
,,121941.236194,0.3890402317047119,22531,1603197162.3416584,/world,vicon/testobj/testobj,-0.012554547446965434,-0.20848700741201273,1.3961608956423004,0.005967700431232521,-0.008097387980423277,0.008538427210921842,0.9999129532715442,1766063.0,0.05,0.15,-1.0,0.0,-0.06,0.06,-56.26,0.3,-52.21,1789500.0,0.14,0.12,0.99,-0.06,-0.12,-0.06,-6.45,34.81,18.15,25765,1603196381.2295988,body_FLU,-0.026336621311555664,0.004971462100410029,-0.5955151585911914,0.802896856906654,0.00197486556135118,0.008805681020021439,-0.00047984166303649545,0.29860365178249776,-0.5223753069229424,9.93006635606289,2699,1603196381.2213442,rc,0.0,0.0,0.0,0.0,0.0,-10000.0
,,121941.258635,0.4114844799041748,22533,1603197162.3618715,/world,vicon/testobj/testobj,-0.012552328624057198,-0.20850623197608537,1.3961707839869162,0.005895679166564336,-0.008253793948917381,0.008576182109050257,0.999911778585014,1766073.0,0.04,0.16,-0.99,-0.06,-0.18,-0.06,-55.66,-0.6,-53.11,1789510.0,0.14,0.12,1.0,0.0,0.06,0.06,-6.45,35.11,16.2,25766,1603196381.2573602,body_FLU,-0.026347381612621252,0.0049590442400258075,-0.5955204855459556,0.802892629594701,-0.00429641455411911,0.0075413743034005165,-0.0005331158172339201,0.22539150920882822,-0.4154039640873671,9.843245931386948,2699,1603196381.2213442,rc,0.0,0.0,0.0,0.0,0.0,-10000.0
,,121941.281817,0.43466711044311523,22536,1603197162.3918478,/world,vicon/testobj/testobj,-0.012552900864281897,-0.20849538355011502,1.3961789028040046,0.005820001601327249,-0.008263353143017531,0.008555634599652558,0.9999123190024171,1766083.0,0.04,0.15,-1.0,0.0,0.06,0.0,-56.26,-0.45,-53.26,1789520.0,0.14,0.13,1.0,-0.06,-0.06,0.0,-5.4,35.41,17.85,25767,1603196381.2767513,body_FLU,-0.026344764229964977,0.004943223840594543,-0.5955133720652074,0.8028980891914335,0.004905093461275101,0.003035192843526602,0.0026536276564002037,0.2880563901923597,-0.40278834030032157,9.882688942551614,2699,1603196381.2213442,rc,0.0,0.0,0.0,0.0,0.0,-10000.0
,,121941.305231,0.4580872058868408,22538,1603197162.4119327,/world,vicon/testobj/testobj,-0.012487810386884889,-0.2084504521809221,1.3960727294406767,0.0057065005809304814,-0.00785061207829054,0.008500366197043308,0.9999167702942241,1766093.0,0.05,0.15,-0.99,-0.06,-0.06,-0.06,-56.41,0.15,-53.11,1789530.0,0.14,0.13,0.99,0.0,-0.06,0.0,-5.7,35.11,16.8,25769,1603196381.2961702,body_FLU,-0.026349380367866753,0.004951891554339091,-0.5955239029259467,0.8028900734023999,-0.003063952550292015,0.00833156518638134,-0.0009737682994455099,0.3538746294490993,-0.5177979608997703,9.925030680298805,2699,1603196381.2213442,rc,0.0,0.0,0.0,0.0,0.0,-10000.0
,,121941.328967,0.48181629180908203,22540,1603197162.4315858,/world,vicon/testobj/testobj,-0.012498474134014982,-0.20844472221883198,1.3960754722694135,0.0056834258727625,-0.007869173801607001,0.008480303896430617,0.9999169261592951,1766103.0,0.04,0.15,-0.99,0.0,0.0,0.0,-55.51,1.05,-53.71,1789541.0,0.14,0.12,1.0,-0.12,-0.06,-0.06,-5.85,34.96,17.7,25771,1603196381.315641,body_FLU,-0.026355945984619773,0.004937317169898108,-0.5955183651911089,0.802894055109719,0.0032303694169968367,0.008129805326461792,0.0002645506174303591,0.30335355148650706,-0.3526086637750268,9.876948739528656,2699,1603196381.2213442,rc,0.0,0.0,0.0,0.0,0.0,-10000.0
,,121941.352364,0.5052096843719482,22543,1603197162.461801,/world,vicon/testobj/testobj,-0.012488066815245348,-0.20844601616894892,1.396079377468056,0.005633903107684963,-0.007889868285110404,0.00851583712180673,0.9999167413501644,1766114.0,0.04,0.15,-0.99,0.0,-0.12,0.06,-55.06,0.3,-52.96,1789550.0,0.13,0.13,1.01,0.0,0.0,-0.06,-6.15,34.96,16.35,25772,1603196381.3294954,body_FLU,-0.026363946532489975,0.004935846619792639,-0.595523241233689,0.8028901848272274,-0.0037119025364518166,0.0068475366570055485,0.002044057473540306,0.31910331020504235,-0.3534731847345829,9.921427426457406,2699,1603196381.2213442,rc,0.0,0.0,0.0,0.0,0.0,-10000.0
,,121941.375837,0.5286886692047119,22545,1603197162.4818358,/world,vicon/testobj/testobj,-0.012452207226812714,-0.2083986966560638,1.3960633026620408,0.00576879126430069,-0.007823359361120772,0.008542539082581667,0.9999162670552361,1766123.0,0.04,0.15,-0.99,-0.06,-0.12,-0.06,-55.36,-0.9,-53.11,1789560.0,0.13,0.12,1.0,0.0,-0.12,-0.12,-6.6,35.26,16.65,25773,1603196381.3572047,body_FLU,-0.026370306113514305,0.004926701372888454,-0.595518311045427,0.8028936889642762,0.003876439295709133,0.008440021425485611,0.0027587064541876316,0.05543759821727872,-0.4703838897719979,9.950152977347374,2699,1603196381.2213442,rc,0.0,0.0,0.0,0.0,0.0,-10000.0
,,121941.401624,0.5544822216033936,22548,1603197162.5118258,/world,vicon/testobj/testobj,-0.012544144674871452,-0.2084956139635916,1.3961606116015688,0.005963719121602412,-0.00808793656783856,0.008597553418310075,0.9999125468817424,1766133.0,0.04,0.15,-1.0,-0.06,-0.06,0.06,-55.06,-1.5,-52.21,1789605.0,0.14,0.12,1.0,0.0,0.0,0.06,-4.5,35.56,16.65,25776,1603196381.396004,body_FLU,-0.02638800653539791,0.00490481902190496,-0.5955161964511729,0.8028948098137004,0.002027862938120961,0.005035317502915859,0.001987344352528453,0.2987673148959875,-0.39429538395255803,9.857281563162804,2699,1603196381.2213442,rc,0.0,0.0,0.0,0.0,0.0,-10000.0
,,121941.425734,0.5785832405090332,22550,1603197162.531757,/world,vicon/testobj/testobj,-0.01256757908213201,-0.20850729162323733,1.3961736736463348,0.005878823337885241,-0.008115445938512012,0.008604403000771515,0.9999127678064629,1766143.0,0.03,0.14,-1.0,0.0,-0.06,-0.06,-55.36,0.45,-51.76,1789613.0,0.14,0.13,1.0,0.0,-0.06,0.06,-4.5,35.56,16.65,25778,1603196381.415469,body_FLU,-0.026375807400285462,0.0048958593540768,-0.5955113078238073,0.8028988912678524,0.00013632455375045538,0.006480766460299492,0.003934645093977451,0.2484110684171319,-0.452060704305768,9.81327022433281,2699,1603196381.2213442,rc,0.0,0.0,0.0,0.0,0.0,-10000.0
,,121941.447542,0.6004204750061035,22552,1603197162.551679,/world,vicon/testobj/testobj,-0.012557127008589589,-0.2084943137229272,1.3961684452825094,0.005926335760172001,-0.008145829943323845,0.008573930068236655,0.9999125020331415,1766153.0,0.03,0.15,-0.99,0.0,0.0,0.0,-55.36,0.45,-51.76,1789622.0,0.14,0.12,1.01,-0.06,-0.12,0.0,-6.75,35.41,16.8,25779,1603196381.4293272,body_FLU,-0.026377937782415296,0.004894822925555203,-0.595519520044116,0.8028927365179612,0.00023144777514971793,0.003357403911650181,0.001051449915394187,0.1513295963499695,-0.5143567819185555,9.721863362252712,2699,1603196381.2213442,rc,0.0,0.0,0.0,0.0,0.0,-10000.0
,,121941.469491,0.6223368644714355,22554,1603197162.5717409,/world,vicon/testobj/testobj,-0.012549766230557279,-0.20849506203992377,1.3961471747720091,0.006017042775443441,-0.008037072697228526,0.008565397114061821,0.999912913523461,1766163.0,0.04,0.15,-0.99,0.06,0.06,0.0,-55.51,1.05,-52.96,1789630.0,0.14,0.13,1.0,0.12,0.0,-0.06,-5.7,34.81,15.9,25780,1603196381.4570386,body_FLU,-0.026370607285904162,0.004886051190867956,-0.5955207518052916,0.8028921171268235,-0.0004251757636666298,0.006503015290945768,0.0011078424286097288,0.18136945423297585,-0.506256726577878,9.875510475754737,2699,1603196381.2213442,rc,0.0,0.0,0.0,0.0,0.0,-10000.0
,,121941.49337,0.6462163925170898,22557,1603197162.6016722,/world,vicon/testobj/testobj,-0.01249965092696402,-0.20844938574227678,1.3960680764289894,0.005705387325250932,-0.00784216569631159,0.008524751167053068,0.9999166353302661,1766173.0,0.05,0.14,-1.0,-0.12,-0.18,-0.06,-55.81,0.0,-51.91,1789639.0,0.14,0.12,1.01,-0.06,-0.06,0.0,-4.95,34.81,17.25,25782,1603196381.4875388,body_FLU,-0.026365698111504382,0.0048795700177623235,-0.5955377679879009,0.8028796962556246,0.0008327584946528077,0.006058993749320507,-0.0038618305698037148,0.15579669568687676,-0.3838558862619102,9.823052988409996,2699,1603196381.2213442,rc,0.0,0.0,0.0,0.0,0.0,-10000.0
,,121941.51636,0.6692094802856445,22559,1603197162.6216283,/world,vicon/testobj/testobj,-0.012547968502093618,-0.20848817218519955,1.396169676689582,0.005876100548644192,-0.008188278244369962,0.008580490320907729,0.999912395526522,1766183.0,0.04,0.15,-0.99,-0.12,-0.06,0.0,-56.86,0.6,-52.66,1789647.0,0.14,0.12,0.99,0.0,0.0,-0.06,-6.0,34.81,17.85,25784,1603196381.5097642,body_FLU,-0.02636858774523449,0.004874690435949624,-0.5955353413415283,0.8028814309639406,-0.0016173655167222023,0.009459346532821655,0.0020237702410668135,0.22690334379673005,-0.36138487688452003,9.793923181414604,2699,1603196381.2213442,rc,0.0,0.0,0.0,0.0,0.0,-10000.0
,,121941.539226,0.6920723915100098,22561,1603197162.6418839,/world,vicon/testobj/testobj,-0.012557648495082712,-0.2084979400296507,1.3961725133830716,0.0059712512656909435,-0.008077331055506079,0.008577857768210335,0.9999127568130383,1766193.0,0.05,0.14,-0.99,-0.06,-0.12,0.0,-56.86,1.05,-51.31,1789656.0,0.15,0.11,0.99,0.12,-0.06,-0.12,-6.0,33.31,16.5,25785,1603196381.5291567,body_FLU,-0.026360843805849517,0.004857882626823843,-0.595549224277704,0.8028714893134845,0.0024589526001363993,0.002262069610878825,-0.00372896296903491,0.42570011735334995,-0.4457107580602169,9.816612931609153,2699,1603196381.2213442,rc,0.0,0.0,0.0,0.0,0.0,-10000.0
,,121941.563927,0.716782808303833,22564,1603197162.6716847,/world,vicon/testobj/testobj,-0.012555086747696058,-0.20849448871739218,1.3961609603710674,0.005931807859294041,-0.008087895551619106,0.008587388149048417,0.999912824383128,1766204.0,0.04,0.15,-1.0,0.06,-0.06,0.0,-55.66,0.45,-52.06,1789665.0,0.14,0.13,1.0,-0.06,-0.12,0.0,-6.15,34.96,17.1,25786,1603196381.5568933,body_FLU,-0.026360590309361703,0.0048525675220546976,-0.5955653991056082,0.8028595314593725,6.652408046647906e-05,0.003670161124318838,-0.0036276495084166527,0.2683900170810521,-0.46062295961380006,9.697377242803574,2700,1603196381.5430958,rc,0.0,0.0,0.0,0.0,0.0,-10000.0
,,121941.586368,0.7392160892486572,22566,1603197162.691722,/world,vicon/testobj/testobj,-0.012557976231249279,-0.20849930272476228,1.3961668342571152,0.0059587018037329945,-0.008088276204322679,0.008587759868349783,0.9999126582063557,1766213.0,0.04,0.15,-0.99,0.0,0.06,0.06,-55.81,0.6,-52.66,1789673.0,0.14,0.12,0.98,-0.06,-0.12,0.0,-6.15,34.96,17.1,25786,1603196381.5568933,body_FLU,-0.026360590309361703,0.0048525675220546976,-0.5955653991056082,0.8028595314593725,6.652408046647906e-05,0.003670161124318838,-0.0036276495084166527,0.2683900170810521,-0.46062295961380006,9.697377242803574,2700,1603196381.5430958,rc,0.0,0.0,0.0,0.0,0.0,-10000.0
,,121941.609119,0.7619686126708984,22568,1603197162.7119417,/world,vicon/testobj/testobj,-0.0125469467612959,-0.20849472404132496,1.396169036232629,0.006015568892084785,-0.008082040276650767,0.00857924902274236,0.9999124411877657,1766224.0,0.05,0.15,-0.99,0.0,0.0,0.0,-55.66,0.75,-53.86,1789682.0,0.13,0.12,1.0,-0.06,-0.12,-0.06,-5.7,34.81,16.8,25787,1603196381.5874767,body_FLU,-0.02634302368547179,0.00484634416466012,-0.5955570192175527,0.8028663618012951,0.0008697677403688431,0.005625609308481216,0.004150825086981058,0.25135740608721974,-0.4657226766720414,9.772098609387875,2701,1603196381.601234,rc,0.0,0.0,0.0,0.0,0.0,-10000.0
,,121941.633612,0.7864713668823242,22571,1603197162.7417557,/world,vicon/testobj/testobj,-0.012548722068237646,-0.20849704385643075,1.3961571193307982,0.005908002944952407,-0.008130730905121565,0.008598439534906679,0.9999125229507407,1766233.0,0.04,0.15,-0.99,0.06,-0.06,0.0,-55.81,0.3,-52.66,1789691.0,0.14,0.13,1.0,-0.06,-0.06,0.0,-6.15,34.96,18.45,25789,1603196381.629001,body_FLU,-0.02635743914446957,0.004845087109584585,-0.5955618791789202,0.802862291181694,-0.0009322225232608616,0.0037816737312823534,0.0009990703547373414,0.3763505678884685,-0.4898249864950776,9.777844070076943,2701,1603196381.601234,rc,0.0,0.0,0.0,0.0,0.0,-10000.0
,,121941.658107,0.8109526634216309,22573,1603197162.76172,/world,vicon/testobj/testobj,-0.012505527398082835,-0.20845112543108335,1.396146082444744,0.006060962142183969,-0.007993854132006081,0.008613375667212009,0.9999125825759183,1766243.0,0.04,0.14,-0.98,-0.06,-0.06,0.0,-54.01,0.0,-53.71,1789699.0,0.15,0.13,1.0,-0.06,-0.12,-0.12,-6.0,36.91,17.25,25790,1603196381.6566942,body_FLU,-0.026350221258783956,0.004843465487186089,-0.5955671334627798,0.8028586402478428,-0.0005574977258220315,0.003659490030258894,0.0035140763502568007,0.2662808897159994,-0.44960654260218147,9.860562346816064,2702,1603196381.6428986,rc,0.0,0.0,0.0,0.0,0.0,-10000.0
,,121941.681392,0.834242582321167,22576,1603197162.7919576,/world,vicon/testobj/testobj,-0.01255301003303558,-0.20849365236401468,1.3961545152922814,0.005944626127103773,-0.008104673872854583,0.008579303640082499,0.9999126818031037,1766253.0,0.04,0.16,-1.0,-0.06,-0.06,-0.18,-55.51,0.0,-52.66,1789708.0,0.14,0.13,0.99,0.0,-0.12,0.06,-6.0,35.41,17.55,25791,1603196381.6761453,body_FLU,-0.026358437613905723,0.004863958676349397,-0.5955780636956844,0.8028501383926192,-0.002831963822245598,0.008115955628454685,-0.001535826362669468,0.266809102602303,-0.5121755442023277,9.820650819182395,2702,1603196381.6428986,rc,0.0,0.0,0.0,0.0,0.0,-10000.0
,,121941.704791,0.8576409816741943,22578,1603197162.8119175,/world,vicon/testobj/testobj,-0.01252940781311028,-0.20846059321440252,1.396155487187981,0.006111459862076995,-0.007989329809916072,0.008601239444508522,0.9999124158382877,1766264.0,0.04,0.15,-1.0,-0.06,-0.06,-0.12,-54.91,0.45,-51.76,1789717.0,0.13,0.13,1.0,-0.06,-0.12,0.0,-6.15,34.96,17.1,25793,1603196381.6955547,body_FLU,-0.0263541506442281,0.004864006657114809,-0.5955686008807192,0.8028572985456652,-0.001106910640373826,0.00829479843378067,0.004268340300768614,0.32163078714162113,-0.5117645699679851,9.957070897579193,2702,1603196381.6428986,rc,0.0,0.0,0.0,0.0,0.0,-10000.0
,,121941.727668,0.8805208206176758,22580,1603197162.8318152,/world,vicon/testobj/testobj,-0.012558561819501771,-0.20849260546930123,1.396165698643264,0.0059092806609412005,-0.008077599564113089,0.008601378564092156,0.9999129207456763,1766274.0,0.03,0.15,-1.0,-0.06,-0.06,-0.12,-55.66,0.45,-53.86,1789725.0,0.13,0.12,0.99,-0.06,-0.06,-0.06,-7.65,34.21,17.1,25794,1603196381.7094293,body_FLU,-0.02635646827363718,0.004865322589528494,-0.5955691052295026,0.8028568403597058,-0.002062881365418434,0.002881765365600586,0.0007857658201828599,0.23777864358946682,-0.4902085770517588,9.881248342037201,2702,1603196381.6428986,rc,0.0,0.0,0.0,0.0,0.0,-10000.0
,,121941.753646,0.9065120220184326,22583,1603197162.8618436,/world,vicon/testobj/testobj,-0.012558382173368814,-0.20851090995938015,1.396145520616124,0.005896578915141392,-0.008091502350250487,0.008584500148151767,0.9999130283699776,1766284.0,0.04,0.14,-0.99,-0.06,-0.12,0.0,-55.06,0.6,-52.66,1789769.0,0.14,0.13,1.0,0.12,0.0,0.0,-5.55,34.96,17.1,25795,1603196381.7288494,body_FLU,-0.026365007519191117,0.004874899246371625,-0.5955728162193403,0.8028537490205889,0.00224390160292387,0.008800973184406757,-0.00047506525879725814,0.22419484249502422,-0.4225319718942046,9.818837508559227,2703,1603196381.7427258,rc,0.0,0.0,0.0,0.0,0.0,-10000.0
,,121941.777428,0.9302752017974854,22585,1603197162.881817,/world,vicon/testobj/testobj,-0.012520727642357163,-0.20844320341605588,1.3961377274084037,0.00613975871681587,-0.007916385252692108,0.00860057838889536,0.9999128283299533,1766293.0,0.05,0.15,-0.98,0.12,0.0,0.0,-56.71,0.75,-51.76,1789778.0,0.14,0.12,1.0,-0.06,-0.06,0.0,-5.85,33.91,18.0,25797,1603196381.7649271,body_FLU,-0.02635034979719839,0.0048818382374376645,-0.595570360459434,0.8028560097945389,-0.00026742456248030066,0.010218745097517967,0.0011067385785281658,0.14468305749166757,-0.519452957354486,9.812253742218017,2703,1603196381.7427258,rc,0.0,0.0,0.0,0.0,0.0,-10000.0
,,121941.80264,0.9554872512817383,22588,1603197162.9116135,/world,vicon/testobj/testobj,-0.0125271780004336,-0.20844945886349536,1.3961384265024117,0.00606672453272993,-0.007989989087592256,0.008626895929138394,0.9999124619657722,1766304.0,0.04,0.15,-1.0,-0.06,-0.12,-0.12,-55.81,0.3,-53.71,1789786.0,0.14,0.13,1.0,-0.12,-0.06,0.06,-6.0,33.31,16.8,25799,1603196381.7870533,body_FLU,-0.02634158881391535,0.0048642935928448275,-0.5955721037956454,0.8028551105442563,-0.0021902313455939293,0.006346364505589008,-0.002770183840766549,0.3002614961396903,-0.49250825830176476,9.882095410466194,2704,1603196381.800941,rc,0.0,0.0,0.0,0.0,0.0,-10000.0
,,121941.826079,0.9789285659790039,22590,1603197162.9320726,/world,vicon/testobj/testobj,-0.012549096288288158,-0.2084940451612668,1.3961652787961856,0.0059468013877009476,-0.00815494474305155,0.008567559623963026,0.9999123608354799,1766314.0,0.04,0.16,-0.99,-0.06,-0.06,0.0,-55.81,0.3,-53.71,1789795.0,0.13,0.12,1.01,-0.06,-0.12,-0.12,-5.7,36.91,17.25,25800,1603196381.8092701,body_FLU,-0.026344023556990476,0.004874055510401464,-0.5955640957292643,0.8028609119168112,-0.0010840087197721004,0.0032070185989141464,0.005721613764762878,0.4111042155325413,-0.3913521132543683,9.729610241174697,2705,1603196381.8231552,rc,0.0,0.0,0.0,0.0,0.0,-10000.0
,,121941.848767,1.0016188621520996,22592,1603197162.9517379,/world,vicon/testobj/testobj,-0.012553466311775233,-0.20849755849175727,1.3961531340425137,0.005831848895033156,-0.008189570740574987,0.008561952157261535,0.9999128029207384,1766323.0,0.03,0.14,-1.0,-0.06,-0.12,-0.06,-55.51,-0.75,-52.96,1789804.0,0.14,0.13,0.99,0.06,-0.12,0.06,-5.7,36.91,17.25,25801,1603196381.8369813,body_FLU,-0.026333934451226094,0.004873847079592364,-0.595556317542979,0.8028670139852613,-0.0027668944094330072,0.004044165834784508,0.004394542425870895,0.17578937270119788,-0.5077275221608579,9.84533147227764,2705,1603196381.8231552,rc,0.0,0.0,0.0,0.0,0.0,-10000.0
,,121941.873125,1.025975227355957,22595,1603197162.9819279,/world,vicon/testobj/testobj,-0.012501620572513,-0.2084498941560566,1.3960705788042762,0.00568723246951963,-0.00787728566185497,0.008507860056288312,0.9999166065601179,1766333.0,0.04,0.15,-0.98,0.06,0.0,0.06,-55.96,0.15,-52.51,1789813.0,0.15,0.13,1.0,0.0,-0.12,0.0,-7.05,36.16,15.9,25803,1603196381.864765,body_FLU,-0.026309645806401105,0.004862640224422933,-0.5955600297587994,0.8028651245516196,0.001027396647259593,0.008823784999549389,0.002735681366175413,0.18524148799851536,-0.5579337425976991,9.893471831560134,2705,1603196381.8231552,rc,0.0,0.0,0.0,0.0,0.0,-10000.0
,,121941.896919,1.0497617721557617,22597,1603197163.1737006,/world,vicon/testobj/testobj,-0.012501795837251547,-0.20843580288459715,1.396062238020771,0.005640999357392058,-0.007928441397205353,0.008530787908976828,0.9999162687949992,1766343.0,0.03,0.14,-1.0,-0.12,-0.06,0.06,-55.51,1.65,-51.91,1789821.0,0.15,0.12,0.99,0.06,0.0,0.12,-5.85,34.21,17.1,25805,1603196381.884153,body_FLU,-0.02631767136807857,0.00486037283378218,-0.5955727237896439,0.802855458739282,-0.0010941437212750316,0.006577571388334036,-0.0015540883177891374,0.33109469567611816,-0.47024602208286526,9.922183362007141,2705,1603196381.8231552,rc,0.0,0.0,0.0,0.0,0.0,-10000.0
,,121941.921419,1.0742690563201904,22600,1603197163.3207016,/world,vicon/testobj/testobj,-0.012505553061741163,-0.20843961696387597,1.3960726997603665,0.005609857781838722,-0.007955400669946766,0.008505933907127214,0.9999164416011048,1766354.0,0.04,0.15,-0.99,-0.06,-0.06,0.0,-56.41,0.15,-52.81,1789830.0,0.15,0.13,0.99,-0.06,-0.12,0.0,-6.9,36.01,17.7,25808,1603196381.917417,body_FLU,-0.026308427813855007,0.004843545369851842,-0.595565313981011,0.8028613600597013,-0.001298612100072205,0.004142119083553553,0.0038956627249717712,0.2561599554754794,-0.3909731596671045,9.77543138551712,2705,1603196381.8231552,rc,0.0,0.0,0.0,0.0,0.0,-10000.0
,,121941.945229,1.0980770587921143,22602,1603197163.5175273,/world,vicon/testobj/testobj,-0.012458704194830012,-0.20839847128286382,1.396063113136042,0.005790889258758295,-0.007810975173971975,0.00857606929128455,0.9999159491196925,1766363.0,0.05,0.15,-0.99,0.0,0.0,-0.06,-53.86,-0.3,-52.51,1789838.0,0.14,0.12,1.0,0.06,0.0,0.06,-6.15,35.26,17.1,25810,1603196381.9396143,body_FLU,-0.026296745067240865,0.004847115724500492,-0.5955724242536526,0.8028564467802753,0.005374685861170292,0.0032847921829670668,-0.0021964716725051403,0.27539698903262616,-0.4253122914545238,9.753704956591129,2705,1603196381.8231552,rc,0.0,0.0,0.0,0.0,0.0,-10000.0
,,121941.967486,1.1204001903533936,22604,1603197163.7175176,/world,vicon/testobj/testobj,-0.012555952862114712,-0.20850330827276695,1.3961480729219558,0.005953729069900409,-0.008088998498695021,0.008566726488288537,0.9999128624088827,1766374.0,0.03,0.15,-0.99,0.0,0.0,0.0,-55.96,1.5,-53.41,1789847.0,0.15,0.13,0.99,0.0,0.0,0.12,-7.05,35.86,16.8,25812,1603196381.956268,body_FLU,-0.026288138375446538,0.0048577784289973785,-0.5955711646659011,0.8028575985739875,0.0008172272937372327,0.008916618302464485,-0.0006761252880096436,0.2055186266563833,-0.4368937980383635,9.828234710454941,2705,1603196381.8231552,rc,0.0,0.0,0.0,0.0,0.0,-10000.0
,,121941.992361,1.1452457904815674,22607,1603197163.101793,/world,vicon/testobj/testobj,-0.012547001427415477,-0.20849084719559222,1.3961723586507757,0.005868569620347682,-0.008197120888152113,0.008568798559157419,0.9999124675645408,1766383.0,0.04,0.16,-0.99,-0.18,-0.06,0.0,-54.91,0.75,-52.51,1789855.0,0.14,0.12,1.0,-0.12,-0.12,-0.06,-6.15,35.26,16.65,25815,1603196381.989489,body_FLU,-0.026270605887161746,0.004848946141113825,-0.5955662470898286,0.8028618737460256,0.0012725082924589515,0.009391048923134804,0.0015356317162513733,0.19053959067352116,-0.45378112949430943,9.846516199707985,2705,1603196381.8231552,rc,0.0,0.0,0.0,0.0,0.0,-10000.0
,,121942.016931,1.1698203086853027,22609,1603197163.1219823,/world,vicon/testobj/testobj,-0.012556665408960319,-0.20849168429114903,1.3961637390870685,0.005942650471515288,-0.00813759254491998,0.008565145543148384,0.9999125475634212,1766394.0,0.05,0.15,-1.0,-0.06,-0.18,0.12,-54.91,0.15,-52.06,1789864.0,0.15,0.13,1.0,0.0,0.0,-0.06,-6.15,35.26,16.65,25816,1603196382.8914843,body_FLU,-0.026281674690658195,0.004842143131452357,-0.5955655847578123,0.8028620438639716,-0.0004367858055047691,0.007705525495111942,-0.003209333401173353,0.27885395926795903,-0.36647674395516516,9.875627312779427,2705,1603196381.8231552,rc,0.0,0.0,0.0,0.0,0.0,-10000.0
,,121942.04273,1.1956193447113037,22612,1603197163.1520224,/world,vicon/testobj/testobj,-0.012556196232879855,-0.2084953515674847,1.3961615936259562,0.005911054678319159,-0.008161695473687796,0.008590600209597144,0.9999123200299233,1766403.0,0.04,0.15,-0.99,0.0,0.0,-0.06,-54.76,0.3,-52.21,1789873.0,0.14,0.12,0.99,0.06,-0.12,-0.06,-5.4,35.11,17.25,25817,1603196382.3668897,body_FLU,-0.026282001001392767,0.004827693530540136,-0.5955690843014445,0.8028595242150875,0.0011255113640800118,0.004059494938701391,-0.0028417441062629223,0.19812419392168523,-0.4636952256895602,9.876172941684723,2705,1603196381.8231552,rc,0.0,0.0,0.0,0.0,0.0,-10000.0
,,121942.066315,1.2191627025604248,22614,1603197163.1720173,/world,vicon/testobj/testobj,-0.012567321862637565,-0.2085015411477212,1.3961516775282052,0.005900304280542922,-0.008172265062490773,0.008593903840344735,0.999912268806583,1766413.0,0.05,0.15,-0.98,-0.06,-0.06,0.06,-55.66,-0.9,-52.81,1789881.0,0.14,0.13,1.0,0.0,0.06,-0.06,-6.6,34.96,17.1,25819,1603196382.6442714,body_FLU,-0.026301432563798466,0.004835778461065301,-0.5955691028851932,0.802858825435888,0.0015649826964363456,0.004650004208087921,-0.002502244198694825,0.2405965700671077,-0.37088526047766207,9.749412364304066,2705,1603196381.8231552,rc,0.0,0.0,0.0,0.0,0.0,-10000.0
,,121942.089417,1.2422645092010498,22616,1603197163.1918838,/world,vicon/testobj/testobj,-0.012491186122545008,-0.20844435665778957,1.3960676266988943,0.005644835695837001,-0.007896804709946479,0.008514312777990234,0.9999166379170108,1766423.0,0.04,0.15,-0.99,0.0,0.0,-0.18,-54.91,0.45,-52.51,1789890.0,0.13,0.12,1.0,0.06,-0.12,0.0,-6.75,34.81,17.55,25821,1603196382.8655913,body_FLU,-0.026295327311921662,0.004821165259003536,-0.595561999346838,0.8028643827329129,-0.0016766346525400877,0.005533227697014809,0.001312165753915906,0.15096466320566834,-0.3461923029832542,9.727792257070542,2705,1603196381.8231552,rc,0.0,0.0,0.0,0.0,0.0,-10000.0
,,121942.114048,1.2669003009796143,22619,1603197163.2219193,/world,vicon/testobj/testobj,-0.0125486247649204,-0.20848224692991327,1.3961532878915,0.005920677576522944,-0.008149545901503021,0.008555043957593845,0.9999126670372357,1766433.0,0.04,0.14,-1.0,0.06,-0.06,-0.06,-55.66,0.15,-53.41,1789935.0,0.14,0.12,1.0,-0.06,0.0,-0.12,-4.8,34.51,19.95,25823,1603196382.1059997,body_FLU,-0.02627922100795729,0.0048021336331709056,-0.5955549676022319,0.8028702402132543,0.005888115148991346,0.011918161064386368,-2.5379937142133713e-05,0.2645961728431285,-0.4450088596343994,9.806977382183074,2705,1603196381.8231552,rc,0.0,0.0,0.0,0.0,0.0,-10000.0
,,121942.137511,1.2903578281402588,22621,1603197163.2420127,/world,vicon/testobj/testobj,-0.012547929052160109,-0.2084863304031388,1.39615867295518,0.005890862193253443,-0.008160820675935527,0.008556912575537812,0.9999127351902715,1766443.0,0.03,0.16,-0.99,0.0,-0.06,0.0,-54.76,1.35,-53.26,1789943.0,0.13,0.11,1.0,0.0,0.0,-0.06,-4.8,34.51,17.1,25825,1603196382.1254034,body_FLU,-0.026288031974530474,0.004792677166768839,-0.5955488561000368,0.8028745416429761,-0.0028272285126149654,0.0013176396023482084,0.0009019796270877123,0.2950284205712378,-0.4146274725235999,9.868807535648346,2705,1603196381.8231552,rc,0.0,0.0,0.0,0.0,0.0,-10000.0
,,121942.161258,1.314105749130249,22624,1603197163.2718334,/world,vicon/testobj/testobj,-0.012461644665102418,-0.20839540043853375,1.396052666068224,0.005701749831621365,-0.007886894385222434,0.008537898982926239,0.9999161921015037,1766454.0,0.04,0.15,-1.0,0.0,0.0,-0.12,-56.26,0.3,-52.96,1789952.0,0.14,0.12,1.0,0.06,0.0,0.0,-6.6,36.31,17.1,25828,1603196382.1559472,body_FLU,-0.026287296673716577,0.004776530068881157,-0.5955534277542702,0.80287127080512,-0.0022044149227440357,0.0027987186331301928,0.0007725096074864268,0.1847470300588757,-0.4643183321468532,9.82913201880455,2705,1603196381.8231552,rc,0.0,0.0,0.0,0.0,0.0,-10000.0
,,121942.184502,1.337355375289917,22626,1603197163.291866,/world,vicon/testobj/testobj,-0.012518419690172096,-0.2084404343796673,1.3961316252049243,0.006081265659193064,-0.008012307271565362,0.008598948076959163,0.9999124357823229,1766463.0,0.05,0.15,-0.98,0.0,0.06,-0.12,-55.96,1.2,-52.51,1789960.0,0.13,0.12,1.0,0.06,0.06,0.06,-6.15,36.61,17.7,25829,1603196382.169804,body_FLU,-0.026288472308330105,0.004784271582820798,-0.5955537021036615,0.8028709827112567,-0.0007578822551295161,0.009672267362475395,0.002294024685397744,0.24532894421741366,-0.4889330088347197,9.894526869893074,2705,1603196381.8231552,rc,0.0,0.0,0.0,0.0,0.0,-10000.0
,,121942.207875,1.3607256412506104,22628,1603197163.3119578,/world,vicon/testobj/testobj,-0.012528026863026719,-0.20844854030690527,1.3961403638860883,0.006031996561982396,-0.008029270822566272,0.008616175687817203,0.9999124498395101,1766474.0,0.03,0.15,-0.99,0.0,0.0,-0.06,-55.06,0.3,-52.96,1789969.0,0.14,0.11,1.0,-0.12,-0.18,0.12,-6.0,35.86,17.85,25830,1603196382.1892273,body_FLU,-0.02629288734358005,0.004755480823884516,-0.5955609486726963,0.8028656337727686,0.00385287101380527,0.0041967034339904785,-0.0005689513636752963,0.29337749515660105,-0.42234550730511544,9.767820621728898,2706,1603196382.2030764,rc,0.0,0.0,0.0,0.0,0.0,-10000.0
,,121942.233252,1.3861024379730225,22631,1603197163.342068,/world,vicon/testobj/testobj,-0.012521605165020534,-0.20844194466060603,1.3961170720743337,0.006008650475214577,-0.008052221380698199,0.008615493914089669,0.9999124117216063,1766483.0,0.04,0.15,-1.0,-0.06,-0.06,0.06,-56.56,0.3,-50.86,1789978.0,0.14,0.12,0.99,-0.12,-0.24,0.06,-6.6,34.51,16.65,25831,1603196382.2169366,body_FLU,-0.026314897508175727,0.0047495157803295225,-0.5955662762891044,0.8028609959489356,-0.0015115115093067288,0.0021098842844367027,-0.00017938071687240154,0.31783617616072296,-0.5308576018922031,9.767002178370953,2706,1603196382.2030764,rc,0.0,0.0,0.0,0.0,0.0,-10000.0
,,121942.25576,1.4086132049560547,22633,1603197163.3618784,/world,vicon/testobj/testobj,-0.012537415080707963,-0.2084792744452118,1.3961610012036467,0.005843994396117937,-0.008204107800683704,0.0085463999170598,0.9999127458899354,1766494.0,0.03,0.14,-1.0,0.06,-0.06,0.0,-55.36,1.2,-52.51,1789986.0,0.14,0.11,0.99,-0.06,-0.18,0.06,-5.1,35.56,16.05,25832,1603196382.2501924,body_FLU,-0.02630899739704262,0.004736733275058175,-0.5955477541400068,0.8028750043142688,-0.0029736156575381756,0.0021209558472037315,0.0020277430303394794,0.28791885110735893,-0.5223103163279593,9.891853638768197,2706,1603196382.2030764,rc,0.0,0.0,0.0,0.0,0.0,-10000.0
,,121942.278185,1.4310667514801025,22635,1603197163.381816,/world,vicon/testobj/testobj,-0.012559038764436052,-0.208488420726261,1.3961530079924827,0.005972294077326484,-0.008072617870020745,0.008584569903686941,0.9999127310439383,1766503.0,0.04,0.15,-1.0,0.12,-0.12,-0.06,-55.81,1.65,-53.71,1789995.0,0.13,0.13,1.0,0.12,0.0,-0.12,-6.15,34.96,17.1,25834,1603196382.2641265,body_FLU,-0.026326495723183206,0.004745516308136164,-0.5955557546902184,0.8028684442380774,-0.002992338966578245,0.005947389639914036,0.002653022762387991,0.15386056014150382,-0.4203571237027645,9.80429597246647,2706,1603196382.2030764,rc,0.0,0.0,0.0,0.0,0.0,-10000.0
,,121942.304144,1.4569995403289795,22638,1603197163.4119325,/world,vicon/testobj/testobj,-0.012528360906431104,-0.2084488295692611,1.3961434050123673,0.006122483405529985,-0.007950728124957177,0.008637129915508775,0.9999123467114779,1766513.0,0.03,0.15,-0.99,0.0,-0.06,0.0,-55.51,0.3,-53.71,1790004.0,0.14,0.12,1.0,0.0,0.0,0.0,-6.15,34.96,17.1,25837,1603196382.2973416,body_FLU,-0.026324784110410903,0.004736840211582663,-0.5955644127951372,0.8028621290721923,-0.0031521006021648645,0.007846523076295853,-0.0028686420992016792,0.3391248678714037,-0.5420786662548781,9.938561576128006,2706,1603196382.2030764,rc,0.0,0.0,0.0,0.0,0.0,-10000.0
,,121942.328926,1.4817767143249512,22640,1603197163.4321828,/world,vicon/testobj/testobj,-0.012560114081657699,-0.20848393386175343,1.3961559692815446,0.005932488608689093,-0.008084435831602814,0.008590344839005072,0.9999128229259486,1766524.0,0.04,0.15,-0.99,-0.06,-0.06,-0.12,-56.41,-0.3,-52.51,1790012.0,0.15,0.13,0.99,-0.06,-0.06,0.0,-5.7,35.11,18.15,25838,1603196382.3168037,body_FLU,-0.02632570748842242,0.0047346915833600695,-0.5955528598811873,0.8028706813106227,0.0033377264626324177,0.00562720512971282,0.003038669005036354,0.2737375746779144,-0.5015457847192883,9.890463278174401,2706,1603196382.2030764,rc,0.0,0.0,0.0,0.0,0.0,-10000.0
,,121942.353627,1.5064880847930908,22643,1603197163.4620323,/world,vicon/testobj/testobj,-0.012555261096638877,-0.20849281185425167,1.3961623498406899,0.005920194760749652,-0.008132381924392544,0.008583444055991526,0.9999125662508539,1766534.0,0.05,0.15,-1.0,-0.06,-0.06,0.0,-55.96,0.15,-52.06,1790021.0,0.15,0.11,1.01,-0.06,-0.06,0.0,-6.0,34.36,17.55,25839,1603196382.3500237,body_FLU,-0.02633121399725815,0.004731055057820268,-0.5955593029236286,0.8028657428166879,0.00024754900368861854,0.0066274432465434074,0.0005917359376326203,0.18027445398643613,-0.41897848332300786,9.75950007301569,2706,1603196382.2030764,rc,0.0,0.0,0.0,0.0,0.0,-10000.0
,,121942.376435,1.5292835235595703,22645,1603197163.48184,/world,vicon/testobj/testobj,-0.012529964569520123,-0.208491777095944,1.396159504387414,0.005890559475618804,-0.008111446446424805,0.008587269032781253,0.9999128784830055,1766543.0,0.03,0.14,-1.01,-0.12,-0.06,-0.06,-56.26,1.05,-52.66,1790029.0,0.15,0.13,1.01,0.06,-0.06,0.12,-6.0,34.81,17.25,25841,1603196382.3639164,body_FLU,-0.026318896098249504,0.004725948550059292,-0.5955644030350823,0.8028623935369856,-6.548187229782343e-06,0.004666701890528202,-0.0015846715541556478,0.29784937750920654,-0.4736427664831281,9.851527339696885,2706,1603196382.2030764,rc,0.0,0.0,0.0,0.0,0.0,-10000.0
,,121942.400144,1.5529968738555908,22647,1603197163.5018985,/world,vicon/testobj/testobj,-0.012517462109506553,-0.2084512308105369,1.3961482565884396,0.006074951177871748,-0.008024188533361619,0.008630895266890554,0.9999121036438451,1766553.0,0.04,0.15,-0.99,0.0,0.06,0.0,-55.96,0.45,-52.81,1790038.0,0.14,0.12,0.99,0.06,0.0,0.06,-6.6,36.01,16.05,25844,1603196382.3971968,body_FLU,-0.026326901474101695,0.004722763375760132,-0.5955589511090349,0.8028661940315931,0.0037646766286343336,0.006247290410101414,0.0003198400081600994,0.21587663052231074,-0.5592697374634444,9.739029642105102,2706,1603196382.2030764,rc,0.0,0.0,0.0,0.0,0.0,-10000.0
,,121942.424838,1.5776894092559814,22650,1603197163.5320196,/world,vicon/testobj/testobj,-0.012545065268243156,-0.2084940807739321,1.3961559738831164,0.005928620060532546,-0.00811759581307705,0.008580902766281812,0.9999126582907675,1766564.0,0.03,0.15,-1.0,-0.06,-0.12,0.0,-54.91,1.2,-52.06,1790047.0,0.15,0.12,0.98,-0.06,-0.18,-0.06,-6.0,34.81,16.5,25845,1603196382.416628,body_FLU,-0.02632421086334176,0.004710208074734109,-0.5955543369713329,0.802869778716917,-0.0004296220140531659,0.006997706368565559,-0.0011287847300991416,0.3269741093963385,-0.534075037971139,9.670938776671887,2706,1603196382.2030764,rc,0.0,0.0,0.0,0.0,0.0,-10000.0
,,121942.446978,1.5998244285583496,22652,1603197163.551795,/world,vicon/testobj/testobj,-0.012567524808383104,-0.20848650799513802,1.3961592220088548,0.005913173632791564,-0.008106560488076515,0.008573402469500604,0.999912903619479,1766573.0,0.04,0.16,-1.0,0.0,-0.12,0.0,-54.91,0.15,-53.41,1790055.0,0.15,0.12,0.99,-0.06,-0.24,-0.06,-6.0,36.16,17.55,25845,1603196382.416628,body_FLU,-0.02632421086334176,0.004710208074734109,-0.5955543369713329,0.802869778716917,-0.0004296220140531659,0.006997706368565559,-0.0011287847300991416,0.3269741093963385,-0.534075037971139,9.670938776671887,2706,1603196382.2030764,rc,0.0,0.0,0.0,0.0,0.0,-10000.0
,,121942.471097,1.6239426136016846,22655,1603197163.581927,/world,vicon/testobj/testobj,-0.01255318368832331,-0.20848427447435355,1.396162714528964,0.005993074177535394,-0.00809203880361119,0.008548059711299431,0.9999127625173485,1766584.0,0.03,0.15,-0.98,-0.06,-0.06,0.06,-56.26,1.05,-54.01,1790096.0,0.14,0.12,1.0,0.12,0.0,-0.06,-4.65,34.36,19.2,25848,1603196382.4638884,body_FLU,-0.02630274277029078,0.004687086730071368,-0.5955570334124519,0.8028686174547516,0.0009224772802554071,0.0007217512466013432,-0.0024814868811517954,0.05865628481749445,-0.49120085199549796,9.85075972044468,2706,1603196382.2030764,rc,0.0,0.0,0.0,0.0,0.0,-10000.0
,,121942.494941,1.6477866172790527,22657,1603197163.6019716,/world,vicon/testobj/testobj,-0.012523396923917702,-0.2084590969904522,1.3961416266625741,0.006070862019687087,-0.00803391744937822,0.00862368427150928,0.9999121125750702,1766593.0,0.04,0.15,-1.0,0.0,-0.18,0.0,-54.16,-0.3,-53.41,1790105.0,0.14,0.12,0.99,0.0,0.06,0.0,-5.4,35.41,16.5,25850,1603196382.4831648,body_FLU,-0.02628031219906647,0.004686280574077253,-0.5955501405382491,0.802874469683756,0.0018069150391966105,0.006763451267033815,0.0018311715684831142,0.16712933940812946,-0.39798433044925335,9.855878350496292,2706,1603196382.2030764,rc,0.0,0.0,0.0,0.0,0.0,-10000.0
,,121942.516407,1.6692821979522705,22659,1603197163.6220973,/world,vicon/testobj/testobj,-0.012552034233976194,-0.20848129187766992,1.3961598224456657,0.005916727713973907,-0.008129707846195698,0.008570524409603193,0.9999127193384624,1766603.0,0.04,0.15,-0.99,0.0,0.06,-0.06,-55.96,0.75,-52.81,1790113.0,0.13,0.13,0.99,0.0,0.0,0.12,-5.4,35.41,16.5,25851,1603196382.497053,body_FLU,-0.026283058523623896,0.004676041018363291,-0.5955494539023372,0.8028749488131177,-0.0023927935399115086,0.0015144568169489503,-0.00019811798119917512,0.24766986528597773,-0.3980448301211,9.803752680301667,2706,1603196382.2030764,rc,0.0,0.0,0.0,0.0,0.0,-10000.0
,,121942.540826,1.6936731338500977,22662,1603197163.6519158,/world,vicon/testobj/testobj,-0.012544408834867135,-0.20850282358213837,1.396157220619433,0.005924204625642802,-0.0081164618441262,0.008584804377226463,0.9999126601761231,1766614.0,0.04,0.14,-1.0,0.0,-0.12,0.06,-54.76,0.0,-52.66,1790122.0,0.14,0.12,1.0,-0.06,-0.12,0.06,-5.7,35.11,17.55,25854,1603196382.5358799,body_FLU,-0.026274584057887594,0.004663074455724486,-0.5955447034707413,0.8028788253137282,-0.0022311327047646046,0.005992915481328964,0.00046846119221299887,0.3383996750637889,-0.4999653448909521,9.830746706485748,2706,1603196382.2030764,rc,0.0,0.0,0.0,0.0,0.0,-10000.0
,,121942.563612,1.716496229171753,22664,1603197163.6719387,/world,vicon/testobj/testobj,-0.01249189827240634,-0.20844192573381554,1.3960740391292248,0.0057179708351110655,-0.007827324741724331,0.008504129369279714,0.9999168553337757,1766623.0,0.03,0.16,-1.01,0.0,0.0,0.0,-55.51,1.35,-53.26,1790130.0,0.13,0.13,1.0,0.0,-0.06,-0.06,-5.4,35.41,16.8,25855,1603196382.558077,body_FLU,-0.02626767229359752,0.004668568631923832,-0.5955393115038246,0.8028830190711197,-0.0016116977203637362,0.0062411571852862835,-0.00045655405847355723,0.3666324292905629,-0.45596817255020144,9.856606245160103,2706,1603196382.2030764,rc,0.0,0.0,0.0,0.0,0.0,-10000.0
,,121942.587402,1.7403028011322021,22666,1603197163.6920524,/world,vicon/testobj/testobj,-0.012492853503283064,-0.2084450631506505,1.3960663229579977,0.005754789778099507,-0.007789733495626896,0.008516787675809927,0.9999168299285507,1766633.0,0.04,0.15,-1.0,0.0,0.0,0.0,-54.76,0.6,-52.96,1790139.0,0.14,0.13,0.99,0.06,0.0,-0.06,-5.85,35.26,16.35,25857,1603196382.5774992,body_FLU,-0.026250576897888126,0.0046499732691488984,-0.5955471243055701,0.8028778908977942,-0.0019667167216539383,0.008602701127529144,-0.0002744855883065611,0.29252361731976273,-0.5255963211357594,9.932699862599373,2706,1603196382.2030764,rc,0.0,0.0,0.0,0.0,0.0,-10000.0
,,121942.612044,1.7648911476135254,22669,1603197163.7220294,/world,vicon/testobj/testobj,-0.01251331959135493,-0.2084429992374226,1.3961467939604066,0.006085882926826331,-0.008002498131597207,0.008596084849619096,0.9999125108617818,1766643.0,0.03,0.15,-0.99,0.0,0.0,-0.06,-55.66,0.75,-52.06,1790147.0,0.13,0.14,1.0,-0.06,-0.06,0.0,-6.15,34.51,16.65,25858,1603196382.5968914,body_FLU,-0.026253322872667174,0.004649950851068011,-0.5955513565326396,0.8028746619039359,-0.0014011301100254059,0.004039013758301735,-0.0022439397871494293,0.21043147749826313,-0.4541041108444333,9.908799680829048,2706,1603196382.2030764,rc,0.0,0.0,0.0,0.0,0.0,-10000.0
,,121942.637161,1.790010929107666,22671,1603197163.7421174,/world,vicon/testobj/testobj,-0.012490210392720809,-0.20844958336652927,1.3960597173726332,0.005727890892261578,-0.007841307381099628,0.008509294530265533,0.9999166450615165,1766654.0,0.04,0.15,-1.0,-0.06,-0.12,0.06,-55.36,0.45,-52.51,1790156.0,0.14,0.12,0.99,0.06,-0.06,-0.06,-5.85,34.21,17.4,25861,1603196382.635712,body_FLU,-0.02624200572065611,0.004644827247000026,-0.5955418254529802,0.8028821313566112,-0.0015428646001964808,0.006613370031118393,0.0019017697777599096,0.26992587628215553,-0.5372813380211592,9.686364769041539,2706,1603196382.2030764,rc,0.0,0.0,0.0,0.0,0.0,-10000.0
,,121942.66153,1.814375400543213,22674,1603197163.7719307,/world,vicon/testobj/testobj,-0.012550858150986994,-0.2084988832664115,1.396159213809574,0.005925835505885295,-0.00821387946595951,0.008570554444722897,0.999911977253091,1766664.0,0.04,0.15,-0.99,-0.06,-0.06,-0.12,-55.36,0.45,-52.06,1790165.0,0.14,0.12,0.99,-0.06,-0.12,0.0,-5.4,33.01,17.25,25862,1603196382.657928,body_FLU,-0.02623958110080237,0.004632208708207039,-0.5955489901787314,0.8028769689829389,0.001020792406052351,0.004206120036542416,-0.00411286111921072,0.33827794548869133,-0.4515923703946173,9.73684245300293,2706,1603196382.2030764,rc,0.0,0.0,0.0,0.0,0.0,-10000.0
,,121942.685965,1.8388144969940186,22676,1603197163.7920518,/world,vicon/testobj/testobj,-0.01255656784642716,-0.20848782963425172,1.3961634532424108,0.005971132042154627,-0.008098844275585288,0.008566258969632366,0.9999126829432659,1766674.0,0.03,0.15,-0.99,-0.06,-0.06,-0.06,-55.51,0.6,-52.66,1790173.0,0.14,0.12,1.01,-0.06,-0.18,0.12,-5.4,33.01,17.25,25864,1603196382.6773093,body_FLU,-0.02623976575162985,0.004646822398684353,-0.5955381598927274,0.8028849119559285,-0.003884875448420644,0.006819228641688824,0.002715562703087926,0.3916370130367577,-0.371223175060004,9.843214385390281,2706,1603196382.2030764,rc,0.0,0.0,0.0,0.0,0.0,-10000.0
,,121942.709393,1.8622446060180664,22678,1603197163.812153,/world,vicon/testobj/testobj,-0.012539261600989716,-0.2084846349247883,1.3961799972773585,0.00591205976435407,-0.008160180849733651,0.008552788065307917,0.9999126505921166,1766683.0,0.04,0.15,-0.98,-0.12,-0.06,0.12,-57.01,0.15,-52.81,1790182.0,0.15,0.12,1.0,0.0,-0.06,0.0,-7.5,35.41,16.5,25866,1603196382.70782,body_FLU,-0.026229067425828607,0.004644312637710855,-0.5955438751899064,0.8028810367083555,-0.001624113181605935,0.006196523085236549,0.00016726134344935417,0.09169541301950812,-0.31075950362160804,9.714922658801079,2706,1603196382.2030764,rc,0.0,0.0,0.0,0.0,0.0,-10000.0
,,121942.73503,1.8878753185272217,22681,1603197163.8420086,/world,vicon/testobj/testobj,-0.012518196479566347,-0.20845229237487858,1.3961524261705267,0.006041451818127979,-0.008054304980033254,0.008620508509016647,0.9999121540736786,1766693.0,0.04,0.15,-0.99,0.06,0.0,0.0,-54.61,-1.35,-53.41,1790190.0,0.15,0.12,1.01,0.06,0.0,-0.06,-6.75,34.36,17.55,25868,1603196382.7300174,body_FLU,-0.026248130901321366,0.0046464850469277895,-0.5955442274299448,0.8028801398563585,-0.0001902516232803464,0.009373487904667854,0.0008012132020667195,0.3382798440903425,-0.3713963494375348,9.84791473889351,2706,1603196382.2030764,rc,0.0,0.0,0.0,0.0,0.0,-10000.0
,,121942.75762,1.9104771614074707,22683,1603197163.8620481,/world,vicon/testobj/testobj,-0.012497544318491564,-0.20844125287405801,1.3960775534393706,0.005654576650881866,-0.007876460871094584,0.008516831724429016,0.9999167218845894,1766704.0,0.04,0.14,-0.99,0.0,-0.06,0.0,-55.81,1.35,-52.96,1790199.0,0.14,0.11,0.98,-0.06,-0.12,0.06,-6.75,35.86,16.5,25869,1603196382.7355967,body_FLU,-0.026232810568991852,0.004634841213825462,-0.5955510413233542,0.8028756535574126,0.0059097521007061005,0.0065964809618890285,-0.0016262187855318189,0.4041372237503529,-0.40033045441657306,9.874354957580566,2706,1603196382.2030764,rc,0.0,0.0,0.0,0.0,0.0,-10000.0
,,121942.782152,1.934995174407959,22686,1603197163.8922555,/world,vicon/testobj/testobj,-0.012545522261199244,-0.20848791063456756,1.3961741845546898,0.005871146689594587,-0.00818255361058085,0.008567197993851715,0.9999125854650962,1766713.0,0.04,0.15,-0.99,-0.06,-0.18,-0.06,-55.81,0.0,-51.61,1790208.0,0.14,0.13,0.99,0.06,0.0,-0.06,-6.75,35.11,16.5,25872,1603196382.7771292,body_FLU,-0.02623738267880411,0.0046191647657659604,-0.5955482436487491,0.8028776697317734,0.004614054225385189,0.0021818301174789667,-0.0002580064465291798,0.29061641719378534,-0.3981735699176788,9.811371622681618,2706,1603196382.2030764,rc,0.0,0.0,0.0,0.0,0.0,-10000.0
,,121942.804984,1.9578332901000977,22688,1603197163.9121559,/world,vicon/testobj/testobj,-0.012541650060750949,-0.20849531270557806,1.3961614811953396,0.005912459439298692,-0.008177668988519751,0.008594428141533831,0.9999121483201476,1766723.0,0.04,0.16,-0.98,0.06,-0.12,0.06,-56.56,1.05,-52.96,1790216.0,0.15,0.13,1.01,0.06,0.0,-0.06,-6.6,35.56,16.65,25873,1603196382.7965612,body_FLU,-0.02624763093975124,0.004623422138427992,-0.5955579855094513,0.8028700839698191,-0.004540931433439255,0.006198706571012735,-0.0008575501851737499,0.28798559425771236,-0.352768840033561,9.983320671916008,2706,1603196382.2030764,rc,0.0,0.0,0.0,0.0,0.0,-10000.0
,,121942.828036,1.98089599609375,22690,1603197163.9319968,/world,vicon/testobj/testobj,-0.012517285896433937,-0.20844489500572247,1.3961414138346986,0.006101827871568146,-0.008011480656734914,0.008593775310094092,0.9999123616098724,1766734.0,0.04,0.15,-0.99,0.0,-0.12,0.06,-55.66,0.75,-52.81,1790261.0,0.15,0.13,0.99,0.0,0.06,-0.06,-4.65,35.11,17.55,25875,1603196382.815994,body_FLU,-0.026246717982772564,0.0046166370011444385,-0.5955483983693476,0.8028772643795797,0.007206788286566734,0.00528749730437994,0.0018267581472173333,0.33425915346667173,-0.42047144142910836,9.910746185660363,2706,1603196382.2030764,rc,0.0,0.0,0.0,0.0,0.0,-10000.0
,,121942.849747,2.002593994140625,22692,1603197163.9518821,/world,vicon/testobj/testobj,-0.012552462274042735,-0.20848842575735035,1.396169004761258,0.00589011712187324,-0.008158628447995109,0.008561542501176897,0.9999127178369813,1766743.0,0.04,0.15,-1.0,0.0,-0.06,-0.06,-54.91,0.75,-52.81,1790270.0,0.14,0.12,0.99,0.0,0.0,0.0,-6.45,35.11,17.85,25876,1603196382.829857,body_FLU,-0.026244996543336556,0.004623469204631632,-0.5955426733927563,0.802881527908796,-0.0021386388689279556,0.00926496647298336,0.006567883305251598,0.305187217310071,-0.47824603572115304,9.945092765808106,2706,1603196382.2030764,rc,0.0,0.0,0.0,0.0,0.0,-10000.0
,,121942.873194,2.026042938232422,22695,1603197163.981966,/world,vicon/testobj/testobj,-0.012543349886450957,-0.20848559259418073,1.3961615913665608,0.005860431457582593,-0.008190581900443514,0.008556513655651035,0.9999126740797537,1766753.0,0.04,0.14,-1.0,-0.12,-0.12,0.0,-55.06,0.3,-52.96,1790278.0,0.14,0.12,0.99,0.06,-0.18,-0.06,-6.75,35.41,17.25,25877,1603196382.8575842,body_FLU,-0.02626362655864048,0.004625111888454933,-0.5955345000457289,0.8028869718181327,0.0037383351009339094,0.0074038757011294365,0.004528867546468973,0.22177620654925703,-0.4170626847222447,9.878897581100464,2706,1603196382.2030764,rc,0.0,0.0,0.0,0.0,0.0,-10000.0
,,121942.897448,2.05029296875,22697,1603197164.203228,/world,vicon/testobj/testobj,-0.012552144870585074,-0.20849723410569085,1.396162387321304,0.005914168911228857,-0.008167639360761819,0.00857162931583908,0.9999124158866285,1766764.0,0.04,0.16,-0.98,0.0,-0.06,-0.06,-55.06,-1.5,-52.96,1790287.0,0.15,0.12,0.99,-0.18,-0.12,0.0,-4.35,34.06,16.2,25878,1603196382.8769917,body_FLU,-0.02627501475691079,0.004622682515948719,-0.5955446993287772,0.8028790478691528,-0.0009264136315323412,0.006851647514849901,-0.001173915807157755,0.3931924424394965,-0.5416707589924336,9.96889947795868,2706,1603196382.2030764,rc,0.0,0.0,0.0,0.0,0.0,-10000.0
,,121942.920107,2.072955846786499,22699,1603197164.2189133,/world,vicon/testobj/testobj,-0.012543014959451659,-0.20848745628424958,1.3961493538768053,0.005943653744645192,-0.00811009088923937,0.008563466892229919,0.9999127794166437,1766773.0,0.05,0.16,-0.99,-0.06,-0.06,-0.06,-56.26,0.0,-51.91,1790296.0,0.14,0.12,1.0,0.0,-0.06,0.06,-6.15,36.31,16.05,25879,1603196382.9075074,body_FLU,-0.026281418607558622,0.004645638320806605,-0.595538821801056,0.8028830654636929,0.0053179445676505566,0.005924554541707039,-0.001600007526576519,0.2962945870589465,-0.32482872604206203,9.836484572768212,2706,1603196382.2030764,rc,0.0,0.0,0.0,0.0,0.0,-10000.0
,,121942.944672,2.097520112991333,22702,1603197164.5200005,/world,vicon/testobj/testobj,-0.012548049561115665,-0.20849801272126364,1.3961543421655094,0.005841501963151711,-0.008196958652963424,0.008584442282155082,0.999912493208461,1766783.0,0.04,0.15,-0.98,-0.06,-0.18,0.0,-54.91,1.95,-53.41,1790304.0,0.14,0.13,0.99,0.0,0.0,0.06,-6.15,36.31,16.05,25880,1603196382.9297242,body_FLU,-0.02629663907467388,0.004651877946481215,-0.5955296968560853,0.8028892993230429,-0.0019694610964506865,0.004280100576579571,0.00013352168025448918,0.27801282396912574,-0.4354512624107301,9.805653618693352,2707,1603196382.9213703,rc,0.0,0.0,0.0,0.0,0.0,-10000.0
,,121942.967782,2.1206283569335938,22704,1603197164.72179,/world,vicon/testobj/testobj,-0.012548523077892726,-0.2085001389567831,1.3961442621650382,0.005955344915588149,-0.008049999834188136,0.00856715053380999,0.9999131638804126,1766794.0,0.03,0.15,-0.99,-0.06,-0.06,0.0,-56.41,-0.9,-53.41,1790313.0,0.14,0.12,0.99,-0.06,-0.3,0.06,-5.55,34.96,16.05,25881,1603196382.9574146,body_FLU,-0.026290716346077304,0.0046593490561176116,-0.5955293497602404,0.8028897074159868,-0.0015244121896103024,0.0044075557962059975,-0.001269747968763113,0.27420961451344195,-0.513242631353438,9.838607501506806,2707,1603196382.9213703,rc,0.0,0.0,0.0,0.0,0.0,-10000.0
,,121942.991055,2.1439030170440674,22707,1603197164.10216,/world,vicon/testobj/testobj,-0.012560371639430539,-0.20850749313591543,1.3961488037967698,0.005933037759094947,-0.008106272067753271,0.0085857256722475,0.9999126825532285,1766804.0,0.03,0.14,-0.98,-0.12,-0.24,0.0,-55.36,1.2,-53.86,1790321.0,0.14,0.13,1.0,0.06,-0.06,0.06,-5.1,35.56,17.1,25883,1603196382.9879084,body_FLU,-0.026291672446042625,0.004679834263080669,-0.5955294483324085,0.8028894838520165,0.004444499965757132,0.005121219903230667,-0.002282955450937152,0.24236635889858008,-0.45251815776899457,9.745198637008667,2707,1603196382.9213703,rc,0.0,0.0,0.0,0.0,0.0,-10000.0
