name,date,time,time_since_start,vicon_sequence,vicon_time_stamp,vicon_frame_id,vicon_child_frame_id,vicon_translation_x,vicon_translation_y,vicon_translation_z,vicon_rotation_x,vicon_rotation_y,vicon_rotation_z,vicon_rotation_w,int_imu_time_stamp,int_imu_acc_x,int_imu_acc_y,int_imu_acc_z,int_imu_gyro_x,int_imu_gyro_y,int_imu_gyro_z,int_imu_mag_x,int_imu_mag_y,int_imu_mag_z,ext_imu_time_stamp,ext_imu_acc_x,ext_imu_acc_y,ext_imu_acc_z,ext_imu_gyro_x,ext_imu_gyro_y,ext_imu_gyro_z,ext_imu_mag_x,ext_imu_mag_y,ext_imu_mag_z,dji_imu_sequence,dji_imu_time_stamp,dji_imu_frame_id,dji_imu_orientation_x,dji_imu_orientation_y,dji_imu_orientation_z,dji_imu_orientation_w,dji_imu_ang_vel_x,dji_imu_ang_vel_y,dji_imu_ang_vel_z,dji_imu_lin_acc_x,dji_imu_lin_acc_y,dji_imu_lin_acc_z,rc_sequence,rc_time_stamp,rc_frame_id,rc_roll,rc_pitch,rc_yaw,rc_throttle,rc_mode,rc_landing_gear
/root/Desktop/transfer/20102020/Test1.csv,20201020,123155.681035,0.00025844573974609375,94757,1603197896.834939,/world,vicon/testobj/testobj,-0.012011810743031036,-0.21330470416676003,1.3946362104839927,-0.0002902228689631724,-0.0007650326319062464,0.00029108042542826064,0.9999996228839011,2477845.0,0.03,0.14,-0.99,0.12,0.06,0.0,-56.26,0.3,-53.71,2509781.0,0.14,0.12,1.01,-0.06,-0.12,0.0,-5.7,35.41,16.8,73490,1603197115.6693995,body_FLU,-0.025116410724323104,0.0024660580728214096,-0.5846147319431464,0.8109184297233302,4.9186055548489094e-05,0.005751923657953739,0.005365347024053335,0.30579568262770773,-0.34465118611603973,9.812674355506896,6736,1603197115.5556426,rc,0.0,0.0,0.0,0.0,0.0,-10000.0
,,123155.708462,0.027699708938598633,94760,1603197896.86502,/world,vicon/testobj/testobj,-0.012016841470697141,-0.21331246736665124,1.3946468398372587,-0.00036778522362250065,-0.000838278793926069,0.0002877714567393051,0.9999995396050348,2477855.0,0.03,0.15,-0.99,-0.06,-0.12,0.06,-56.26,-0.75,-54.01,2509789.0,0.14,0.12,1.0,-0.12,-0.18,-0.06,-5.7,35.41,16.8,73493,1603197115.6970878,body_FLU,-0.02511216802323941,0.0024586178023574827,-0.5846119946101508,0.8109205571285115,0.0011527003953233361,0.007991950958967209,0.004397638142108917,0.15654989286884666,-0.30781966501101854,9.918170010209083,6736,1603197115.5556426,rc,0.0,0.0,0.0,0.0,0.0,-10000.0
,,123155.729991,0.04921984672546387,94762,1603197896.8850904,/world,vicon/testobj/testobj,-0.012014789736914323,-0.21330117619590408,1.3946455411276468,-0.0003688225088811675,-0.0008242477325733824,0.00026541368528342006,0.9999995570705058,2477865.0,0.04,0.16,-1.0,0.06,-0.06,0.0,-55.51,1.05,-53.26,2509798.0,0.15,0.12,0.99,-0.18,-0.12,-0.06,-5.55,35.26,17.4,73494,1603197115.7165618,body_FLU,-0.025107375685816825,0.0024653506855492357,-0.584618330366641,0.8109161174446402,-0.0008419296937063336,0.004408630076795816,-0.000823065813165158,0.20669594223797322,-0.40607408952713014,9.892676171422005,6736,1603197115.5556426,rc,0.0,0.0,0.0,0.0,0.0,-10000.0
,,123155.75315,0.0723731517791748,94765,1603197896.9151244,/world,vicon/testobj/testobj,-0.012022013805140818,-0.21330333423003317,1.3946396076538898,-0.0003720543267263115,-0.0008243328559660734,0.00027434546119027765,0.9999995533926446,2477875.0,0.04,0.14,-1.0,0.0,-0.06,0.0,-55.81,-0.75,-52.96,2509807.0,0.14,0.13,1.01,-0.06,-0.06,-0.06,-5.1,34.21,17.4,73495,1603197115.7414715,body_FLU,-0.025081148211703926,0.002458632445606652,-0.5846188382463863,0.8109165833168819,0.0006654771859757602,0.004412716254591942,0.003745750756934285,0.21548960787802934,-0.5117711420506239,9.824123215556146,6736,1603197115.5556426,rc,0.0,0.0,0.0,0.0,0.0,-10000.0
,,123155.776022,0.09525442123413086,94767,1603197896.9351487,/world,vicon/testobj/testobj,-0.012017295197680493,-0.2132811195568961,1.3946524053842528,-0.0002884298909513554,-0.0007417310879673444,0.0002752400620697758,0.9999996454429868,2477885.0,0.03,0.15,-1.0,-0.06,-0.24,-0.06,-55.06,0.0,-54.01,2509816.0,0.14,0.12,1.01,-0.06,-0.06,-0.06,-6.75,33.76,16.8,73496,1603197115.7692423,body_FLU,-0.025061934949946164,0.0024483946263341716,-0.5846106832753302,0.8109230874630896,0.005161562003195286,0.0075536612421274185,0.0031013344414532185,0.371875454261899,-0.2879609124362469,9.836518455505372,6736,1603197115.5556426,rc,0.0,0.0,0.0,0.0,0.0,-10000.0
,,123155.798204,0.11742711067199707,94769,1603197896.9552095,/world,vicon/testobj/testobj,-0.012015576972955775,-0.21330583844129528,1.394643250732444,-0.00033921244410153634,-0.0007941373683947929,0.0002707228672793663,0.9999995904948596,2477895.0,0.03,0.15,-0.99,-0.06,-0.12,-0.06,-55.06,0.0,-53.26,2509824.0,0.14,0.12,0.98,-0.06,-0.06,0.0,-5.4,34.06,18.6,73497,1603197115.7830718,body_FLU,-0.025063255463585975,0.0024440008946357335,-0.5845997646069282,0.810930931280043,-0.0007170711760409176,0.0015822331188246608,0.008435070514678955,0.3711584765575826,-0.4034085258319974,9.814956182599067,6736,1603197115.5556426,rc,0.0,0.0,0.0,0.0,0.0,-10000.0
,,123155.819383,0.138641357421875,94771,1603197896.9751792,/world,vicon/testobj/testobj,-0.012021387606973064,-0.21329234651334844,1.3946251191180865,-0.0003738948960677277,-0.0008751551661271505,0.0002704759475483094,0.999999510574282,2477905.0,0.04,0.15,-1.0,0.0,0.06,0.12,-57.61,-1.2,-54.01,2509833.0,0.14,0.12,1.0,0.06,-0.12,0.12,-5.4,34.06,16.8,73498,1603197115.802533,body_FLU,-0.025068872972806727,0.0024623835181205277,-0.5846051412360598,0.8109268259933505,0.0007830851245671511,0.006976929493248463,0.0018225491512566805,0.2361181703992188,-0.379527731705457,9.881723868727684,6736,1603197115.5556426,rc,0.0,0.0,0.0,0.0,0.0,-10000.0
,,123155.841908,0.16113853454589844,94773,1603197896.9953008,/world,vicon/testobj/testobj,-0.012018858420117783,-0.21330488986280988,1.3946442480809307,-0.0002700410037691564,-0.0007456938253535913,0.00028895887360928677,0.9999996437606088,2477914.0,0.03,0.15,-1.0,-0.06,-0.06,0.0,-56.26,1.05,-53.71,2509842.0,0.15,0.13,0.99,0.0,-0.06,0.12,-6.15,36.01,16.35,73499,1603197115.8219252,body_FLU,-0.025057056331242326,0.002457363990291752,-0.5846002491034541,0.8109307331939096,0.00010698544792830944,0.0055013434030115604,0.001978687010705471,0.1909612445421517,-0.41114755476638676,9.871571899652482,6737,1603197115.8357737,rc,0.0,0.0,0.0,0.0,0.0,-10000.0
,,123155.865975,0.18523859977722168,94776,1603197897.2532,/world,vicon/testobj/testobj,-0.012017995748692787,-0.21329200081863206,1.394645620426607,-0.00035008146514928007,-0.0008133818653464991,0.00026761482726974457,0.999999572117515,2477925.0,0.03,0.15,-0.99,0.06,0.06,0.0,-56.41,0.15,-53.11,2509850.0,0.15,0.12,0.98,0.0,-0.18,0.0,-6.15,36.01,16.35,73500,1603197115.8496728,body_FLU,-0.025044723580614114,0.002450042209946577,-0.584609206617091,0.8109246787787848,0.006604847498238087,-0.002222044626250863,-0.0012763728154823184,0.18055535575188697,-0.2961680197007954,9.80211462521553,6737,1603197115.8357737,rc,0.0,0.0,0.0,0.0,0.0,-10000.0
,,123155.888447,0.20767474174499512,94778,1603197897.4539363,/world,vicon/testobj/testobj,-0.01202046435657773,-0.21330323028643772,1.394661572602812,-0.00033285464099262784,-0.000815970134904425,0.0002833964301208628,0.9999995715434034,2477935.0,0.03,0.15,-0.98,0.06,0.0,-0.06,-55.81,0.0,-53.26,2509859.0,0.15,0.11,1.0,0.0,0.0,0.06,-5.85,34.51,16.65,73502,1603197115.8774185,body_FLU,-0.025064738663767367,0.0024829220770028193,-0.5846158271304565,0.8109191874917308,-0.002660966943949461,0.001444665715098381,-0.0011710417456924915,0.25617189475893976,-0.38558266446366907,9.887925577998162,6737,1603197115.8357737,rc,0.0,0.0,0.0,0.0,0.0,-10000.0
,,123155.912097,0.23133325576782227,94780,1603197897.6510289,/world,vicon/testobj/testobj,-0.012026653301499475,-0.21330538046018854,1.3946334347336138,-0.0003396471043369767,-0.0008412126390306925,0.00025542756869624246,0.9999995558788501,2477945.0,0.04,0.15,-0.99,-0.12,-0.12,0.12,-55.66,0.15,-52.81,2509907.0,0.15,0.12,1.0,-0.18,-0.12,0.0,-3.0,34.21,18.0,73505,1603197115.9106495,body_FLU,-0.025054129947501266,0.0024831537972495976,-0.5846135727691173,0.8109211398489505,-0.002777781803160906,0.0042390404269099236,0.00044167344458401203,0.2597497730590403,-0.45925187712907795,9.825278733730316,6737,1603197115.8357737,rc,0.0,0.0,0.0,0.0,0.0,-10000.0
,,123155.936345,0.25560808181762695,94783,1603197897.9510598,/world,vicon/testobj/testobj,-0.012020511644376392,-0.2132888689229806,1.3946493052222082,-0.0002897240356397028,-0.0007705477976948375,0.0002596272007303135,0.9999996274548262,2477955.0,0.03,0.15,-0.99,-0.06,-0.06,0.0,-55.36,-0.9,-53.86,2509916.0,0.16,0.11,1.0,0.0,-0.12,0.0,-5.1,36.31,19.35,73506,1603197115.9300892,body_FLU,-0.02504727588134047,0.0024785559766188547,-0.5846214970122274,0.8109156528039011,0.0039475783705711365,0.007655812427401543,-0.0028246985748410225,0.21471501491591335,-0.5489114415049553,9.94402487540245,6737,1603197115.8357737,rc,0.0,0.0,0.0,0.0,0.0,-10000.0
,,123155.959909,0.2791402339935303,94785,1603197897.1151896,/world,vicon/testobj/testobj,-0.01201791937071151,-0.21329677066462036,1.3946574385397534,-0.00040730269926074144,-0.0008580064255880957,0.00029187272950071964,0.9999995063697755,2477965.0,0.04,0.16,-0.99,0.06,0.06,0.12,-54.91,0.75,-53.86,2509924.0,0.15,0.12,0.99,-0.06,-0.12,-0.12,-6.15,35.26,17.1,73507,1603197115.9495037,body_FLU,-0.025055905593665856,0.002476837320082009,-0.5846148719335779,0.810920167702011,-0.0011504130670800805,1.8206366803497076e-05,0.0004917118931189179,0.19994163035228849,-0.5150325015485286,9.875414669394493,6737,1603197115.8357737,rc,0.0,0.0,0.0,0.0,0.0,-10000.0
,,123155.984907,0.3041360378265381,94788,1603197897.1455364,/world,vicon/testobj/testobj,-0.012020192870947933,-0.21329664080079414,1.3946564958532588,-0.00037423655910674973,-0.0008619245330744893,0.0002764205359302292,0.9999995203122771,2477975.0,0.04,0.15,-0.99,0.0,0.06,0.06,-56.41,-0.3,-53.86,2509933.0,0.16,0.11,1.0,-0.06,-0.12,0.12,-6.75,34.06,16.8,73509,1603197115.9772463,body_FLU,-0.025038199062762927,0.002478851059851906,-0.5846227217771294,0.8109150492295834,0.0019424973288550973,0.004286863375455141,0.0024948930367827415,0.24464234413951635,-0.34770654733479023,9.893968388915063,6737,1603197115.8357737,rc,0.0,0.0,0.0,0.0,0.0,-10000.0
,,123156.00887,0.32810449600219727,94790,1603197897.1651957,/world,vicon/testobj/testobj,-0.012029205695022421,-0.21330360444661509,1.3946403970906869,-0.00034436432346399674,-0.0008042518107541566,0.0002861661688369231,0.999999576350491,2477985.0,0.04,0.15,-1.0,0.0,0.06,-0.12,-55.96,-0.3,-54.46,2509942.0,0.15,0.13,1.0,-0.06,-0.12,-0.06,-6.45,34.81,17.25,73511,1603197115.9966393,body_FLU,-0.02504883852718876,0.002467487217880204,-0.5846304245683661,0.810909201985204,-0.0018251888686791062,0.0056812958791852,-0.002062692539766431,0.21306184403970838,-0.3888585920780897,9.794352557480336,6737,1603197115.8357737,rc,0.0,0.0,0.0,0.0,0.0,-10000.0
,,123156.031475,0.3507521152496338,94792,1603197897.1852655,/world,vicon/testobj/testobj,-0.012011863950651715,-0.21329899481948641,1.3946550924820682,-0.0003661702774905961,-0.0008280036439763339,0.0002774637373825398,0.9999995516714835,2477995.0,0.03,0.15,-0.98,0.0,-0.06,-0.06,-56.56,0.3,-52.66,2509950.0,0.15,0.13,0.99,-0.12,-0.18,-0.12,-6.45,34.81,17.25,73513,1603197116.299358,body_FLU,-0.02502550512848401,0.0024543980021039438,-0.5846304491468278,0.8109099444166966,-0.0021086311899125576,0.007391229271888733,-0.00015567464288324118,0.162176855256781,-0.4285995376557112,9.876111018061637,6737,1603197115.8357737,rc,0.0,0.0,0.0,0.0,0.0,-10000.0
,,123156.05418,0.37340593338012695,94795,1603197897.2152188,/world,vicon/testobj/testobj,-0.012018560424746827,-0.21329503242982795,1.394644676386804,-0.00038576659952288387,-0.000861925220514416,0.00027586277965079264,0.9999995160842687,2478005.0,0.04,0.14,-1.0,0.0,-0.06,0.0,-55.81,0.6,-54.01,2509959.0,0.15,0.12,0.98,-0.12,-0.06,0.06,-5.85,34.96,15.6,73513,1603197116.299358,body_FLU,-0.02502550512848401,0.0024543980021039438,-0.5846304491468278,0.8109099444166966,-0.0021086311899125576,0.007391229271888733,-0.00015567464288324118,0.162176855256781,-0.4285995376557112,9.876111018061637,6737,1603197115.8357737,rc,0.0,0.0,0.0,0.0,0.0,-10000.0
,,123156.078513,0.39774012565612793,94797,1603197897.2352662,/world,vicon/testobj/testobj,-0.01201038440255857,-0.21329902282866958,1.3946251325426637,-0.00027621417973702154,-0.0007903246170812946,0.00029214481019077,0.999999606871991,2478015.0,0.03,0.15,-1.0,0.0,-0.06,0.0,-55.81,1.35,-52.96,2509968.0,0.15,0.12,0.99,-0.06,-0.24,0.0,-5.55,34.51,16.35,73516,1603197116.7704432,body_FLU,-0.02498413058363865,0.002453336476407833,-0.5846389531860527,0.8109050923361066,0.00046661298256367445,0.0029614726081490517,-0.0009166021482087672,0.33811331481859086,-0.38761643194779755,9.84529758954048,6737,1603197115.8357737,rc,0.0,0.0,0.0,0.0,0.0,-10000.0
,,123156.10143,0.4206817150115967,94799,1603197897.2550313,/world,vicon/testobj/testobj,-0.012025980932869025,-0.21329715941532165,1.3946349112213134,-0.0003015072170209623,-0.0007624900852563751,0.0002560049517778956,0.9999996310817982,2478025.0,0.04,0.15,-0.99,0.0,-0.06,-0.06,-56.71,-0.6,-53.41,2509976.0,0.14,0.12,1.01,-0.06,-0.24,0.06,-6.0,33.31,16.8,73518,1603197116.9647086,body_FLU,-0.024976487121014388,0.00245021888791729,-0.5846307463790592,0.8109112540264557,-0.0015701984521001577,0.00934024527668953,0.0025769085623323917,0.2352754833586514,-0.5384964430779219,9.931953274011612,6737,1603197115.8357737,rc,0.0,0.0,0.0,0.0,0.0,-10000.0
,,123156.126697,0.4459850788116455,94802,1603197897.2851617,/world,vicon/testobj/testobj,-0.012022289563900827,-0.21329571086857327,1.3946378715873866,-0.0002893081979380896,-0.0007737239899782305,0.0002629844962033127,0.9999996242454837,2478035.0,0.02,0.15,-1.0,0.12,0.0,-0.06,-56.41,0.75,-53.41,2509985.0,0.14,0.12,1.0,-0.06,-0.06,0.06,-5.4,34.36,18.15,73519,1603197116.1103766,body_FLU,-0.024968963540849046,0.0024437083520303213,-0.5846388728818086,0.810905646462444,0.0020253376569598913,0.003456739243119955,-0.002166337100788951,0.24466476224362851,-0.5355700042136013,9.951902027606964,6737,1603197115.8357737,rc,0.0,0.0,0.0,0.0,0.0,-10000.0
,,123156.149829,0.4690818786621094,94804,1603197897.3051398,/world,vicon/testobj/testobj,-0.012019285312660959,-0.21329602127077535,1.3946362083732133,-0.00035725119844655075,-0.0008513795955250795,0.00028093083574740665,0.9999995343010071,2478045.0,0.04,0.15,-1.0,-0.06,-0.12,0.0,-56.71,0.15,-53.86,2509994.0,0.14,0.13,0.99,-0.06,-0.12,-0.06,-6.15,33.91,15.3,73521,1603197116.1436586,body_FLU,-0.024949279608742273,0.002444330143305597,-0.5846315271535606,0.8109115464434151,0.0005531420465558767,0.005691059865057468,0.001612330786883831,0.32224359733611346,-0.4623717177808285,9.842612674713134,6737,1603197115.8357737,rc,0.0,0.0,0.0,0.0,0.0,-10000.0
,,123156.17419,0.49350786209106445,94807,1603197897.3349776,/world,vicon/testobj/testobj,-0.012025910757834124,-0.21331151326945283,1.3946004090569972,-0.0005482495411894953,-0.0007730277614677226,0.0002618397930711011,0.9999995166451049,2478055.0,0.04,0.15,-0.98,-0.06,-0.12,0.06,-55.06,0.0,-54.01,2510003.0,0.14,0.12,0.99,-0.06,-0.06,-0.12,-6.45,35.41,17.25,73523,1603197116.1713572,body_FLU,-0.024949635262816825,0.0024383821733296412,-0.5846345310548587,0.8109093877190562,0.0021917398553341627,0.0061555891297757626,0.0038100332021713257,0.20392712382227182,-0.4084589887820184,9.726540348351001,6737,1603197115.8357737,rc,0.0,0.0,0.0,0.0,0.0,-10000.0
,,123156.197416,0.516671895980835,94809,1603197897.3550036,/world,vicon/testobj/testobj,-0.012025869983609723,-0.21329946751414738,1.3946445873721323,-0.0003182297307656485,-0.0008243194596338507,0.0002739907195127256,0.9999995720780847,2478065.0,0.04,0.15,-0.99,0.0,0.06,0.0,-55.96,0.45,-54.91,2510011.0,0.14,0.12,1.0,-0.18,-0.12,-0.06,-5.1,34.96,17.1,73525,1603197116.1907446,body_FLU,-0.024943515453736458,0.002433549842441621,-0.5846448208376437,0.8109021718676631,0.0008369084680452943,0.005774426739662886,-0.0016026536468416452,0.17319911411963404,-0.4043813401088119,9.763617993950843,6737,1603197115.8357737,rc,0.0,0.0,0.0,0.0,0.0,-10000.0
,,123156.220732,0.539980411529541,94811,1603197897.375014,/world,vicon/testobj/testobj,-0.012024890849363102,-0.21329663976590535,1.39463847892765,-0.0003268440314416504,-0.0008146606087465922,0.0002750131573049872,0.999999576934328,2478075.0,0.04,0.15,-0.99,-0.12,-0.12,-0.12,-55.06,0.3,-53.26,2510020.0,0.14,0.12,0.99,-0.24,-0.12,-0.06,-5.1,34.96,17.1,73528,1603197116.218501,body_FLU,-0.024930646221916094,0.0024375153443778877,-0.5846483636769808,0.8109000013859491,0.00476103788241744,0.003832969581708312,-0.00067902886075899,0.23622336023300886,-0.3831467950567603,9.872225018620492,6737,1603197115.8357737,rc,0.0,0.0,0.0,0.0,0.0,-10000.0
,,123156.244264,0.563596248626709,94814,1603197897.4049685,/world,vicon/testobj/testobj,-0.012023795398574526,-0.21331261518056202,1.3946309170461657,-0.0002657201291763198,-0.0007690424707508523,0.00029692389614724565,0.9999996249012751,2478085.0,0.04,0.16,-1.0,-0.06,-0.06,0.0,-55.51,0.3,-53.26,2510068.0,0.14,0.12,0.98,-0.12,-0.06,-0.12,-4.8,35.26,18.0,73530,1603197116.2378976,body_FLU,-0.02491631943956055,0.0024438479578696094,-0.5846490710819074,0.8108999126376865,-0.0009727334836497903,0.006404189392924309,-0.0010036139283329248,0.366227844581008,-0.40287019924074413,9.839628657102585,6737,1603197115.8357737,rc,0.0,0.0,0.0,0.0,0.0,-10000.0
,,123156.26716,0.5863873958587646,94816,1603197897.4250245,/world,vicon/testobj/testobj,-0.012020850012378575,-0.21329416110909538,1.394645008713718,-0.0003245591902427106,-0.0007909771946552317,0.00028374008544781396,0.9999995942539045,2478095.0,0.04,0.15,-0.99,0.0,-0.06,0.0,-55.96,0.75,-54.16,2510077.0,0.13,0.11,1.0,-0.06,-0.06,-0.06,-4.35,34.81,17.55,73532,1603197116.2601287,body_FLU,-0.024896018024950492,0.00242244264759072,-0.5846617513023695,0.8108914579782962,0.0023905900306999683,0.0073469700291752815,-0.0022920004557818174,0.2837237812243402,-0.4461918345093727,9.855842131018639,6737,1603197115.8357737,rc,0.0,0.0,0.0,0.0,0.0,-10000.0
,,123156.28925,0.6084752082824707,94818,1603197897.445085,/world,vicon/testobj/testobj,-0.0120188667178148,-0.21330322964447865,1.3946359630744434,-0.00033553325164575767,-0.0008207532472970459,0.00027126866516769856,0.9999995700973353,2478105.0,0.04,0.15,-0.99,-0.12,-0.18,0.0,-54.91,-0.3,-53.41,2510086.0,0.14,0.12,0.99,-0.06,-0.12,0.0,-6.75,34.81,15.45,73533,1603197116.2794936,body_FLU,-0.02489716292489166,0.0024378422145876445,-0.584660262619465,0.8108924500310546,-0.0026403379160910845,0.004947209730744362,0.0059305946342647076,0.29359848143532874,-0.2976176385730505,9.897512055873872,6737,1603197115.8357737,rc,0.0,0.0,0.0,0.0,0.0,-10000.0
,,123156.314163,0.6333894729614258,94821,1603197897.4751673,/world,vicon/testobj/testobj,-0.01202518359801237,-0.21330581374455262,1.3946417549317904,-0.00032947459088489994,-0.0007906112063743661,0.0002789524705233954,0.9999995942828844,2478115.0,0.04,0.15,-1.0,-0.06,-0.12,0.06,-55.81,0.3,-52.96,2510095.0,0.14,0.11,1.0,0.0,-0.06,-0.06,-6.45,35.11,16.5,73535,1603197116.3016977,body_FLU,-0.024880540451554696,0.0024292652518108537,-0.5846684516863713,0.8108870815223511,0.0032829265110194683,0.0074578444473445415,0.0001909405691549182,0.30622268544137476,-0.2982368200365454,9.779626418888569,6737,1603197115.8357737,rc,0.0,0.0,0.0,0.0,0.0,-10000.0
,,123156.33742,0.6566481590270996,94823,1603197897.4954424,/world,vicon/testobj/testobj,-0.012018256714515185,-0.21330988363522277,1.394643110034003,-0.0003899313026550607,-0.0008576186576351673,0.0002673354155665402,0.9999995204876815,2478125.0,0.03,0.15,-1.0,-0.06,-0.06,-0.18,-56.86,-0.75,-54.31,2510104.0,0.14,0.12,0.99,-0.06,-0.06,0.06,-6.15,33.46,16.65,73536,1603197116.3294144,body_FLU,-0.024878585239195356,0.0024215602177993624,-0.5846650013883951,0.8108896522919229,0.002333182841539383,0.007414365652948618,-0.0022181482054293156,0.347404888741672,-0.46916403821110725,9.872846591591836,6738,1603197116.315627,rc,0.0,0.0,0.0,0.0,0.0,-10000.0
,,123156.360058,0.6792840957641602,94825,1603197897.5152056,/world,vicon/testobj/testobj,-0.012034069748448947,-0.2133123279718999,1.3945831716954307,-0.00047837272917514715,-0.0006891270625220762,0.0002727290281821614,0.9999996109410747,2478135.0,0.04,0.15,-0.98,0.0,-0.06,-0.12,-56.56,0.6,-53.26,2510113.0,0.14,0.11,1.0,0.0,0.06,0.0,-5.85,33.91,17.1,73538,1603197116.348848,body_FLU,-0.024870555304282015,0.0024081983849805776,-0.5846637453606922,0.8108908440229197,-0.0004486410180106759,0.0006856961408630013,0.0005743437213823199,0.3167029300443828,-0.4454891693405807,9.846512694597244,6738,1603197116.315627,rc,0.0,0.0,0.0,0.0,0.0,-10000.0
,,123156.382147,0.7013993263244629,94827,1603197897.5351799,/world,vicon/testobj/testobj,-0.012019251207836958,-0.21329968050206352,1.3946450285308092,-0.00035356484110225404,-0.0008455800082948992,0.0002507742073365307,0.9999995485492229,2478144.0,0.03,0.15,-1.0,-0.06,-0.12,-0.12,-56.56,0.6,-54.01,2510122.0,0.13,0.12,1.0,-0.06,-0.18,0.0,-6.9,34.51,16.65,73539,1603197116.3627057,body_FLU,-0.02487425172055868,0.002413314022992917,-0.5846661528167578,0.810888979618801,-0.002293710131198168,0.007324868347495794,0.0008050674805417657,0.28663437406718734,-0.3660880782902241,9.885724368453026,6738,1603197116.315627,rc,0.0,0.0,0.0,0.0,0.0,-10000.0
,,123156.405946,0.7251749038696289,94830,1603197897.5651705,/world,vicon/testobj/testobj,-0.012016405033388456,-0.21330077358516858,1.3946429719659146,-0.00032089205742426985,-0.0008167350756450253,0.000289835720664856,0.9999995729835882,2478154.0,0.03,0.14,-0.98,0.0,-0.06,0.0,-56.41,0.15,-52.06,2510131.0,0.14,0.12,1.0,0.06,0.0,0.0,-6.75,35.11,17.25,73541,1603197116.4015188,body_FLU,-0.024856323200951803,0.002407919196994265,-0.5846728259372042,0.8108847339373669,0.0014741424238309264,0.005191451869904995,-0.0011076992377638817,0.20329691586457194,-0.46761098206043245,9.922996547698975,6738,1603197116.315627,rc,0.0,0.0,0.0,0.0,0.0,-10000.0
,,123156.428451,0.7476785182952881,94832,1603197897.5850992,/world,vicon/testobj/testobj,-0.012025395544897701,-0.21329830747965361,1.3946527899962835,-0.00030074829416359836,-0.0007589280907922387,0.0002915684743099164,0.9999996242831501,2478165.0,0.04,0.15,-0.99,0.0,0.0,-0.12,-56.56,-0.45,-53.71,2510140.0,0.14,0.12,0.99,-0.06,-0.12,0.0,-6.75,35.11,17.25,73542,1603197116.4209847,body_FLU,-0.024848273258583936,0.0023887043226064114,-0.5846699091304413,0.8108871405843896,0.009509427472949028,0.0007729950593784451,0.0034047975204885006,0.21006347738206388,-0.4989854108579457,9.827657535552978,6738,1603197116.315627,rc,0.0,0.0,0.0,0.0,0.0,-10000.0
,,123156.450041,0.769345760345459,94834,1603197897.6050935,/world,vicon/testobj/testobj,-0.012026184249639938,-0.21330090863989337,1.3946374276251219,-0.00037677641339574266,-0.0008603868642386897,0.0002621825966760668,0.999999524517019,2478175.0,0.04,0.15,-1.0,-0.06,-0.12,-0.12,-56.71,0.75,-51.76,2510149.0,0.15,0.11,1.0,-0.12,-0.06,0.06,-6.45,35.86,17.55,73543,1603197116.440354,body_FLU,-0.0248637724678684,0.0023963604059441105,-0.5846771099496167,0.8108814508770285,-0.003742908127605915,0.00464562326669693,-0.0032018995843827724,0.2911039927024394,-0.40163943072035907,9.692495207726955,6738,1603197116.315627,rc,0.0,0.0,0.0,0.0,0.0,-10000.0
,,123156.473748,0.7929770946502686,94837,1603197897.6349425,/world,vicon/testobj/testobj,-0.012018451445231636,-0.21329811215725103,1.3946249448738792,-0.0003396076177284983,-0.0008039168984080081,0.0002839659439747426,0.9999995788737258,2478185.0,0.04,0.15,-0.99,-0.06,-0.12,0.0,-56.71,-0.6,-53.86,2510157.0,0.15,0.12,0.99,0.0,-0.18,-0.06,-6.15,34.21,16.05,73544,1603197116.4708588,body_FLU,-0.024863732177529393,0.0023736671402108827,-0.5846962777391739,0.8108676977932137,0.001215874101035297,0.005430200137197971,-0.005387722980231047,0.2861178448833525,-0.39767883814126254,9.750656094431877,6739,1603197116.4542537,rc,0.0,0.0,0.0,0.0,0.0,-10000.0
,,123156.49571,0.8149571418762207,94839,1603197897.6549382,/world,vicon/testobj/testobj,-0.01202464138236832,-0.21330765131363877,1.3946399432295722,-0.00036309127170394034,-0.0008709657246706014,0.0002544106512166399,0.9999995224292136,2478195.0,0.04,0.15,-0.99,0.06,0.0,0.06,-56.26,-0.75,-54.31,2510166.0,0.14,0.12,0.99,-0.06,-0.24,0.0,-6.45,33.76,16.8,73546,1603197116.4902747,body_FLU,-0.024869943318562897,0.0023709009781141,-0.5846948401353165,0.8108685520274049,0.0014495356008410454,0.0033340256195515394,0.0019334906246513128,0.19976140924170613,-0.3909705673456192,9.899296157240867,6739,1603197116.4542537,rc,0.0,0.0,0.0,0.0,0.0,-10000.0
,,123156.523423,0.842705249786377,94842,1603197897.6849267,/world,vicon/testobj/testobj,-0.012018707184852545,-0.21329424126862423,1.3946400016002842,-0.00035043325385419926,-0.0008660806683287831,0.00025657961072911084,0.9999995306337468,2478205.0,0.03,0.15,-0.98,0.0,0.12,-0.06,-54.91,0.75,-53.86,2510175.0,0.16,0.11,0.99,-0.12,-0.12,-0.06,-5.7,34.36,12525113.0,73547,1603197116.509691,body_FLU,-0.024858518263037695,0.002375513363652863,-0.584709524116959,0.8108583004526406,0.0004873493453487754,0.00416081165894866,-0.0009976233122870326,0.15619083808735013,-0.3897089465484023,9.862814964652062,6739,1603197116.4542537,rc,0.0,0.0,0.0,0.0,0.0,-10000.0
,,123156.582611,0.901836633682251,94848,1603197897.745375,/world,vicon/testobj/testobj,-0.012017757862081209,-0.21328925769972248,1.3946276185534137,-0.0002924916886336779,-0.0008034082479160052,0.00027240244208775604,0.9999995973902733,2478215.0,0.04,0.14,-0.98,-0.06,-0.06,-0.06,-56.26,0.3,-53.26,2525186.0,0.14,0.12,0.99,-0.06,-0.06,-0.12,-6.0,34.06,16.2,73552,1603197116.5790043,body_FLU,-0.02485417742808996,0.002350320364018016,-0.5847190443412226,0.810851641820652,0.0036514736711978912,0.005458013620227575,-0.0028264715801924467,0.28375459698960187,-0.44662332824617623,9.921725360870361,6739,1603197116.4542537,rc,0.0,0.0,0.0,0.0,0.0,-10000.0
,,123156.606475,0.9257678985595703,94850,1603197897.7651474,/world,vicon/testobj/testobj,-0.012020598748784413,-0.21329289448230732,1.3946286857494474,-0.00031771747587852183,-0.000786902386310014,0.00028436140710842055,0.9999995994893348,2478225.0,0.04,0.15,-0.99,0.0,0.0,0.0,-55.96,-1.35,-53.11,2525196.0,0.15,0.12,0.99,0.0,-0.12,0.06,-4.8,34.96,17.4,73553,1603197116.5901341,body_FLU,-0.024869525904676656,0.00234414696069122,-0.5847087404862608,0.8108586192766738,-0.002033413387835026,0.002384878695011139,0.001493701129220426,0.2826561646554619,-0.4148783435225487,9.849042216181756,6739,1603197116.4542537,rc,0.0,0.0,0.0,0.0,0.0,-10000.0
,,123156.629057,0.9483067989349365,94852,1603197897.785251,/world,vicon/testobj/testobj,-0.012021851538241235,-0.21330456366180484,1.394651398071159,-0.000363259978488548,-0.0008217024223041452,0.00027649362802992364,0.9999995581991978,2478235.0,0.03,0.15,-0.99,0.0,0.0,0.0,-55.81,1.35,-51.91,2525206.0,0.14,0.11,1.0,-0.18,-0.12,0.0,-4.8,35.56,16.65,73555,1603197116.6233833,body_FLU,-0.024861841102408282,0.0023308076461545043,-0.5847041765987203,0.8108621843819871,0.004910391755402088,0.0025616800412535667,-0.0029771351255476475,0.17737713309936226,-0.43340500796958803,9.935357904911042,6739,1603197116.4542537,rc,0.0,0.0,0.0,0.0,0.0,-10000.0
,,123156.653571,0.9728648662567139,94855,1603197897.815134,/world,vicon/testobj/testobj,-0.012019566455567097,-0.21329976864379493,1.3946350801534775,-0.0002636685633272182,-0.0007749955127418915,0.00027769442792282867,0.9999996263732545,2478245.0,0.04,0.15,-0.99,0.0,0.0,-0.12,-55.06,0.3,-53.71,2525216.0,0.14,0.11,0.98,-0.06,-0.18,0.06,-5.55,33.16,16.65,73557,1603197116.6428092,body_FLU,-0.024864613927418715,0.002320314430891353,-0.5846917515706979,0.8108710888670108,-0.0007022671634331346,0.003938982728868723,0.003925954923033714,0.2730134041942656,-0.5192352023497224,9.874478804826737,6739,1603197116.4542537,rc,0.0,0.0,0.0,0.0,0.0,-10000.0
,,123156.678032,0.9972560405731201,94857,1603197897.8353126,/world,vicon/testobj/testobj,-0.012026384480400458,-0.21329318591648033,1.3946266379128625,-0.00031368255581466173,-0.000779287265964289,0.00029412578875807964,0.9999996039022374,2478255.0,0.04,0.15,-0.99,-0.06,-0.12,0.06,-55.66,0.15,-54.16,2525226.0,0.14,0.12,0.99,-0.06,-0.06,-0.06,-6.6,34.21,16.35,73558,1603197116.6705296,body_FLU,-0.02486461313850175,0.0022962104332894563,-0.5846940293838557,0.8108695150478834,0.0008553600055165589,0.004881689790636301,0.003973043989390135,0.3299078140631318,-0.4241233286820352,9.783022287011146,6739,1603197116.4542537,rc,0.0,0.0,0.0,0.0,0.0,-10000.0
,,123156.701052,1.0203006267547607,94859,1603197897.8554895,/world,vicon/testobj/testobj,-0.012019972057304311,-0.2132916541367385,1.3946472983514902,-0.00040808552913143597,-0.0008803154659614179,0.0002640376761106369,0.9999994943973657,2478265.0,0.03,0.16,-0.98,0.06,0.0,-0.12,-55.51,-0.75,-53.71,2525236.0,0.14,0.12,1.01,-0.06,-0.12,0.06,-6.0,33.01,17.55,73559,1603197116.689989,body_FLU,-0.024871339711482067,0.002284544751815391,-0.5847083652872447,0.8108590043153933,0.001120172324590385,0.0008261151961050928,-0.0019381116144359112,0.3401899103745818,-0.4347069740518928,9.773684671998025,6739,1603197116.4542537,rc,0.0,0.0,0.0,0.0,0.0,-10000.0
,,123156.726353,1.045579433441162,94862,1603197897.8854043,/world,vicon/testobj/testobj,-0.01202412853881015,-0.21329019549170664,1.3946323661460691,-0.0003710303918632394,-0.00083899899602419,0.0002904888312136224,0.9999995370165788,2478275.0,0.04,0.15,-1.0,-0.18,-0.12,0.0,-56.26,1.05,-53.26,2525246.0,0.14,0.11,1.0,-0.12,-0.12,-0.06,-5.85,34.21,17.1,73562,1603197116.7232742,body_FLU,-0.024874413586270957,0.002267151256178944,-0.5846827982708831,0.8108773945425106,-0.0025767525658011436,0.002565478440374136,0.0008752568392083049,0.19272541059181095,-0.44280600706860423,9.785384731650353,6739,1603197116.4542537,rc,0.0,0.0,0.0,0.0,0.0,-10000.0
,,123156.748651,1.0678808689117432,94864,1603197897.9052186,/world,vicon/testobj/testobj,-0.012018935462266428,-0.2133047310504044,1.3946415216233201,-0.0003836306507860222,-0.0008441534759350236,0.00026983828493205126,0.9999995337097577,2478285.0,0.05,0.15,-0.99,-0.18,-0.06,-0.06,-55.96,-1.65,-53.86,2525256.0,0.14,0.12,0.99,0.0,0.0,0.0,-5.7,35.86,16.8,73564,1603197116.7426758,body_FLU,-0.024877632693373675,0.002243624228370585,-0.5846850241938731,0.8108757562199685,0.003180638188496232,0.006319321691989899,0.0022048321552574635,0.2832808958776295,-0.4517951921671629,9.857210292577744,6739,1603197116.4542537,rc,0.0,0.0,0.0,0.0,0.0,-10000.0
,,123156.769628,1.088852882385254,94866,1603197897.9250836,/world,vicon/testobj/testobj,-0.012022429790156648,-0.21330167037453615,1.394637609804877,-0.00037866483020926957,-0.0008406014477277272,0.00025754076077239506,0.9999995418373495,2478294.0,0.03,0.15,-0.99,0.0,0.0,-0.12,-56.26,1.35,-53.71,2525266.0,0.14,0.12,1.0,-0.06,-0.06,0.0,-5.7,34.36,16.5,73564,1603197116.7426758,body_FLU,-0.024877632693373675,0.002243624228370585,-0.5846850241938731,0.8108757562199685,0.003180638188496232,0.006319321691989899,0.0022048321552574635,0.2832808958776295,-0.4517951921671629,9.857210292577744,6739,1603197116.4542537,rc,0.0,0.0,0.0,0.0,0.0,-10000.0
,,123156.793533,1.112767219543457,94869,1603197897.9549992,/world,vicon/testobj/testobj,-0.012023644236512995,-0.2133083966587401,1.3946237428359607,-0.00025504581396281335,-0.0007301579685888677,0.00027227410880264005,0.9999996638438352,2478305.0,0.04,0.16,-0.98,-0.12,-0.12,0.0,-56.41,0.15,-53.11,2525277.0,0.14,0.12,0.99,-0.18,-0.06,0.0,-4.35,33.76,16.5,73566,1603197116.7898376,body_FLU,-0.024878830125630382,0.0022150485658811634,-0.5846940173272857,0.81086931343658,-0.0016834812704473734,0.00486447149887681,-0.0011954250512644649,0.38271208830177783,-0.43542453594133257,9.861761094689369,6739,1603197116.4542537,rc,0.0,0.0,0.0,0.0,0.0,-10000.0
,,123156.815535,1.1348142623901367,94871,1603197897.975376,/world,vicon/testobj/testobj,-0.012021882564605103,-0.21329621700039203,1.394635519280886,-0.0003264117929775153,-0.0008614516787612681,0.00027433421201294924,0.9999995380484367,2478315.0,0.04,0.15,-0.99,-0.06,-0.12,0.0,-56.26,0.3,-52.66,2525286.0,0.14,0.12,0.99,-0.12,-0.18,0.06,-6.6,35.26,19.35,73566,1603197116.7898376,body_FLU,-0.024878830125630382,0.0022150485658811634,-0.5846940173272857,0.81086931343658,-0.0016834812704473734,0.00486447149887681,-0.0011954250512644649,0.38271208830177783,-0.43542453594133257,9.861761094689369,6739,1603197116.4542537,rc,0.0,0.0,0.0,0.0,0.0,-10000.0
,,123156.838473,1.1576995849609375,94873,1603197897.9954925,/world,vicon/testobj/testobj,-0.012025650441899436,-0.21328556037854113,1.3946472578175597,-0.0003116391674966774,-0.0007800988670151383,0.0002842306130032584,0.9999996067697955,2478325.0,0.04,0.15,-0.98,-0.06,-0.12,-0.06,-55.81,1.35,-54.01,2525296.0,0.14,0.13,1.0,-0.06,-0.06,0.0,-6.0,34.06,16.5,73567,1603197116.8203814,body_FLU,-0.02487657101519113,0.0022183176710627098,-0.5846813128163203,0.8108785345072469,0.003541838377714157,0.004493704065680504,0.0027975367847830057,0.20075138395652176,-0.3200556414909661,9.85648356628418,6740,1603197116.8341794,rc,0.0,0.0,0.0,0.0,0.0,-10000.0
,,123156.860082,1.1793088912963867,94875,1603197898.151168,/world,vicon/testobj/testobj,-0.012020835114409606,-0.2133027865017821,1.3946274427765142,-0.00035589280336988544,-0.0008676497628848258,0.0002741436860650874,0.9999995226846066,2478335.0,0.03,0.15,-0.99,0.0,0.06,0.12,-57.01,1.5,-54.16,2525307.0,0.14,0.11,1.0,-0.06,-0.12,0.06,-6.15,34.21,16.05,73568,1603197116.8425262,body_FLU,-0.02487763097746941,0.002218911651943116,-0.5846895350701076,0.8108725716705008,-0.0019659106619656086,0.005785809364169836,-0.0015737523790448904,0.4105246308669448,-0.387587332226336,9.849428946733475,6740,1603197116.8341794,rc,0.0,0.0,0.0,0.0,0.0,-10000.0
,,123156.882848,1.2020759582519531,94878,1603197898.4544528,/world,vicon/testobj/testobj,-0.012018809352524468,-0.21329769343041424,1.3946363473370613,-0.0002699802108241771,-0.0007576375825263024,0.00025384285120380444,0.9999996443298298,2478345.0,0.04,0.15,-0.99,0.0,0.06,0.06,-56.41,0.15,-54.91,2525353.0,0.13,0.12,1.0,0.0,-0.12,-0.06,-5.55,35.26,17.4,73569,1603197116.8702648,body_FLU,-0.024874264540055594,0.002191820568550706,-0.5846955202593007,0.8108684329007342,0.002079559024423361,0.006183425430208445,-0.0031396676786243916,0.28429193776845935,-0.4071543938666582,9.75726439654827,6740,1603197116.8341794,rc,0.0,0.0,0.0,0.0,0.0,-10000.0
,,123156.906059,1.2252886295318604,94880,1603197898.6520941,/world,vicon/testobj/testobj,-0.0120276283674023,-0.21330034747797189,1.3946416165594024,-0.00023352797347292442,-0.0006918442066276458,0.00027266183211537535,0.9999996962358562,2478355.0,0.04,0.15,-1.0,-0.06,-0.12,-0.06,-57.01,0.45,-54.46,2525361.0,0.15,0.12,0.99,0.06,-0.06,-0.06,-5.4,33.76,18.15,73571,1603197116.9007525,body_FLU,-0.024870565470704004,0.002170937947079401,-0.5846969272971686,0.8108675879641799,0.005127140786498785,0.0022508506663143635,-0.0032180999405682087,0.22688747951947152,-0.3755794800370932,9.898551905393601,6740,1603197116.8341794,rc,0.0,0.0,0.0,0.0,0.0,-10000.0
,,123156.929078,1.2483103275299072,94882,1603197898.8532228,/world,vicon/testobj/testobj,-0.012016542846707773,-0.213297601682923,1.3946409246824139,-0.0003584848705129806,-0.0008208148389361387,0.0002751143660776775,0.9999995610317454,2478365.0,0.04,0.15,-0.99,-0.12,-0.12,-0.06,-56.41,-1.65,-53.11,2525370.0,0.15,0.13,0.98,0.06,0.0,0.0,-5.7,32.56,16.8,73573,1603197116.9229617,body_FLU,-0.024876369531619664,0.0021785982210573433,-0.5846778891145863,0.8108811170136034,8.072059426922351e-05,0.0023077831137925386,0.005698361434042454,0.38614494264498356,-0.325274714872241,9.918831307768821,6740,1603197116.8341794,rc,0.0,0.0,0.0,0.0,0.0,-10000.0
,,123156.952479,1.2717125415802002,94885,1603197898.1151545,/world,vicon/testobj/testobj,-0.012011985002420619,-0.21330062949407358,1.3946338920174894,-0.0003607020533885305,-0.0008809388890557137,0.0002747250522169881,0.9999995091833036,2478375.0,0.03,0.15,-1.0,-0.06,-0.12,0.0,-55.51,1.35,-54.31,2525378.0,0.15,0.12,1.0,-0.06,-0.06,-0.12,-4.95,35.86,17.55,73574,1603197116.9423535,body_FLU,-0.024868953243202537,0.0021640680015294943,-0.5846882002988725,0.8108739485305577,0.003217011224478483,0.006687651388347149,-0.001492731156758964,0.2835456595290452,-0.41149247957021,9.772811315238476,6740,1603197116.8341794,rc,0.0,0.0,0.0,0.0,0.0,-10000.0
,,123156.976548,1.2957773208618164,94887,1603197898.13535,/world,vicon/testobj/testobj,-0.012022478250625246,-0.21330345883010388,1.3946383642390865,-0.0002826098345939862,-0.0007680910336567178,0.00025977926082396173,0.9999996313412226,2478385.0,0.05,0.15,-1.0,-0.18,-0.12,0.0,-55.96,0.15,-53.41,2525387.0,0.14,0.12,0.99,-0.06,-0.12,0.0,-6.45,33.76,17.25,73575,1603197116.9700935,body_FLU,-0.02487518239637456,0.0021583426714186925,-0.5846904701887264,0.8108721359919491,0.0004541469970718026,0.005342244636267424,-0.0035734071861952543,0.18463835337013007,-0.45416004657000303,9.84850359749794,6741,1603197116.9562287,rc,0.0,0.0,0.0,0.0,0.0,-10000.0
,,123156.999049,1.3182766437530518,94889,1603197898.1551814,/world,vicon/testobj/testobj,-0.012021522152517226,-0.21330847885511992,1.394580016606223,-0.00044834825130869754,-0.0006715148842229628,0.00025862137890103485,0.9999996405832295,2478395.0,0.05,0.14,-0.98,-0.12,-0.06,0.06,-55.51,0.6,-52.66,2525396.0,0.15,0.11,0.99,-0.18,-0.12,0.06,-6.45,33.76,17.25,73577,1603197116.9894948,body_FLU,-0.024870711766649234,0.002149195565198916,-0.5846722414636857,0.8108854411792535,-0.00013898024917580187,0.00244162417948246,0.004032725468277931,0.23033583302423358,-0.5204475690387189,9.883208867311478,6741,1603197116.9562287,rc,0.0,0.0,0.0,0.0,0.0,-10000.0
,,123157.021936,1.3411731719970703,94891,1603197898.175374,/world,vicon/testobj/testobj,-0.012021247314361242,-0.2132969254295151,1.3946436116467675,-0.0002988016852560396,-0.0007834237579699324,0.0002662185912650223,0.9999996130461402,2478405.0,0.04,0.15,-0.98,-0.12,-0.12,-0.12,-55.81,0.0,-53.26,2525405.0,0.15,0.12,0.99,0.0,0.0,0.06,-5.7,34.36,17.85,73579,1603197117.8950112,body_FLU,-0.024877850682192643,0.0021438190060885974,-0.5846661594448594,0.8108896217029181,0.00020728050731122494,0.006186279468238354,-0.0005579637363553047,0.2980967616531998,-0.49731142838671805,9.85497870540619,6741,1603197116.9562287,rc,0.0,0.0,0.0,0.0,0.0,-10000.0
,,123157.046322,1.3655476570129395,94894,1603197898.2051091,/world,vicon/testobj/testobj,-0.012013294673480413,-0.21328829194794233,1.394627777394985,-0.000318489489959795,-0.0008183989874544779,0.0002592408360559977,0.9999995807907777,2478415.0,0.03,0.15,-0.99,0.0,0.0,-0.12,-55.51,1.05,-53.71,2525413.0,0.16,0.11,0.98,-0.06,-0.18,-0.06,-5.55,35.26,16.35,73581,1603197117.421707,body_FLU,-0.02487551552150617,0.0021333444272820124,-0.58466845603203,0.8108880650806349,-0.0009919942822307348,0.00421927310526371,-0.0009726127027533948,0.18779777256399394,-0.41494041319191455,9.699147907912732,6741,1603197116.9562287,rc,0.0,0.0,0.0,0.0,0.0,-10000.0
,,123157.06807,1.387296438217163,94896,1603197898.2250268,/world,vicon/testobj/testobj,-0.01202145784900382,-0.21329928042289986,1.3946410511914114,-0.0003723676009841769,-0.0008535498611988947,0.0002832281005157182,0.9999995262883115,2478425.0,0.04,0.16,-1.0,0.0,0.0,0.0,-56.41,-0.3,-54.16,2525422.0,0.15,0.12,1.0,-0.06,-0.12,0.0,-7.5,35.41,15.45,73581,1603197117.421707,body_FLU,-0.02487551552150617,0.0021333444272820124,-0.58466845603203,0.8108880650806349,-0.0009919942822307348,0.00421927310526371,-0.0009726127027533948,0.18779777256399394,-0.41494041319191455,9.699147907912732,6742,1603197117.5607066,rc,0.0,0.0,0.0,0.0,0.0,-10000.0
,,123157.089075,1.4083056449890137,94898,1603197898.245376,/world,vicon/testobj/testobj,-0.012015674054785866,-0.21330651713377738,1.3946392109477854,-0.0003209443187785263,-0.0008193129479154541,0.0002611726856700847,0.9999995787548442,2478435.0,0.04,0.15,-0.99,0.0,-0.06,-0.06,-55.96,-0.9,-53.11,2525430.0,0.15,0.12,0.99,-0.06,-0.06,-0.06,-6.15,32.86,18.45,73582,1603197117.6993816,body_FLU,-0.02488026005907055,0.0021212904610789676,-0.5846616899229004,0.8108928296160173,-0.001283054007217288,0.005073745734989643,-0.0017750952392816544,0.2802375834770501,-0.39851290845125914,9.87303236246109,6742,1603197117.5607066,rc,0.0,0.0,0.0,0.0,0.0,-10000.0
,,123157.114611,1.4338409900665283,94901,1603197898.2753143,/world,vicon/testobj/testobj,-0.012028371083777111,-0.2133121488562924,1.3946461889510753,-0.00030298758115988666,-0.0008194382841430169,0.00026808953423434876,0.9999995824236257,2478445.0,0.04,0.15,-0.98,-0.12,-0.06,-0.06,-56.26,0.6,-53.71,2525439.0,0.15,0.11,1.0,-0.12,-0.18,0.06,-5.85,35.26,17.1,73585,1603197117.108719,body_FLU,-0.024902754726864318,0.0021174614680420666,-0.584667246582929,0.8108881426788046,-0.0014028826262801886,0.009184859693050385,-0.001500824000686407,0.24513557894155383,-0.4234756134264171,9.71081583738327,6742,1603197117.5607066,rc,0.0,0.0,0.0,0.0,0.0,-10000.0
,,123157.137033,1.4562609195709229,94903,1603197898.2951941,/world,vicon/testobj/testobj,-0.012025257001901891,-0.21328971271297364,1.3946323662876488,-0.000320485326889216,-0.0007830163992370357,0.00027875659953058193,0.9999996032345373,2478455.0,0.04,0.15,-1.0,-0.06,-0.18,0.0,-56.41,0.15,-55.21,2525448.0,0.16,0.12,1.0,-0.06,0.0,-0.06,-6.45,34.36,17.25,73586,1603197117.1226413,body_FLU,-0.024905913701889812,0.0021162313576136163,-0.5846695154254684,0.8108864129825231,0.0006728668813593686,0.004838839173316956,-0.003228482324630022,0.180348225614056,-0.5304989122264088,9.717201564967633,6742,1603197117.5607066,rc,0.0,0.0,0.0,0.0,0.0,-10000.0
,,123157.159878,1.479107141494751,94905,1603197898.3151932,/world,vicon/testobj/testobj,-0.01202636013230117,-0.21330497441515514,1.3947083243905223,-0.0001781905111382992,-0.0009512401907840463,0.0002681102887198933,0.99999949575343,2478465.0,0.04,0.15,-0.98,-0.12,-0.12,0.0,-56.86,0.0,-54.61,2525457.0,0.16,0.12,1.0,-0.06,-0.12,-0.06,-4.65,35.11,15.45,73587,1603197117.1420493,body_FLU,-0.024916966689946758,0.002103117212187276,-0.5846584822564053,0.8108940626213764,0.0015338726807385683,0.004886591341346502,0.001492204493843019,0.10746198531612754,-0.41166590952873233,9.908707379579544,6743,1603197117.1558852,rc,0.0,0.0,0.0,0.0,0.0,-10000.0
,,123157.183774,1.5030031204223633,94908,1603197898.3454227,/world,vicon/testobj/testobj,-0.012030619487669479,-0.21330497775310442,1.3946358232051213,-0.00034027110864982986,-0.0008172306494994261,0.00027213969518402793,0.9999995711447203,2478475.0,0.04,0.15,-1.01,0.06,0.0,0.06,-56.56,0.3,-52.96,2525465.0,0.14,0.12,0.98,0.0,0.0,-0.06,-4.65,35.11,15.45,73589,1603197117.178068,body_FLU,-0.024932929212478406,0.0020904072531303694,-0.5846587949092454,0.810893379411665,0.0032708756625652313,0.0051084039732813835,-0.0024079037830233574,0.32090471805632115,-0.34594906290248034,9.83276915538311,6743,1603197117.1558852,rc,0.0,0.0,0.0,0.0,0.0,-10000.0
,,123157.207311,1.5265395641326904,94910,1603197898.3651338,/world,vicon/testobj/testobj,-0.012016682308833716,-0.2133056569746588,1.3946431638165522,-0.00038468349289173055,-0.0008563013298124338,0.00027107353906638787,0.9999995226427757,2478485.0,0.04,0.14,-0.99,-0.12,-0.24,-0.12,-56.41,0.15,-52.81,2525474.0,0.15,0.12,1.0,-0.12,-0.18,0.0,-6.15,34.96,17.1,73591,1603197117.2002375,body_FLU,-0.024935403709629933,0.0020900845400872448,-0.584642687473343,0.8109049174671468,-0.0006383748259395361,0.001120835542678833,0.0031717573292553425,0.2943993627279997,-0.3388876156881452,9.805777465939522,6743,1603197117.1558852,rc,0.0,0.0,0.0,0.0,0.0,-10000.0
,,123157.23002,1.5492472648620605,94912,1603197898.3852336,/world,vicon/testobj/testobj,-0.012020321861163787,-0.21329967149557533,1.3946469411749274,-0.0003486749931327139,-0.0008530354359161003,0.0002735053758103703,0.999999537975445,2478495.0,0.04,0.15,-0.99,-0.06,-0.06,0.0,-55.96,-0.6,-52.81,2525520.0,0.14,0.12,0.99,0.0,0.0,0.0,-3.3,35.11,17.85,73592,1603197117.2224324,body_FLU,-0.02493210606193198,0.0020753516113934632,-0.5846555503071623,0.8108957827600505,0.005149024538695812,0.00919550471007824,-0.003330658655613661,0.2810465703383088,-0.42377803876250986,9.87806219637394,6744,1603197117.2141924,rc,0.0,0.0,0.0,0.0,0.0,-10000.0
,,123157.252382,1.5716702938079834,94915,1603197898.4151976,/world,vicon/testobj/testobj,-0.012026954593499384,-0.2132968358588875,1.3946429390184276,-0.00028542773470122373,-0.0007723079810161563,0.00025235775630223236,0.999999629193408,2478505.0,0.03,0.16,-1.0,-0.06,-0.06,0.06,-56.41,0.45,-54.91,2525529.0,0.15,0.12,1.0,-0.18,-0.12,0.06,-6.0,34.36,17.85,73593,1603197117.2418625,body_FLU,-0.024950995340315068,0.0020698684264884395,-0.5846505891484313,0.8108987927507457,-0.0025985196698457003,0.004435630049556494,0.003950793761759996,0.21278236622549593,-0.369960860542953,9.93023460137844,6744,1603197117.2141924,rc,0.0,0.0,0.0,0.0,0.0,-10000.0
,,123157.275461,1.5947716236114502,94917,1603197898.435333,/world,vicon/testobj/testobj,-0.012030317976501777,-0.21330226518437123,1.3946457995855315,-0.00038171148679906576,-0.0008137639578578419,0.0002890929707541784,0.9999995542548087,2478515.0,0.05,0.15,-0.98,0.0,-0.06,-0.06,-56.26,0.0,-54.01,2525537.0,0.14,0.12,1.0,-0.06,-0.12,-0.12,-6.6,34.96,17.4,73594,1603197117.2723742,body_FLU,-0.024938778128969562,0.0020552120869705135,-0.5846372717462798,0.8109088074091797,0.001299952156841755,0.004016333259642124,0.005262982565909624,0.21122372380457818,-0.43424787756800654,9.745782237946987,6745,1603197117.2557495,rc,0.0,0.0,0.0,0.0,0.0,-10000.0
,,123157.298835,1.6180622577667236,94919,1603197898.4552603,/world,vicon/testobj/testobj,-0.01202214060681538,-0.21328937135472947,1.394633727939665,-0.00032031793185309613,-0.0007932941342879773,0.0002960704865341979,0.9999995902114691,2478525.0,0.04,0.15,-0.99,0.0,0.06,0.0,-56.56,-0.45,-53.71,2525546.0,0.14,0.13,0.98,-0.12,-0.06,0.0,-5.4,33.01,15.15,73595,1603197117.2806957,body_FLU,-0.024939251307240742,0.002060174798048404,-0.5846462367336621,0.81090231674179,0.0003483015752863139,0.007536187302321196,0.0006062056054361165,0.21284525740519167,-0.4658235216289759,9.753959077119827,6746,1603197117.2945971,rc,0.0,0.0,0.0,0.0,0.0,-10000.0
,,123157.320679,1.639906406402588,94921,1603197898.475267,/world,vicon/testobj/testobj,-0.012019005228628,-0.2132937058703392,1.3946334598006542,-0.0002387323316378373,-0.0006935853016715842,0.00027774319014258435,0.9999996924024644,2478535.0,0.03,0.15,-0.99,-0.06,-0.06,-0.06,-55.66,0.45,-52.81,2525555.0,0.13,0.12,1.0,-0.12,-0.18,0.06,-5.4,33.01,15.15,73596,1603197117.3029172,body_FLU,-0.02493183317440837,0.0020408873232879944,-0.5846460930117136,0.8109026972452588,0.0014214577386155725,0.0019587567076087,-0.00022445051581598818,0.16933861801028252,-0.4265394088178873,9.938552229166032,6746,1603197117.2945971,rc,0.0,0.0,0.0,0.0,0.0,-10000.0
,,123157.34477,1.6639976501464844,94924,1603197898.5051718,/world,vicon/testobj/testobj,-0.012017099352056377,-0.2132892287095023,1.394647564679487,-0.0003087327061500569,-0.0007685306095330592,0.00026594518122643595,0.9999996216589179,2478545.0,0.04,0.15,-1.0,-0.12,-0.12,0.0,-55.81,-0.45,-53.71,2525563.0,0.13,0.11,0.99,-0.06,-0.12,0.0,-5.85,35.56,16.65,73597,1603197117.322302,body_FLU,-0.024936565506342916,0.0020386615531460994,-0.5846507923872502,0.8108991691454494,-0.0004797036526724696,0.004902377724647522,-0.0015574023127555847,0.27058045571297407,-0.4017641177326441,9.83058079791069,6746,1603197117.2945971,rc,0.0,0.0,0.0,0.0,0.0,-10000.0
,,123157.368049,1.6872749328613281,94926,1603197898.5250323,/world,vicon/testobj/testobj,-0.012026387417999015,-0.2133112884747116,1.3946548146388111,-0.0004552335062283389,-0.0009461187779452225,0.0002804947140915196,0.9999994094720397,2478555.0,0.03,0.15,-1.0,0.0,0.0,-0.06,-55.06,-0.75,-53.71,2525572.0,0.13,0.12,0.98,-0.12,-0.06,-0.12,-5.55,33.91,17.1,73598,1603197117.350021,body_FLU,-0.024939631078419195,0.0020263754828018597,-0.5846624542023999,0.8108906974741427,0.0001446241221856326,0.008162587881088257,-0.0010491965804249048,0.25665297120809555,-0.4048306880034506,9.786932822227477,6746,1603197117.2945971,rc,0.0,0.0,0.0,0.0,0.0,-10000.0
,,123157.390243,1.7094707489013672,94928,1603197898.5450182,/world,vicon/testobj/testobj,-0.01202504739257182,-0.21329258535836626,1.3946324599286983,-0.0002804318176119925,-0.0007634238746523871,0.00025698025756961583,0.9999996362514991,2478565.0,0.05,0.14,-0.99,0.0,0.06,0.0,-55.36,0.45,-53.41,2525581.0,0.14,0.12,0.99,-0.12,-0.18,-0.06,-6.75,35.11,17.25,73600,1603197117.3777542,body_FLU,-0.02494056120031936,0.002009751207708065,-0.5846736396811374,0.8108826452509066,0.00196959194727242,0.004919751081615686,0.00039214594289660454,0.23036383739858865,-0.4803644005134702,9.925853212952614,6746,1603197117.2945971,rc,0.0,0.0,0.0,0.0,0.0,-10000.0
,,123157.413544,1.7327687740325928,94931,1603197898.5750575,/world,vicon/testobj/testobj,-0.012027883467932519,-0.21329061474871266,1.394629906136552,-0.0002459687841712422,-0.0007310384369058843,0.000276669904012933,0.9999996642679062,2478575.0,0.04,0.15,-0.98,-0.06,-0.06,0.0,-55.06,0.0,-52.96,2525590.0,0.14,0.11,0.99,-0.06,-0.06,0.06,-4.65,34.81,16.8,73603,1603197117.4110284,body_FLU,-0.024940180383812235,0.002009315449182651,-0.5846656261441732,0.8108884360128035,-0.00141026615165174,0.005780245177447796,0.0026899236254394054,0.18855390892736615,-0.37896059748530386,9.81484285068512,6746,1603197117.2945971,rc,0.0,0.0,0.0,0.0,0.0,-10000.0
,,123157.436407,1.7556359767913818,94933,1603197898.594859,/world,vicon/testobj/testobj,-0.012016131065492626,-0.2132943844009983,1.3946319311233775,-0.00039996271141054984,-0.0008563650613999488,0.00028067241656153514,0.9999995139457347,2478585.0,0.04,0.15,-1.0,0.0,-0.12,-0.18,-55.51,1.05,-54.01,2525598.0,0.14,0.12,1.0,-0.18,-0.18,0.06,-6.0,34.36,18.15,73605,1603197117.4304478,body_FLU,-0.024935058039723196,0.0019965711755501048,-0.5846715968521392,0.8108843199979058,0.00037588697159662843,0.0010227675084024668,0.0009120626491494477,0.3775702003799379,-0.43511634177714587,9.861432782649993,6746,1603197117.2945971,rc,0.0,0.0,0.0,0.0,0.0,-10000.0
,,123157.458106,1.7773349285125732,94935,1603197898.6149929,/world,vicon/testobj/testobj,-0.01203112071772973,-0.21329852201545302,1.394646934405948,-0.00036142692994654135,-0.0008697504249081752,0.00028323521175573107,0.9999995163411768,2478595.0,0.03,0.15,-0.97,-0.06,-0.06,-0.06,-56.71,1.5,-53.41,2525607.0,0.14,0.13,1.01,0.0,0.0,-0.06,-6.45,35.86,16.5,73607,1603197117.4526432,body_FLU,-0.024951066708798847,0.002007346236174864,-0.5846718369152393,0.8108836278710658,4.174612695351243e-05,0.008645804598927498,0.0007455014856532216,0.2881934181153774,-0.5338792629316449,9.796238307058811,6746,1603197117.2945971,rc,0.0,0.0,0.0,0.0,0.0,-10000.0
,,123157.480291,1.7995240688323975,94937,1603197898.6350856,/world,vicon/testobj/testobj,-0.012030536427595828,-0.21330908824587472,1.3945749042666278,-0.0004238875571418819,-0.0007220584857087031,0.00028028202760987237,0.9999996101963576,2478605.0,0.04,0.16,-0.99,0.06,0.06,0.0,-55.51,0.6,-53.71,2525616.0,0.14,0.12,1.01,-0.06,-0.06,-0.06,-6.45,35.86,16.5,73609,1603197117.4693825,body_FLU,-0.024943884195051665,0.0019957389081075817,-0.5846846801977943,0.8108746169473291,-0.00010212155757471919,0.0023122513666749,-0.003610020037740469,0.21863829267024995,-0.3863815376199782,9.761902826428413,6746,1603197117.2945971,rc,0.0,0.0,0.0,0.0,0.0,-10000.0
,,123157.503952,1.8231830596923828,94940,1603197898.665073,/world,vicon/testobj/testobj,-0.012030611100345591,-0.21330063313769745,1.394626695057701,-0.0002709266588823974,-0.0007703512985781567,0.0002834667436264084,0.999999626402044,2478615.0,0.04,0.15,-0.99,-0.12,-0.18,-0.06,-55.81,-1.2,-55.36,2525624.0,0.15,0.12,1.01,-0.18,-0.18,0.06,-6.6,34.96,17.1,73612,1603197117.5026407,body_FLU,-0.024945837631367134,0.00199440471237383,-0.5846788789995513,0.8108787430846494,0.004835886415094137,-0.0013031067792326212,0.0018477527191862464,0.25263998452574016,-0.41932191115245226,9.826746206760406,6746,1603197117.2945971,rc,0.0,0.0,0.0,0.0,0.0,-10000.0
,,123157.525942,1.8451650142669678,94942,1603197898.6849837,/world,vicon/testobj/testobj,-0.01201614511025593,-0.21329964727424347,1.3946421109467424,-0.0003462976425420512,-0.0008326035710172213,0.0002756131588106523,0.9999995554432126,2478625.0,0.05,0.14,-1.0,-0.06,-0.18,-0.06,-56.41,-1.35,-54.16,2525633.0,0.14,0.12,1.0,-0.06,-0.12,0.0,-6.6,34.21,17.1,73613,1603197117.5220459,body_FLU,-0.024950469569147884,0.0020153094218717995,-0.5846750276506516,0.810881325865828,-0.0012798195239156485,0.007216408383101225,0.0022063092328608036,0.34039218447357417,-0.37222738928720356,9.830264169573784,6746,1603197117.2945971,rc,0.0,0.0,0.0,0.0,0.0,-10000.0
,,123157.548498,1.8677256107330322,94944,1603197898.7050297,/world,vicon/testobj/testobj,-0.012021667311434737,-0.2132952151471852,1.394643812782753,-0.00036104038183398075,-0.0008156381023892978,0.0002799303351840276,0.9999995630115726,2478635.0,0.05,0.15,-1.0,-0.12,-0.12,-0.06,-57.01,0.15,-53.86,2525642.0,0.15,0.12,1.0,-0.12,-0.12,0.12,-6.45,34.36,16.8,73613,1603197117.5220459,body_FLU,-0.024950469569147884,0.0020153094218717995,-0.5846750276506516,0.810881325865828,-0.0012798195239156485,0.007216408383101225,0.0022063092328608036,0.34039218447357417,-0.37222738928720356,9.830264169573784,6747,1603197117.5359724,rc,0.0,0.0,0.0,0.0,0.0,-10000.0
,,123157.570553,1.8897855281829834,94946,1603197898.7248716,/world,vicon/testobj/testobj,-0.012024531550439168,-0.21330539783585226,1.394643545864688,-0.0004297951101970954,-0.0009123056354926297,0.0002696681492643135,0.9999994551266915,2478645.0,0.04,0.15,-1.0,-0.06,-0.06,-0.12,-55.96,-0.6,-54.46,2525688.0,0.15,0.12,0.99,-0.06,-0.12,0.12,-4.65,34.36,17.25,73614,1603197117.5497892,body_FLU,-0.024938315901933072,0.002022673194249622,-0.5846699492238884,0.8108853431081737,0.00026166989118792117,0.008889071643352509,0.002092740498483181,0.10451324701029807,-0.3633552967943251,9.844650312423706,6747,1603197117.5359724,rc,0.0,0.0,0.0,0.0,0.0,-10000.0
,,123157.59524,1.914478063583374,94949,1603197898.7549405,/world,vicon/testobj/testobj,-0.0120256796876877,-0.21330012669298212,1.3946403291382712,-0.00034827548693648944,-0.0008326368147439344,0.00028862750153703886,0.9999995510570419,2478655.0,0.03,0.15,-1.0,0.0,0.0,-0.12,-55.66,-0.9,-53.11,2525697.0,0.14,0.12,0.99,-0.12,-0.12,0.0,-4.5,35.26,17.4,73617,1603197117.5913827,body_FLU,-0.024946804565074438,0.0020254734342469907,-0.5846681578296757,0.8108863666503541,0.0035724546760320663,0.0062212031334638596,0.005784639157354832,0.2290270027667284,-0.4948842122219503,9.798601920068265,6747,1603197117.5359724,rc,0.0,0.0,0.0,0.0,0.0,-10000.0
,,123157.617075,1.936291217803955,94951,1603197898.7749338,/world,vicon/testobj/testobj,-0.012021752495504624,-0.21329612896596775,1.3946288425318014,-0.00023295369590747503,-0.000730853389693497,0.00028318880985932405,0.9999996656949423,2478665.0,0.03,0.15,-0.99,-0.06,-0.12,-0.12,-56.71,0.45,-53.41,2525705.0,0.14,0.12,0.99,-0.18,-0.12,0.0,-4.5,35.26,17.4,73619,1603197117.610805,body_FLU,-0.024942316531943978,0.0020246832300599878,-0.584680468380491,0.8108776303476424,0.0028425324708223343,0.005229338072240353,0.0007535401964560151,0.273127977501601,-0.49493164075165985,9.772550184488297,6747,1603197117.5359724,rc,0.0,0.0,0.0,0.0,0.0,-10000.0
,,123157.638322,1.9575457572937012,94953,1603197898.7949574,/world,vicon/testobj/testobj,-0.01202545777251361,-0.21329934071343476,1.3946354437300132,-0.00041555907322022494,-0.0009360767219785144,0.00027817816511499353,0.9999994368438093,2478675.0,0.04,0.16,-0.98,0.0,0.0,-0.06,-55.51,0.3,-53.26,2525714.0,0.15,0.12,0.98,-0.12,-0.12,0.0,-6.45,34.06,17.25,73621,1603197117.6302443,body_FLU,-0.02492707895032208,0.002022586302972778,-0.5846697069202376,0.8108858635402734,-0.002452875953167677,0.00161813385784626,0.0020479662343859673,0.33537366914749145,-0.45537303395569323,9.869036536216736,6747,1603197117.5359724,rc,0.0,0.0,0.0,0.0,0.0,-10000.0
,,123157.662431,1.9816553592681885,94955,1603197898.8149185,/world,vicon/testobj/testobj,-0.012024021310190624,-0.21330447225964386,1.3946476173568096,-0.00026443955804603386,-0.0007219434435637197,0.0002900019021503872,0.9999996623840836,2478685.0,0.04,0.15,-1.0,-0.06,-0.12,-0.06,-57.31,1.65,-53.71,2525722.0,0.15,0.12,1.0,-0.24,-0.12,0.06,-4.65,34.81,16.2,73624,1603197117.660719,body_FLU,-0.024920168828741936,0.00203213656734618,-0.5846558662548554,0.8108960313506925,0.004682634025812149,0.005200961604714394,0.0034666284918785095,0.1969913129210472,-0.3937290894985199,9.87949578666687,6747,1603197117.5359724,rc,0.0,0.0,0.0,0.0,0.0,-10000.0
,,123157.686756,2.0059814453125,94958,1603197898.8450043,/world,vicon/testobj/testobj,-0.012023998898717383,-0.21330490949545192,1.3946458657854544,-0.0004224050717619655,-0.0008927753144499469,0.000247984833235847,0.9999994815147234,2478695.0,0.04,0.14,-1.0,-0.06,-0.06,-0.06,-56.41,0.45,-54.46,2525731.0,0.15,0.12,1.0,0.0,0.0,-0.06,-6.6,35.26,17.4,73626,1603197117.6829185,body_FLU,-0.024925977159268375,0.002021037562832144,-0.584660290210777,0.8108926908786854,-0.0013729780912399292,0.005811242386698723,-0.0017707637744024396,0.20506197644770147,-0.3788706694878638,9.8112839949131,6747,1603197117.5359724,rc,0.0,0.0,0.0,0.0,0.0,-10000.0
,,123157.710025,2.0292561054229736,94960,1603197898.8652048,/world,vicon/testobj/testobj,-0.012023155481910417,-0.21329554679970605,1.394645358087172,-0.00035055718234645395,-0.0008684485887697455,0.0002782156512252083,0.9999995227512671,2478705.0,0.04,0.15,-0.99,-0.06,-0.24,0.0,-56.26,-0.75,-53.71,2525740.0,0.15,0.12,0.99,0.0,-0.06,-0.06,-6.75,35.11,15.9,73627,1603197117.7023287,body_FLU,-0.024920944077377813,0.002006286020586056,-0.5846468557796765,0.8109025683703526,0.0001866394013632089,0.0005668153171427548,0.005013495683670044,0.28056969271972776,-0.3686798886135221,9.838186888217926,6747,1603197117.5359724,rc,0.0,0.0,0.0,0.0,0.0,-10000.0
,,123157.732388,2.051609516143799,94963,1603197898.8951445,/world,vicon/testobj/testobj,-0.01202777010699431,-0.21331003482574848,1.394651507652585,-0.00041300157249061424,-0.0009202235396705366,0.00025469554072544894,0.9999994588741135,2478715.0,0.04,0.15,-0.99,0.06,0.06,-0.06,-55.51,0.6,-54.61,2525748.0,0.15,0.12,0.98,-0.12,-0.06,0.06,-4.95,34.06,17.85,73628,1603197117.7300956,body_FLU,-0.02491408731090114,0.002023032913285394,-0.584648930775141,0.810901241418942,-0.0014230331871658564,0.0027207271195948124,0.0024924459867179394,0.1480636181384325,-0.5059101952649653,9.84473560345173,6748,1603197117.7162225,rc,0.0,0.0,0.0,0.0,0.0,-10000.0
,,123157.755616,2.074857711791992,94965,1603197898.915103,/world,vicon/testobj/testobj,-0.012022597765208773,-0.21329565124342245,1.394636876322721,-0.00032130743246913473,-0.0008153292551629899,0.00026037801527569474,0.9999995821014269,2478725.0,0.03,0.14,-0.99,-0.06,-0.18,-0.06,-56.86,0.6,-54.61,2525757.0,0.15,0.11,1.0,-0.24,-0.12,0.0,-5.7,34.36,16.5,73630,1603197117.749475,body_FLU,-0.02490574367055929,0.0020298737759148833,-0.5846575005963087,0.810895301836894,-0.0005568047054111958,0.00795895978808403,-0.0015689609572291374,0.2526930175814778,-0.43497453083842996,9.828470721244813,6748,1603197117.7162225,rc,0.0,0.0,0.0,0.0,0.0,-10000.0
,,123157.779282,2.0985090732574463,94967,1603197898.9350903,/world,vicon/testobj/testobj,-0.01202054040484775,-0.21330083509955028,1.3946277654351629,-0.0002924816221156561,-0.0007509486629163544,0.0002715208461894011,0.9999996384034529,2478735.0,0.04,0.15,-1.0,-0.06,-0.06,-0.12,-56.41,0.75,-53.41,2525766.0,0.14,0.12,1.01,0.0,0.0,0.0,-5.7,34.36,16.5,73632,1603197117.7772427,body_FLU,-0.024905663029460456,0.002037872432645182,-0.5846593164360718,0.810893975023564,0.0015939881559461355,0.0061825914308428764,-0.0018017614493146539,0.17347691240161658,-0.38942802652716635,9.818559436440468,6748,1603197117.7162225,rc,0.0,0.0,0.0,0.0,0.0,-10000.0
