name,date,time,time_since_start,vicon_sequence,vicon_time_stamp,vicon_frame_id,vicon_child_frame_id,vicon_translation_x,vicon_translation_y,vicon_translation_z,vicon_rotation_x,vicon_rotation_y,vicon_rotation_z,vicon_rotation_w,int_imu_time_stamp,int_imu_acc_x,int_imu_acc_y,int_imu_acc_z,int_imu_gyro_x,int_imu_gyro_y,int_imu_gyro_z,int_imu_mag_x,int_imu_mag_y,int_imu_mag_z,ext_imu_time_stamp,ext_imu_acc_x,ext_imu_acc_y,ext_imu_acc_z,ext_imu_gyro_x,ext_imu_gyro_y,ext_imu_gyro_z,ext_imu_mag_x,ext_imu_mag_y,ext_imu_mag_z,dji_imu_sequence,dji_imu_time_stamp,dji_imu_frame_id,dji_imu_orientation_x,dji_imu_orientation_y,dji_imu_orientation_z,dji_imu_orientation_w,dji_imu_ang_vel_x,dji_imu_ang_vel_y,dji_imu_ang_vel_z,dji_imu_lin_acc_x,dji_imu_lin_acc_y,dji_imu_lin_acc_z,rc_sequence,rc_time_stamp,rc_frame_id,rc_roll,rc_pitch,rc_yaw,rc_throttle,rc_mode,rc_landing_gear
/root/Desktop/transfer/20102020/Test3.csv,20201020,124641.40524,0.0002589225769042969,183330,1603198782.5590682,/world,vicon/testobj/testobj,-0.02565032316495977,-0.14728008591431302,1.3937871801386006,-0.00047030306338441695,0.00045713966283188927,-0.004349274594837605,0.9999903267776423,3104566.0,0.04,0.15,-0.99,0.06,0.06,0.0,-56.56,1.05,-52.21,3396578.0,0.15,0.12,0.98,-0.06,-0.12,0.06,-5.85,34.21,17.4,132198,1603198001.3876443,body_FLU,-0.02501716212430544,0.0020542636808673154,-0.5863897086320966,0.8096400627503192,0.005730786360800266,-3.239029319956899e-05,-0.00026199687272310257,0.2134055822174996,-0.5083782678768038,9.80589780807495,12229,1603198001.351684,rc,0.0,0.0,0.0,0.0,0.0,-10000.0
,,124641.433164,0.02820420265197754,183333,1603198782.5891669,/world,vicon/testobj/testobj,-0.025650273327526164,-0.14728713169058216,1.3937744091009954,-0.0005810198978742631,0.0003705061080080004,-0.0043398553907615855,0.9999903453515386,3104576.0,0.04,0.16,-1.0,0.06,-0.06,0.12,-54.76,0.6,-53.71,3396587.0,0.14,0.12,0.99,0.0,0.0,0.0,-6.0,34.81,15.9,132201,1603198001.426413,body_FLU,-0.025022339788427543,0.0020645500525816765,-0.5863926008259887,0.8096377818760225,0.002089026616886258,0.0030307667329907417,-0.00047383527271449566,0.162675439003855,-0.2883163160607219,10.03231744658947,12229,1603198001.351684,rc,0.0,0.0,0.0,0.0,0.0,-10000.0
,,124641.462552,0.05758190155029297,183336,1603198782.6194015,/world,vicon/testobj/testobj,-0.025638089436958007,-0.14727215430635884,1.393793366922941,-0.0005524687573594622,0.0003995747271017194,-0.004337752966095963,0.9999903594622874,3104587.0,0.04,0.16,-1.0,0.0,-0.06,-0.06,-56.71,0.75,-53.41,3396595.0,0.14,0.12,0.99,-0.06,-0.18,0.0,-4.65,33.76,16.8,132204,1603198001.459678,body_FLU,-0.025006806322895567,0.0020874779599690248,-0.5863675932665979,0.8096563145187183,-0.00030791282188147306,0.002460588002577424,0.00456859078258276,0.2656268031913787,-0.459034414216876,9.755241363465785,12229,1603198001.351684,rc,0.0,0.0,0.0,0.0,0.0,-10000.0
,,124641.487026,0.08206558227539062,183338,1603198782.6392102,/world,vicon/testobj/testobj,-0.025654610675362573,-0.14727594450450876,1.39378251132092,-0.0005846422837883017,0.00035759639675070066,-0.004336285103165752,0.9999903634284287,3104596.0,0.04,0.15,-1.0,-0.06,-0.06,0.0,-56.26,-1.8,-52.96,3396639.0,0.14,0.13,1.0,-0.18,-0.12,-0.12,-5.55,34.51,18.0,132204,1603198001.459678,body_FLU,-0.025006806322895567,0.0020874779599690248,-0.5863675932665979,0.8096563145187183,-0.00030791282188147306,0.002460588002577424,0.00456859078258276,0.2656268031913787,-0.459034414216876,9.755241363465785,12229,1603198001.351684,rc,0.0,0.0,0.0,0.0,0.0,-10000.0
,,124641.510963,0.10598540306091309,183340,1603198782.6591022,/world,vicon/testobj/testobj,-0.025651234376591794,-0.14727679386971101,1.3937937738184663,-0.0005972323482716424,0.0003220510464554547,-0.004354859337699394,0.9999902873512294,3104606.0,0.04,0.15,-0.99,0.0,0.12,0.0,-57.31,0.0,-54.01,3396647.0,0.14,0.13,0.99,0.06,-0.06,0.06,-4.8,34.96,17.7,132206,1603198001.5068326,body_FLU,-0.02498798578846245,0.0021145916091728435,-0.5863796312934191,0.8096481069407597,0.003009140957146883,0.010440291836857796,0.000465112563688308,0.2939183227904141,-0.3926557588689029,9.879500460147858,12229,1603198001.351684,rc,0.0,0.0,0.0,0.0,0.0,-10000.0
,,124641.53541,0.13047337532043457,183343,1603198782.6891716,/world,vicon/testobj/testobj,-0.025644549425360392,-0.14727734614381896,1.3937845427072502,-0.0005971714223189153,0.0003373296642523664,-0.004352225448127312,0.9999902938172143,3104616.0,0.04,0.15,-1.0,0.0,0.06,-0.06,-56.56,0.3,-52.96,3396656.0,0.13,0.12,1.0,0.06,0.0,-0.06,-6.75,33.31,17.25,132208,1603198001.526272,body_FLU,-0.024973676148399772,0.0021139040222421294,-0.5863757248035271,0.8096513794656055,-0.0013561372179538012,0.0030994084663689137,-0.0018924594623968005,0.34169528241455555,-0.4128337321020663,9.873600190401078,12229,1603198001.351684,rc,0.0,0.0,0.0,0.0,0.0,-10000.0
,,124641.557928,0.1529526710510254,183345,1603198782.709145,/world,vicon/testobj/testobj,-0.025648622417154026,-0.14727556837756392,1.3937824464358548,-0.0005342106560528983,0.00040695410647563257,-0.0043443058376664,0.999990337960382,3104627.0,0.04,0.15,-1.0,0.0,0.06,-0.06,-55.51,1.35,-53.71,3396665.0,0.14,0.12,1.0,-0.06,-0.06,0.0,-6.75,35.41,17.55,132209,1603198001.5401125,body_FLU,-0.02495835012987142,0.0021304650666922865,-0.5863750101096975,0.8096523262464244,0.0007484977832064033,0.009984064847230911,-0.0006516382563859224,0.2655778959430754,-0.37916374786198137,9.908181612968445,12229,1603198001.351684,rc,0.0,0.0,0.0,0.0,0.0,-10000.0
,,124641.581679,0.1767115592956543,183348,1603198782.7391567,/world,vicon/testobj/testobj,-0.02564610101962238,-0.14726429167223817,1.3937862686868134,-0.0005624442018957528,0.0003754957769304479,-0.004334120645698893,0.9999903789825529,3104636.0,0.03,0.15,-1.0,-0.06,-0.12,-0.06,-56.41,-0.6,-53.11,3396673.0,0.15,0.12,0.99,-0.06,-0.06,0.06,-5.1,34.51,16.35,132210,1603198001.559541,body_FLU,-0.024931726548941307,0.002114412391676322,-0.5863663923562257,0.8096594297522087,0.0020754982251673937,0.001042036572471261,0.0030558165162801743,0.27858256876654924,-0.40720310030132534,9.978941620230675,12230,1603198001.5734174,rc,0.0,0.0,0.0,0.0,0.0,-10000.0
,,124641.604881,0.1999049186706543,183350,1603198782.7591262,/world,vicon/testobj/testobj,-0.025650807721080155,-0.14726832252801542,1.3937963714890715,-0.0005489363790590802,0.00033783502271680335,-0.004342303302481375,0.999990364422767,3104646.0,0.03,0.15,-0.99,-0.06,-0.18,0.06,-56.26,-0.75,-52.96,3396682.0,0.14,0.12,0.99,-0.06,-0.18,-0.06,-5.55,34.96,16.35,132211,1603198001.5872977,body_FLU,-0.02490951750003395,0.002118562625707478,-0.5863675227547349,0.8096592838279518,0.005130935460329056,0.002685028128325939,0.0019919672049582005,0.17335050934553148,-0.4053605073988438,9.800782683134079,12230,1603198001.5734174,rc,0.0,0.0,0.0,0.0,0.0,-10000.0
,,124641.628054,0.22307753562927246,183352,1603198782.7794278,/world,vicon/testobj/testobj,-0.025663301904655458,-0.14727822763795811,1.3938154126913462,-0.0006137684872791402,0.00032597975286481574,-0.00437363573647049,0.9999901941198671,3104656.0,0.03,0.15,-1.0,-0.12,-0.06,0.0,-56.71,1.2,-53.11,3396691.0,0.13,0.12,0.98,-0.06,-0.06,0.06,-5.55,34.96,17.7,132212,1603198001.6177664,body_FLU,-0.024909870763014718,0.0021363881320498957,-0.5863781820353546,0.8096515064008907,-0.0015010202769190073,0.0026401313953101635,0.0007833302370272577,0.25007033672556284,-0.4332348275408149,9.882256645560265,12230,1603198001.5734174,rc,0.0,0.0,0.0,0.0,0.0,-10000.0
,,124641.650636,0.2456798553466797,183354,1603198782.7993977,/world,vicon/testobj/testobj,-0.02565013678793472,-0.14727218113774157,1.393789327682331,-0.0005028258911486914,0.0004704827963417595,-0.004354011904548528,0.9999902841489994,3104666.0,0.04,0.15,-0.99,0.0,0.0,0.0,-56.71,-0.3,-55.51,3396699.0,0.14,0.12,1.0,0.0,0.0,-0.06,-4.65,35.41,16.5,132213,1603198001.6399531,body_FLU,-0.02489499457807239,0.0021178539723767016,-0.5863755352641986,0.8096539295175034,-0.002199335489422083,0.005226438865065575,0.002440508222207427,0.16394288339652122,-0.3500468294508755,9.886631023764611,12231,1603198001.631689,rc,0.0,0.0,0.0,0.0,0.0,-10000.0
,,124641.675394,0.2704732418060303,183357,1603198782.8294687,/world,vicon/testobj/testobj,-0.0256454863078919,-0.1472769992948614,1.3937729203201201,-0.0004986747122732702,0.00045644696957119834,-0.0043357759341875225,0.9999903719670225,3104676.0,0.04,0.16,-0.99,-0.12,-0.06,0.0,-56.71,-0.9,-52.81,3396708.0,0.14,0.12,1.0,0.06,0.0,0.06,-5.7,35.11,17.55,132214,1603198001.659387,body_FLU,-0.02488651866190078,0.002126291318229025,-0.5863821833117746,0.8096493532194275,-0.0019427186343818903,-0.00029587987228296697,-0.00045910547487437725,0.2070558002740145,-0.42744924063608053,9.72052090483904,12232,1603198001.673274,rc,0.0,0.0,0.0,0.0,0.0,-10000.0
,,124641.697605,0.2926292419433594,183359,1603198782.8492036,/world,vicon/testobj/testobj,-0.025649207619286126,-0.14727193663025792,1.3937900543500383,-0.0005792445248827755,0.0003087106563114728,-0.004345891419531285,0.9999903411539937,3104686.0,0.04,0.15,-0.99,-0.12,-0.06,-0.06,-55.36,-0.3,-53.41,3396716.0,0.14,0.12,1.01,-0.12,-0.24,0.0,-5.4,33.31,17.85,132215,1603198001.6871169,body_FLU,-0.024863391486410372,0.002113407407060905,-0.5863678231850742,0.8096604974964031,-0.004176935646682978,0.005554347764700651,0.0018947998760268092,0.24077733885124325,-0.4959170150086284,9.825799826860427,12232,1603198001.673274,rc,0.0,0.0,0.0,0.0,0.0,-10000.0
,,124641.720422,0.3154604434967041,183361,1603198782.8693523,/world,vicon/testobj/testobj,-0.025636071784874145,-0.14727878193414295,1.3937830325805713,-0.0006223492802526529,0.0003154258051778799,-0.0043236460435002785,0.9999904095904246,3104696.0,0.04,0.15,-0.99,-0.06,-0.06,0.06,-56.41,0.75,-52.51,3396725.0,0.14,0.12,0.99,0.12,0.0,0.0,-6.75,35.41,16.2,132217,1603198001.7176049,body_FLU,-0.024838221375437508,0.0020983137451721914,-0.5863845627179565,0.8096491860333107,0.003234592732042074,0.006193110719323158,-0.0024458440020680428,0.2745102690383792,-0.40405361225456,9.90676087474823,12232,1603198001.673274,rc,0.0,0.0,0.0,0.0,0.0,-10000.0
,,124641.744198,0.33924365043640137,183364,1603198782.899372,/world,vicon/testobj/testobj,-0.025646610013723765,-0.1472778456967505,1.3937982263764674,-0.0005580024703558623,0.0003763300413116903,-0.004358603917343147,0.9999902747431271,3104706.0,0.04,0.15,-0.99,0.0,0.06,-0.06,-56.41,-0.6,-52.51,3396734.0,0.13,0.12,1.0,-0.06,-0.24,-0.06,-5.7,35.11,17.55,132219,1603198001.739831,body_FLU,-0.024818978664605737,0.0020895340265181493,-0.5863694942599239,0.809660711870694,0.0008063420536927879,0.007102536037564278,0.006803816184401512,0.20483461889997126,-0.38240937087312343,9.936744760394097,12232,1603198001.673274,rc,0.0,0.0,0.0,0.0,0.0,-10000.0
,,124641.766252,0.36127758026123047,183366,1603198782.9191084,/world,vicon/testobj/testobj,-0.025646197461855397,-0.1472750117027091,1.3937981211013912,-0.0006328008226137806,0.0002883136833127774,-0.004365338242984531,0.999990230082456,3104717.0,0.04,0.15,-1.0,-0.12,-0.12,0.0,-56.71,0.45,-54.16,3396742.0,0.14,0.13,1.0,-0.06,-0.06,-0.06,-5.1,33.16,16.35,132220,1603198001.7592096,body_FLU,-0.024790559030043912,0.0020856089227606423,-0.5863817614723326,0.8096527084071315,-0.00157500384375453,0.0034554824233055115,0.0005929626640863717,0.18263514607027173,-0.37270521620661023,9.890484308838845,12232,1603198001.673274,rc,0.0,0.0,0.0,0.0,0.0,-10000.0
,,124641.788287,0.38332629203796387,183368,1603198782.9392045,/world,vicon/testobj/testobj,-0.025648909312127658,-0.14727065845076226,1.393792457393625,-0.0005575514977050997,0.0004109814345352026,-0.004341476102959606,0.9999903358612199,3104726.0,0.04,0.15,-0.99,-0.18,-0.12,-0.12,-57.01,-0.9,-53.41,3396751.0,0.13,0.12,0.99,-0.06,-0.06,0.06,-5.1,33.16,16.35,132220,1603198001.7592096,body_FLU,-0.024790559030043912,0.0020856089227606423,-0.5863817614723326,0.8096527084071315,-0.00157500384375453,0.0034554824233055115,0.0005929626640863717,0.18263514607027173,-0.37270521620661023,9.890484308838845,12233,1603198001.7730742,rc,0.0,0.0,0.0,0.0,0.0,-10000.0
,,124641.810948,0.40598535537719727,183370,1603198782.9594274,/world,vicon/testobj/testobj,-0.025646471437154695,-0.1472829151145866,1.3937825934476673,-0.0004841833113703434,0.0004814460488155136,-0.004345143620161912,0.9999903267047853,3104736.0,0.04,0.16,-1.0,0.0,0.0,-0.12,-55.66,0.45,-53.11,3396760.0,0.15,0.11,1.0,-0.18,-0.12,0.06,-6.6,33.46,16.65,132223,1603198001.8091626,body_FLU,-0.02477770320892393,0.0020826549376403245,-0.5863818199828109,0.809653067162564,-0.0018613231368362904,0.005744162015616894,0.0018678975757211447,0.33132128648087383,-0.5402714165523649,9.868742106914521,12233,1603198001.7730742,rc,0.0,0.0,0.0,0.0,0.0,-10000.0
,,124641.835655,0.4306786060333252,183373,1603198782.9891863,/world,vicon/testobj/testobj,-0.025645119310491137,-0.14728070878247715,1.3937924328368123,-0.0006363021208624004,0.0002738616773827607,-0.004324862358299082,0.999990407796482,3104746.0,0.03,0.15,-1.0,0.0,-0.18,0.0,-57.01,1.2,-53.86,3396804.0,0.14,0.12,1.0,-0.06,-0.06,0.06,-4.65,34.81,18.15,132224,1603198001.8174884,body_FLU,-0.024769337492349417,0.002094981499131605,-0.5863893854850061,0.8096478120536271,-0.0002004175039473921,0.006337357684969902,-0.00020156243408564478,0.3000680030733347,-0.5680245182812214,9.862416550397873,12234,1603198001.8313248,rc,0.0,0.0,0.0,0.0,0.0,-10000.0
,,124641.858185,0.45320558547973633,183375,1603198783.916154,/world,vicon/testobj/testobj,-0.02564482700750189,-0.14727598784415669,1.3937974737428833,-0.000540928766994437,0.0003991650708555385,-0.004333014503657427,0.9999903864781032,3104756.0,0.04,0.15,-0.98,-0.06,-0.12,-0.06,-55.96,-0.3,-52.06,3396813.0,0.15,0.11,1.0,0.0,0.06,-0.12,-5.55,33.16,16.05,132225,1603198001.839674,body_FLU,-0.02475235589997298,0.002088386803856726,-0.5863833920079136,0.8096526891792876,-0.0018192967399954796,0.004824403673410416,-0.0016991478623822331,0.17905215615034104,-0.3707927036471665,9.843678228378296,12235,1603198001.853502,rc,0.0,0.0,0.0,0.0,0.0,-10000.0
,,124641.881586,0.47661399841308594,183378,1603198783.3918571,/world,vicon/testobj/testobj,-0.025646919759038773,-0.14727994675103828,1.3938018068934015,-0.00046927398730970814,0.00048509196876936507,-0.004338925649899219,0.9999903590494817,3104766.0,0.04,0.16,-1.0,0.0,-0.06,0.0,-56.26,-0.45,-54.61,3396822.0,0.14,0.13,1.0,-0.12,-0.12,0.0,-5.55,33.16,16.05,132226,1603198001.867521,body_FLU,-0.024747799462285877,0.002103604508452388,-0.5863966213972602,0.8096432076437898,0.002628627000376582,0.0004990958259440958,-0.0007093975436873734,0.1526956311101094,-0.5110524117909372,9.753169258832932,12235,1603198001.853502,rc,0.0,0.0,0.0,0.0,0.0,-10000.0
,,124641.905983,0.5010097026824951,183380,1603198783.594363,/world,vicon/testobj/testobj,-0.025641507018183324,-0.14727405203077568,1.3937963226172054,-0.0005880067621161091,0.00032006070026415503,-0.004334449730254841,0.9999903821311142,3104776.0,0.05,0.15,-1.0,-0.06,-0.06,0.0,-55.96,-0.3,-53.86,3396830.0,0.14,0.12,0.99,-0.06,-0.12,0.06,-6.45,35.41,17.25,132228,1603198001.8950968,body_FLU,-0.024727500707881475,0.0021106957345445668,-0.5864015156804206,0.8096402646113664,-0.00024002784630283713,0.0038169249892234802,0.001998488325625658,0.22453480172529816,-0.46920285001024603,9.83248757815361,12235,1603198001.853502,rc,0.0,0.0,0.0,0.0,0.0,-10000.0
,,124641.928967,0.5240151882171631,183382,1603198783.7931962,/world,vicon/testobj/testobj,-0.025646171775822235,-0.1472821019013286,1.393785256126099,-0.000623912167709427,0.000365014113532031,-0.0043465308992762545,0.9999902925366053,3104787.0,0.04,0.15,-1.0,-0.12,-0.12,-0.18,-55.06,0.3,-53.26,3396839.0,0.15,0.12,1.0,-0.12,-0.06,-0.06,-5.4,34.81,16.8,132230,1603198001.914531,body_FLU,-0.024701743941127757,0.002110400725917326,-0.5863987077444475,0.8096430853225915,0.0027996774297207594,0.007447465788573027,0.0019305100431665778,0.2156292646341026,-0.5360162486247718,9.866148324966431,12235,1603198001.853502,rc,0.0,0.0,0.0,0.0,0.0,-10000.0
,,124641.953812,0.548839807510376,183385,1603198783.1093,/world,vicon/testobj/testobj,-0.025644873875460047,-0.14727774122829418,1.3937837905903228,-0.0005333720650383731,0.00041299450421950894,-0.00433547624283027,0.9999903742514363,3104797.0,0.04,0.16,-0.99,0.06,0.0,-0.06,-56.26,-0.45,-53.71,3396848.0,0.15,0.12,0.99,-0.06,-0.06,0.12,-6.0,34.81,16.2,132233,1603198001.9478123,body_FLU,-0.02467637191867625,0.0021026694457514134,-0.5863876532405845,0.8096518854280113,0.006446119397878647,0.005833346396684647,0.00367734394967556,0.24523405064642428,-0.4796275240033865,9.951344714999198,12235,1603198001.853502,rc,0.0,0.0,0.0,0.0,0.0,-10000.0
,,124641.976957,0.5719845294952393,183387,1603198783.1293397,/world,vicon/testobj/testobj,-0.02564069276864373,-0.14726786613807363,1.3937920262938137,-0.0005077135626093234,0.00043899773467151747,-0.004347056017195762,0.9999903262591646,3104806.0,0.04,0.15,-1.0,0.12,0.06,-0.12,-56.26,0.0,-52.96,3396856.0,0.16,0.12,0.99,-0.12,-0.12,0.06,-6.15,32.86,17.4,132234,1603198001.9672034,body_FLU,-0.024681844417811374,0.0021056418905086127,-0.5863969155083791,0.8096450026466061,-0.0017234067199751735,0.0010548760183155537,-0.0029801693744957447,0.13655594707746058,-0.42979003391414883,9.888915187597275,12235,1603198001.853502,rc,0.0,0.0,0.0,0.0,0.0,-10000.0
,,124642.000848,0.5960323810577393,183389,1603198783.1491904,/world,vicon/testobj/testobj,-0.025642121793091124,-0.14728187330582132,1.3937896971426853,-0.000537603196180101,0.00039164442525741784,-0.004322850062466597,0.9999904352366502,3104816.0,0.04,0.14,-0.98,-0.12,-0.18,-0.12,-55.81,1.65,-54.01,3396865.0,0.16,0.12,1.0,-0.06,-0.12,-0.12,-4.8,34.96,16.65,132236,1603198001.9949846,body_FLU,-0.024663818513377657,0.0021171429175991605,-0.5864013349716118,0.8096423210935288,-0.00022731340141035616,0.0019594018813222647,-0.000508640892803669,0.3392342200241983,-0.4878060061968863,9.930800092577934,12235,1603198001.853502,rc,0.0,0.0,0.0,0.0,0.0,-10000.0
,,124642.025461,0.620488166809082,183392,1603198783.1790707,/world,vicon/testobj/testobj,-0.025647000945650648,-0.14726905660769257,1.3937944467206191,-0.00048704682228080983,0.00044615180774321665,-0.004348536691657985,0.9999903269345152,3104826.0,0.04,0.15,-0.99,-0.06,-0.06,0.0,-55.96,0.45,-54.16,3396874.0,0.15,0.12,1.0,0.0,0.0,-0.24,-6.15,34.96,18.0,132238,1603198002.17189,body_FLU,-0.02465956614780446,0.0021356558516215157,-0.5863932342381908,0.8096482690719223,0.00016268303443212062,0.009084711782634258,0.002611262258142233,0.22179044606164097,-0.4241819297522306,9.8697258746624,12235,1603198001.853502,rc,0.0,0.0,0.0,0.0,0.0,-10000.0
,,124642.0485,0.6435282230377197,183394,1603198783.199302,/world,vicon/testobj/testobj,-0.025638362715533,-0.14728271638247128,1.393787958387692,-0.0005748937021064518,0.0003744852969544383,-0.004353506076253184,0.9999902880742582,3104837.0,0.04,0.15,-0.98,-0.06,-0.18,0.0,-55.96,-0.3,-53.11,3396882.0,0.15,0.12,1.0,-0.12,0.0,0.0,-5.85,35.26,16.35,132240,1603198002.365917,body_FLU,-0.024647219593335636,0.002132269487839918,-0.5864123231737406,0.8096348283165231,-0.00018568628001958132,0.00405507255345583,-0.002869613468647003,0.18403417816199363,-0.34606265039741996,9.828939237713813,12235,1603198001.853502,rc,0.0,0.0,0.0,0.0,0.0,-10000.0
,,124642.072794,0.6678223609924316,183397,1603198783.2291598,/world,vicon/testobj/testobj,-0.025651167679509236,-0.14726569275286222,1.3937933521131947,-0.0005274235977386196,0.00040459526707284273,-0.004361151602961893,0.999990269194513,3104846.0,0.04,0.16,-0.99,0.0,0.06,-0.06,-55.96,-0.6,-52.06,3396891.0,0.15,0.12,0.99,0.06,0.0,0.0,-5.85,35.26,16.35,132243,1603198002.6982555,body_FLU,-0.024648078085296572,0.002141248175669461,-0.5864017170188373,0.8096424603368519,0.004514566157013178,0.00040888352668844163,0.0032792966812849045,0.27295637312158944,-0.4647549375034869,9.900132710337639,12235,1603198001.853502,rc,0.0,0.0,0.0,0.0,0.0,-10000.0
,,124642.096203,0.6912317276000977,183399,1603198783.249427,/world,vicon/testobj/testobj,-0.025646480103993154,-0.1472836619014449,1.3937860377567561,-0.0005784055288093075,0.00039280340035027073,-0.004360311520726717,0.9999902493704501,3104856.0,0.05,0.16,-0.99,-0.12,-0.06,-0.06,-54.91,0.45,-52.81,3396899.0,0.15,0.12,0.99,-0.06,-0.06,0.0,-6.9,34.51,16.05,132243,1603198002.6982555,body_FLU,-0.024648078085296572,0.002141248175669461,-0.5864017170188373,0.8096424603368519,0.004514566157013178,0.00040888352668844163,0.0032792966812849045,0.27295637312158944,-0.4647549375034869,9.900132710337639,12235,1603198001.853502,rc,0.0,0.0,0.0,0.0,0.0,-10000.0
,,124642.120214,0.7153933048248291,183401,1603198783.2694292,/world,vicon/testobj/testobj,-0.025655866809790928,-0.1472740698687618,1.3937879328757707,-0.0005662499792621935,0.00038517606470232725,-0.004356800519074145,0.9999902745975068,3104866.0,0.04,0.15,-0.99,0.0,-0.06,0.0,-56.41,-0.9,-53.41,3396908.0,0.15,0.12,0.99,0.0,-0.12,-0.06,-6.6,34.21,17.1,132244,1603198002.9758816,body_FLU,-0.02464445065179678,0.002149016351557579,-0.5863982990679442,0.8096450256939852,-0.0030968240462243557,0.004204395227134228,0.0019017283339053392,0.2903418319299817,-0.38461532692238687,9.911236901164054,12236,1603198002.1114707,rc,0.0,0.0,0.0,0.0,0.0,-10000.0
,,124642.144836,0.7398676872253418,183404,1603198783.299337,/world,vicon/testobj/testobj,-0.025647724994557728,-0.1472873899518517,1.393785735494709,-0.0005104531305401749,0.00041726923156269096,-0.004351266644310153,0.9999903158543987,3104876.0,0.04,0.15,-1.0,0.06,0.0,0.0,-57.61,1.65,-53.26,3396917.0,0.15,0.13,0.99,-0.12,-0.24,0.06,-5.55,33.16,17.1,132246,1603198002.1392071,body_FLU,-0.024631700716789322,0.0021366423704322875,-0.586396021187095,0.8096470962185459,-0.0009754264610819519,0.001991803292185068,0.0026892153546214104,0.372739792663604,-0.4509551704712212,10.051740433573723,12236,1603198002.1114707,rc,0.0,0.0,0.0,0.0,0.0,-10000.0
,,124642.169295,0.7643189430236816,183406,1603198783.3191314,/world,vicon/testobj/testobj,-0.02564356295210165,-0.14727579395936957,1.3937920798681898,-0.0006217281907811261,0.00030908134295248553,-0.004342448485617553,0.9999903304852152,3104887.0,0.04,0.15,-1.0,0.0,0.0,-0.06,-55.66,-0.3,-53.41,3396925.0,0.14,0.12,1.0,0.0,-0.06,0.12,-5.85,34.96,18.0,132247,1603198002.1669068,body_FLU,-0.024612171651229166,0.0021411018681710306,-0.5863987153691236,0.809645727033029,-0.002117159077897668,0.0033594579435884953,0.0022412759717553854,0.25891942692920566,-0.4027630012705922,9.910551067829132,12237,1603198002.15304,rc,0.0,0.0,0.0,0.0,0.0,-10000.0
,,124642.193052,0.788074254989624,183409,1603198783.3495047,/world,vicon/testobj/testobj,-0.025644195628448118,-0.1472769811504475,1.3937990700558827,-0.0006568620855122866,0.00031853213005940146,-0.004350090210616983,0.9999902718450027,3104896.0,0.03,0.16,-1.0,0.0,-0.12,0.06,-55.36,0.45,-55.21,3396968.0,0.14,0.12,0.99,0.0,0.0,0.0,-2.4,34.51,18.75,132248,1603198002.1890745,body_FLU,-0.02461983691319044,0.002156774007290775,-0.5864023877865758,0.8096427925662352,0.0007859640172682703,0.006241194438189268,-0.0009101103059947491,0.21692484119161964,-0.473256474070251,9.964055414915086,12237,1603198002.15304,rc,0.0,0.0,0.0,0.0,0.0,-10000.0
,,124642.216156,0.8111801147460938,183411,1603198783.369399,/world,vicon/testobj/testobj,-0.02565267898020164,-0.14728184788913393,1.3937861861915755,-0.0005075248653912581,0.00044710479158184156,-0.00434441335914832,0.9999903342474772,3104906.0,0.03,0.15,-1.0,-0.06,-0.12,0.0,-56.41,0.45,-53.86,3396977.0,0.13,0.12,1.0,-0.06,-0.12,0.0,-5.1,33.91,17.1,132250,1603198002.2085254,body_FLU,-0.024622620793377178,0.0021645790372902055,-0.586388005093126,0.8096531038820024,-0.004325275309383869,0.0010618754895403981,0.000600883737206459,0.28824822198227046,-0.26059494288638235,9.942972173810006,12237,1603198002.15304,rc,0.0,0.0,0.0,0.0,0.0,-10000.0
,,124642.239553,0.8346133232116699,183413,1603198783.3892467,/world,vicon/testobj/testobj,-0.02564773260612602,-0.14727910681145676,1.3937948509064508,-0.0006581354208470627,0.00025888375844857305,-0.004348660962082813,0.9999902944453033,3104917.0,0.04,0.15,-0.99,-0.12,-0.12,-0.06,-56.26,-0.45,-52.96,3396985.0,0.14,0.13,1.0,-0.06,-0.12,-0.06,-5.7,33.76,15.9,132252,1603198002.227913,body_FLU,-0.024630857340879036,0.0021854431133084837,-0.5863853054376779,0.8096547525160418,-0.002572168130427599,0.005805574357509613,0.003855806542560458,0.3568716086670756,-0.29771421167626977,9.91707875239849,12237,1603198002.15304,rc,0.0,0.0,0.0,0.0,0.0,-10000.0
,,124642.262232,0.8572556972503662,183416,1603198783.4191618,/world,vicon/testobj/testobj,-0.025649099196829218,-0.14728847997257072,1.3937908471542053,-0.0006000765194792819,0.0002973478526858301,-0.0043320729946467644,0.9999903922718429,3104927.0,0.04,0.15,-0.99,-0.12,-0.12,0.06,-55.81,1.65,-53.26,3396994.0,0.14,0.13,1.0,-0.12,-0.06,0.06,-5.7,34.36,17.25,132253,1603198002.2473254,body_FLU,-0.024621428903574667,0.002182351725407022,-0.5863994078591315,0.8096448338883864,0.0010607978329062462,0.005092890001833439,-0.0034816726110875607,0.31165429267287253,-0.3860854652971029,9.892107175111772,12237,1603198002.15304,rc,0.0,0.0,0.0,0.0,0.0,-10000.0
,,124642.284604,0.8796324729919434,183418,1603198783.4391794,/world,vicon/testobj/testobj,-0.025648350377861208,-0.14727780698086373,1.3937952574292498,-0.0005233840993186153,0.00041731203824515957,-0.0043431301644357885,0.9999903445234469,3104937.0,0.04,0.15,-1.0,-0.06,-0.12,0.0,-55.66,-0.6,-52.51,3397003.0,0.14,0.11,0.99,0.0,-0.06,0.06,-5.1,36.31,16.65,132254,1603198002.266776,body_FLU,-0.024624194301880023,0.002207368703821914,-0.586393063176171,0.8096492771794807,0.0006910711526870728,0.004332093521952629,0.0026656927075237036,0.2625230276305229,-0.4826932910196483,9.856381918072701,12237,1603198002.15304,rc,0.0,0.0,0.0,0.0,0.0,-10000.0
,,124642.307478,0.9025354385375977,183420,1603198783.459129,/world,vicon/testobj/testobj,-0.025649302863661266,-0.14727360742848744,1.3937784910532118,-0.0004875625704297985,0.0004448108007028794,-0.004335446441534664,0.9999903841188894,3104946.0,0.04,0.16,-0.99,-0.06,0.0,0.06,-57.46,-0.3,-54.16,3397011.0,0.14,0.13,0.99,0.0,-0.06,0.06,-5.1,36.31,16.65,132256,1603198002.2945254,body_FLU,-0.024615254565024548,0.002236091840715696,-0.5863921938911925,0.8096500997835134,0.0014706682413816452,0.007647110149264336,0.0024717601481825113,0.28857930890098216,-0.37119049720466135,9.733516687095165,12237,1603198002.15304,rc,0.0,0.0,0.0,0.0,0.0,-10000.0
,,124642.332319,0.9273405075073242,183423,1603198783.4891763,/world,vicon/testobj/testobj,-0.025647495409365822,-0.14728522518631787,1.393800768384764,-0.0005916241115712259,0.0003268555089463483,-0.0043455527723132836,0.9999903296119868,3104956.0,0.04,0.16,-0.99,-0.06,-0.06,0.0,-55.81,0.3,-53.26,3397020.0,0.14,0.12,1.01,0.0,0.0,0.06,-5.85,33.16,16.05,132259,1603198002.3277676,body_FLU,-0.024613329094138277,0.002249340329188026,-0.5863988981698629,0.8096452659802057,-0.002245107898488641,0.007442628964781761,0.0001951265148818493,0.2703409215565771,-0.3786649998128414,9.926270321130753,12237,1603198002.15304,rc,0.0,0.0,0.0,0.0,0.0,-10000.0
,,124642.355092,0.9501183032989502,183425,1603198783.5094128,/world,vicon/testobj/testobj,-0.02565377949370441,-0.14727683372148956,1.3937871806952309,-0.0005708095636129244,0.0003470401798032254,-0.004355408394800739,0.9999902920315128,3104967.0,0.03,0.15,-0.99,0.0,0.06,0.06,-55.96,-0.3,-53.41,3397028.0,0.13,0.12,1.0,-0.06,-0.06,-0.12,-5.4,35.41,16.8,132260,1603198002.3471859,body_FLU,-0.024626299081474814,0.0022489386729776543,-0.5864019789344322,0.809642641398152,-0.0010715246899053454,0.0027176514267921448,0.0009323664125986397,0.3420637206695974,-0.4491265615001321,9.766314008295536,12237,1603198002.15304,rc,0.0,0.0,0.0,0.0,0.0,-10000.0
,,124642.37747,0.9725003242492676,183427,1603198783.5293636,/world,vicon/testobj/testobj,-0.02564565721747447,-0.14726765687634863,1.3937976403842365,-0.0005707465171735626,0.0003640220246360102,-0.004357763398771148,0.9999902757699892,3104976.0,0.03,0.15,-1.0,-0.06,-0.12,-0.06,-55.51,-0.45,-54.01,3397037.0,0.14,0.12,1.01,0.0,-0.06,0.06,-5.4,35.41,16.8,132262,1603198002.3665836,body_FLU,-0.02460987816093008,0.002260882086023442,-0.5864004008772015,0.8096442503718253,-0.0001730388030409813,0.007266988977789879,0.002328943694010377,0.331468902759254,-0.5038181918263436,9.855736977696418,12237,1603198002.15304,rc,0.0,0.0,0.0,0.0,0.0,-10000.0
,,124642.400622,0.9956505298614502,183429,1603198783.5491855,/world,vicon/testobj/testobj,-0.025644527920027752,-0.14727993305805764,1.393804633439285,-0.0005771897553429923,0.00037564991885235475,-0.004346686286697891,0.9999903159818347,3104986.0,0.04,0.16,-1.0,0.0,-0.06,0.0,-55.66,1.2,-52.51,3397046.0,0.13,0.12,1.01,-0.06,-0.06,0.0,-6.0,35.41,17.85,132264,1603198002.394437,body_FLU,-0.02462036169156903,0.002279708510378952,-0.5863952260279085,0.809647626817347,0.0035310406237840652,0.005110420752316713,0.002740132622420788,0.09005523113440722,-0.47246311416104436,9.924599551677703,12237,1603198002.15304,rc,0.0,0.0,0.0,0.0,0.0,-10000.0
,,124642.424532,1.019563913345337,183432,1603198783.5791502,/world,vicon/testobj/testobj,-0.02565108947508856,-0.1472810723792377,1.393797487990023,-0.00048581897050865077,0.0004299076775001661,-0.004336351375634741,0.9999903875618323,3104997.0,0.04,0.15,-0.98,0.06,0.0,-0.06,-56.71,0.15,-53.41,3397054.0,0.14,0.12,0.98,-0.06,-0.12,0.12,-5.4,34.06,16.8,132266,1603198002.4165354,body_FLU,-0.02462254463355798,0.0022801931258253755,-0.5864029516595616,0.8096419636481493,-0.001218436867929995,0.0030109586659818888,0.0003092853585258126,0.13991099526453762,-0.4047603667192161,9.905397386670113,12237,1603198002.15304,rc,0.0,0.0,0.0,0.0,0.0,-10000.0
,,124642.44687,1.0419056415557861,183434,1603198783.5994124,/world,vicon/testobj/testobj,-0.025644292015572334,-0.14727831677184272,1.3937767352910453,-0.0004984015247519315,0.00042894873396268676,-0.004334159261417119,0.9999903912850365,3105006.0,0.03,0.15,-1.0,0.06,0.12,-0.12,-56.71,1.2,-53.86,3397063.0,0.14,0.11,1.0,-0.06,-0.12,-0.12,-6.6,32.86,16.35,132267,1603198002.427691,body_FLU,-0.024620139636257372,0.002286645667589871,-0.5864042476051917,0.8096410799647404,0.0013258456019684672,0.006635195109993219,-0.0015336349606513977,0.1679531864784658,-0.4089987028129399,9.87766027700901,12237,1603198002.15304,rc,0.0,0.0,0.0,0.0,0.0,-10000.0
,,124642.470827,1.0658550262451172,183436,1603198783.619282,/world,vicon/testobj/testobj,-0.025645581590475794,-0.1472734595575252,1.393793128008782,-0.0004629945703357222,0.0004600400864407809,-0.004340398248609416,0.9999903674247018,3105016.0,0.04,0.15,-0.99,0.0,0.12,0.06,-56.26,1.05,-53.71,3397072.0,0.14,0.12,0.99,0.06,0.0,-0.06,-6.6,32.86,16.35,132269,1603198002.466446,body_FLU,-0.02463510336763594,0.0022870579427261427,-0.5864068779827651,0.8096387185050742,-0.0010450819972902536,0.00782829336822033,-0.002683633239939809,0.19835543995164334,-0.4014283938445151,9.940885464549066,12237,1603198002.15304,rc,0.0,0.0,0.0,0.0,0.0,-10000.0
,,124642.496451,1.0914757251739502,183439,1603198783.6494217,/world,vicon/testobj/testobj,-0.025643830697517092,-0.14726946856096085,1.3937961648811386,-0.0004978003686352939,0.00039952359998736,-0.004351364350025804,0.9999903290552261,3105027.0,0.03,0.16,-0.98,-0.12,-0.12,0.06,-55.66,0.75,-52.81,3397080.0,0.15,0.11,1.0,0.0,-0.06,0.12,-6.75,34.36,15.9,132271,1603198002.4941492,body_FLU,-0.024648134887254175,0.002297074304543376,-0.5864133956717787,0.8096335728420068,-0.0014519481919705868,0.007112578023225069,-0.0010392428375780582,0.24157420387119055,-0.5198053305186331,9.794121220171451,12237,1603198002.15304,rc,0.0,0.0,0.0,0.0,0.0,-10000.0
,,124642.519658,1.1146886348724365,183441,1603198783.6691504,/world,vicon/testobj/testobj,-0.02564565718344908,-0.14727637702570606,1.3938132073089917,-0.0005305614884470975,0.0003875256640207516,-0.004347954115865102,0.9999903317649491,3105036.0,0.05,0.15,-0.98,0.06,-0.12,-0.06,-55.96,0.45,-54.91,3397089.0,0.14,0.12,0.99,-0.06,-0.12,0.12,-6.6,35.26,17.7,132273,1603198002.5135615,body_FLU,-0.024655204682708636,0.002312306530407743,-0.5863961914298725,0.8096457748899227,0.0010347579373046756,0.0009089936502277851,0.005544000305235386,0.2650053945221007,-0.5707772716060281,9.859462910413741,12237,1603198002.15304,rc,0.0,0.0,0.0,0.0,0.0,-10000.0
,,124642.54232,1.1373460292816162,183444,1603198783.6993153,/world,vicon/testobj/testobj,-0.02564789029109347,-0.14727917684546926,1.3937925189374523,-0.00047623131987414706,0.0003985594207422904,-0.004343091094200465,0.9999903759106212,3105046.0,0.05,0.15,-0.99,0.12,0.0,0.0,-55.96,0.45,-53.86,3397134.0,0.15,0.12,0.98,-0.06,-0.18,-0.06,-4.05,34.51,16.35,132274,1603198002.5274777,body_FLU,-0.024650256183125236,0.002300833349541691,-0.5864061861050671,0.8096387193889094,0.0020803306251764297,0.003337237751111388,-0.0021843116264790297,0.19719533957540988,-0.3924067499600351,9.86073993909359,12237,1603198002.15304,rc,0.0,0.0,0.0,0.0,0.0,-10000.0
,,124642.564896,1.159924030303955,183446,1603198783.719239,/world,vicon/testobj/testobj,-0.02564243647562779,-0.1472712404400029,1.3938077685928665,-0.0005305175363548941,0.00039817388198376503,-0.004359131590562997,0.9999902789429903,3105057.0,0.04,0.15,-1.0,0.0,0.0,0.06,-55.36,-0.3,-53.86,3397142.0,0.14,0.12,1.01,0.0,0.0,0.06,-6.45,34.36,17.55,132276,1603198002.5579324,body_FLU,-0.02465961555394883,0.0023083920128996456,-0.586403692433733,0.8096402189782386,0.0034772944636642933,0.004187864251434803,0.001666362164542079,0.28475074215978385,-0.36276264098659156,9.807260127782822,12237,1603198002.15304,rc,0.0,0.0,0.0,0.0,0.0,-10000.0
,,124642.587438,1.182509183883667,183448,1603198783.7391284,/world,vicon/testobj/testobj,-0.025638679043312844,-0.1472737157438583,1.393789231313559,-0.0005505189055179281,0.0004158479767005287,-0.004352924534185989,0.9999902879765356,3105066.0,0.04,0.15,-0.98,0.06,0.06,-0.06,-56.41,0.15,-54.16,3397151.0,0.15,0.12,0.99,-0.06,-0.06,0.0,-6.45,34.36,17.55,132277,1603198002.5662687,body_FLU,-0.024652687829151334,0.002314359634641041,-0.5864152869773395,0.8096320151288267,0.001150149735622108,0.007431269623339176,-0.0016671036137267947,0.2220259639453143,-0.3609226404055953,9.818745207309723,12237,1603198002.15304,rc,0.0,0.0,0.0,0.0,0.0,-10000.0
,,124642.610645,1.2056851387023926,183450,1603198783.759379,/world,vicon/testobj/testobj,-0.025643616485441022,-0.1472750944767368,1.3937969036478073,-0.0005445675661723378,0.0003977940803087386,-0.004335964867056577,0.999990372261007,3105076.0,0.04,0.15,-0.99,0.0,0.06,-0.12,-55.81,-0.75,-53.71,3397159.0,0.15,0.12,1.0,0.0,0.0,0.06,-6.15,34.51,17.7,132280,1603198002.6078482,body_FLU,-0.024670727977587823,0.002306847081023921,-0.5864147172591379,0.8096318997047275,-0.0027122260071337223,0.007372534833848476,-0.0021893279626965523,0.24231177410110832,-0.4003683169148862,9.839974494695664,12237,1603198002.15304,rc,0.0,0.0,0.0,0.0,0.0,-10000.0
,,124642.633991,1.2290174961090088,183453,1603198783.7892256,/world,vicon/testobj/testobj,-0.025645259661763644,-0.14727203126633112,1.3937897320174621,-0.0005134604656336576,0.0004268855493313,-0.004348692266501965,0.9999903214544875,3105087.0,0.04,0.15,-1.0,-0.06,-0.06,0.0,-57.61,-0.45,-51.91,3397168.0,0.15,0.12,0.99,-0.06,-0.06,0.12,-6.15,35.26,16.65,132281,1603198002.6273177,body_FLU,-0.02468312398810077,0.0023045842819525847,-0.58640802674818,0.8096363742117699,-0.0013285984750837088,0.0027580789756029844,0.002076955744996667,0.2526388161554933,-0.40273090760037306,9.94738393986225,12237,1603198002.15304,rc,0.0,0.0,0.0,0.0,0.0,-10000.0
,,124642.65595,1.2509779930114746,183455,1603198783.8094018,/world,vicon/testobj/testobj,-0.02564056786566295,-0.14727720358965088,1.3937946589845511,-0.0005295457972118837,0.00043514620092414003,-0.0043390514347159,0.9999903513842918,3105096.0,0.04,0.16,-0.99,-0.06,-0.18,-0.06,-56.86,0.0,-53.71,3397177.0,0.16,0.12,1.0,-0.06,-0.06,-0.06,-4.95,34.36,15.9,132281,1603198002.6273177,body_FLU,-0.02468312398810077,0.0023045842819525847,-0.58640802674818,0.8096363742117699,-0.0013285984750837088,0.0027580789756029844,0.002076955744996667,0.2526388161554933,-0.40273090760037306,9.94738393986225,12237,1603198002.15304,rc,0.0,0.0,0.0,0.0,0.0,-10000.0
,,124642.678344,1.273369550704956,183457,1603198783.8294396,/world,vicon/testobj/testobj,-0.02564723629625731,-0.14727735079038398,1.3937897619152895,-0.0005710987561720301,0.00037245979905573326,-0.004356357782286388,0.9999902785861378,3105106.0,0.04,0.15,-0.99,-0.12,-0.06,0.06,-56.86,0.0,-54.61,3397185.0,0.15,0.12,1.0,-0.06,-0.12,-0.12,-5.1,34.96,16.35,132282,1603198002.6577978,body_FLU,-0.024681341131727604,0.0022831763628532397,-0.5864132117269177,0.8096327337859782,-0.0022525163367390633,-0.0003405998577363789,0.001369826844893396,0.17050174884684385,-0.3458099903315306,9.93275711274147,12238,1603198002.6716921,rc,0.0,0.0,0.0,0.0,0.0,-10000.0
,,124642.701855,1.296886682510376,183460,1603198783.859221,/world,vicon/testobj/testobj,-0.025646954161174237,-0.14728784526360308,1.3937880192988201,-0.0005090487562434637,0.0004265053251244043,-0.0043416141627326465,0.9999903546280001,3105117.0,0.05,0.15,-0.98,0.0,0.0,0.06,-56.41,-0.6,-53.41,3397194.0,0.15,0.12,1.0,-0.06,-0.06,0.0,-5.7,35.11,16.2,132284,1603198002.696605,body_FLU,-0.024693605284169036,0.002258596795450398,-0.5864138933752685,0.8096319350513816,-0.0027528125792741776,0.0017160451970994473,0.003462088294327259,0.19237144917435944,-0.4019231621325016,9.784846112966537,12238,1603198002.6716921,rc,0.0,0.0,0.0,0.0,0.0,-10000.0
,,124642.725319,1.3203425407409668,183462,1603198783.8791714,/world,vicon/testobj/testobj,-0.025643944760471975,-0.14726773291220194,1.3937915475408462,-0.0006292844883274068,0.0002877739411532363,-0.00433928632870363,0.9999903458440732,3105126.0,0.03,0.16,-1.0,0.0,0.0,-0.06,-55.96,0.15,-54.16,3397203.0,0.15,0.12,0.98,-0.12,-0.18,-0.06,-4.95,35.11,15.45,132285,1603198002.7077327,body_FLU,-0.0246953350520069,0.002262182071586544,-0.5864202885004862,0.8096272402741588,-0.0005077646346762776,0.005709880497306585,0.0009202348301187158,0.17790448796376587,-0.4105164522752166,9.793492636978627,12238,1603198002.6716921,rc,0.0,0.0,0.0,0.0,0.0,-10000.0
,,124642.747905,1.3429336547851562,183464,1603198783.89931,/world,vicon/testobj/testobj,-0.025648687333336515,-0.14727409755976853,1.3937983353243906,-0.0005137370434073632,0.00042185230542118597,-0.004341387992854763,0.9999903551860778,3105137.0,0.04,0.16,-0.99,-0.06,-0.12,0.0,-57.76,-0.9,-54.91,3397212.0,0.14,0.11,0.99,-0.06,-0.12,-0.06,-4.95,35.11,15.45,132287,1603198002.7465231,body_FLU,-0.024693483363887617,0.0022632949038454272,-0.5864302493274065,0.8096200788328631,-0.002981242723762989,0.009490229189395905,-0.0019992338493466377,0.17794339104183018,-0.5757291168048978,9.793258962929249,12238,1603198002.6716921,rc,0.0,0.0,0.0,0.0,0.0,-10000.0
,,124642.771729,1.3667640686035156,183467,1603198783.9291117,/world,vicon/testobj/testobj,-0.025644523200639972,-0.14727544349767063,1.3937892647207342,-0.0005550723176255461,0.0003985652982850852,-0.0043618584036283015,0.9999902535683495,3105146.0,0.04,0.16,-1.0,-0.06,-0.18,0.0,-56.56,0.0,-53.71,3397220.0,0.15,0.13,1.0,-0.06,-0.06,-0.12,-6.45,34.06,17.25,132289,1603198002.7659388,body_FLU,-0.024690124525458178,0.002223813821354235,-0.5864202543123325,0.8096275302478692,0.0007516153273172677,0.00018487058696337044,0.003645173506811261,0.2392049863357097,-0.4511199471876025,9.764140839636326,12238,1603198002.6716921,rc,0.0,0.0,0.0,0.0,0.0,-10000.0
,,124642.795104,1.390127420425415,183469,1603198783.9494984,/world,vicon/testobj/testobj,-0.025647957285436073,-0.14728313006196703,1.3937921655806658,-0.0005330193951499125,0.00042144679990142295,-0.004340579004034731,0.9999903487768415,3105157.0,0.04,0.15,-0.99,0.0,0.0,0.0,-54.91,0.75,-53.11,3397229.0,0.15,0.11,1.0,-0.06,-0.12,-0.06,-5.85,34.51,17.1,132291,1603198002.7936785,body_FLU,-0.02470183882876065,0.0022076663209668205,-0.586425388400527,0.8096234984282413,0.004290177021175623,0.0015842730645090342,0.001240844838321209,0.31551027960330247,-0.28053007766604426,9.810865718364715,12238,1603198002.6716921,rc,0.0,0.0,0.0,0.0,0.0,-10000.0
,,124642.817868,1.412891149520874,183471,1603198783.9693244,/world,vicon/testobj/testobj,-0.025647224202562824,-0.14727489969833943,1.3937952064394388,-0.0005539953135008348,0.0003955239031759139,-0.004344181786955254,0.9999903323205862,3105166.0,0.03,0.15,-1.0,-0.12,-0.18,-0.06,-56.26,0.0,-54.61,3397238.0,0.14,0.11,1.0,-0.06,-0.06,0.06,-6.6,36.01,17.7,132292,1603198002.8076227,body_FLU,-0.024688146404897283,0.0022082209361754183,-0.5864244616282329,0.8096245858368091,0.0011367890983819962,0.006663388106971979,0.004038331564515829,0.3174848983436823,-0.3241583371013403,9.811706944942474,12238,1603198002.6716921,rc,0.0,0.0,0.0,0.0,0.0,-10000.0
,,124642.842052,1.437082290649414,183474,1603198783.9994707,/world,vicon/testobj/testobj,-0.025648108325331813,-0.14727367157165266,1.393789717449874,-0.0005878709652199778,0.0004011047567544445,-0.00434814184149164,0.9999902935455067,3105177.0,0.03,0.16,-1.0,-0.12,-0.12,-0.06,-56.41,0.75,-52.51,3397247.0,0.15,0.12,1.01,0.06,0.06,-0.06,-5.7,35.86,17.25,132294,1603198002.8380592,body_FLU,-0.024701690479842223,0.002209338949268356,-0.5864307212278126,0.8096196356988093,0.0008733930299058557,0.002766380785033107,0.0016956988256424665,0.3293484933190048,-0.39715968012437225,9.723570935368539,12238,1603198002.6716921,rc,0.0,0.0,0.0,0.0,0.0,-10000.0
,,124642.865727,1.4607572555541992,183476,1603198784.192053,/world,vicon/testobj/testobj,-0.025647189882781484,-0.14727770868984377,1.3937954789421219,-0.0005793967587250974,0.0003792323607303868,-0.004367407031735822,0.9999902230712217,3105187.0,0.03,0.14,-0.98,-0.12,-0.12,-0.06,-55.96,0.45,-53.11,3397255.0,0.14,0.12,1.0,-0.06,-0.12,0.06,-5.85,33.91,18.0,132296,1603198002.8602626,body_FLU,-0.024706994292981177,0.002215222612320124,-0.586435248850407,0.809616178276809,-0.0026843235827982426,0.0038118883967399597,-0.0002044911088887602,0.2466722231414169,-0.42395333081111314,9.849442967176438,12238,1603198002.6716921,rc,0.0,0.0,0.0,0.0,0.0,-10000.0
,,124642.887308,1.4823307991027832,183478,1603198784.3906138,/world,vicon/testobj/testobj,-0.025642146243846694,-0.14728311320432358,1.3937931507850874,-0.0005508553517071645,0.00040024738425311826,-0.004338381419718546,0.9999903573570447,3105197.0,0.04,0.15,-1.0,0.06,-0.06,0.06,-55.81,0.0,-53.26,3397299.0,0.15,0.12,0.99,-0.06,-0.12,0.0,-3.3,35.11,18.15,132296,1603198002.8602626,body_FLU,-0.024706994292981177,0.002215222612320124,-0.586435248850407,0.809616178276809,-0.0026843235827982426,0.0038118883967399597,-0.0002044911088887602,0.2466722231414169,-0.42395333081111314,9.849442967176438,12238,1603198002.6716921,rc,0.0,0.0,0.0,0.0,0.0,-10000.0
,,124642.910472,1.5054991245269775,183480,1603198784.5916078,/world,vicon/testobj/testobj,-0.025650006766386974,-0.1472811202544335,1.3937791970844298,-0.0004988337868990263,0.00044738369303438117,-0.004353752821617335,0.9999902978774606,3105206.0,0.04,0.15,-1.0,-0.06,-0.12,-0.06,-57.31,0.6,-53.26,3397307.0,0.14,0.12,1.0,0.0,0.0,0.0,-5.7,34.36,17.85,132297,1603198002.8879604,body_FLU,-0.0247101660913225,0.0022300779632380627,-0.5864358346052485,0.8096156164099496,0.0012462349841371179,0.006927086040377617,0.000253241480095312,0.23525857850164175,-0.31065230565145613,9.863061490774156,12238,1603198002.6716921,rc,0.0,0.0,0.0,0.0,0.0,-10000.0
,,124642.934762,1.5297906398773193,183483,1603198784.8900676,/world,vicon/testobj/testobj,-0.02565178124356405,-0.1472801893408005,1.3937905186901915,-0.000640404604142762,0.0002899940071428981,-0.004356903536478754,0.9999902615410775,3105216.0,0.04,0.15,-0.99,-0.06,-0.12,-0.12,-54.46,-0.45,-52.96,3397316.0,0.14,0.12,0.99,-0.06,-0.18,0.06,-6.15,35.26,16.05,132298,1603198002.9184964,body_FLU,-0.02471808671586438,0.0022423912771316746,-0.5864319070387047,0.8096181854908,0.000458941183751449,0.006576559040695429,0.003181814681738615,0.2514125020466745,-0.3145208890736103,9.84064397084713,12238,1603198002.6716921,rc,0.0,0.0,0.0,0.0,0.0,-10000.0
,,124642.96339,1.558504343032837,183486,1603198784.1191132,/world,vicon/testobj/testobj,-0.025645400106766133,-0.1472817287993733,1.3938009165888856,-0.0006114426863234329,0.0003127716165244064,-0.004346026886662675,0.999990320134179,3105226.0,0.04,0.16,-0.99,0.0,-0.06,-0.06,-56.86,-0.75,-52.96,3397324.0,0.14,0.12,1.01,-0.06,-0.12,0.12,-6.0,33.76,163411952.0,132300,1603198002.9600587,body_FLU,-0.024713917271825755,0.002255891480352444,-0.5864154701340341,0.8096301807826769,-0.00012870787759311497,0.007512194570153952,0.002409451175481081,0.2381647534444928,-0.3911449466049671,9.864514943361282,12239,1603198002.9517841,rc,0.0,0.0,0.0,0.0,0.0,-10000.0
,,124642.985504,1.5805370807647705,183488,1603198784.1391945,/world,vicon/testobj/testobj,-0.025642540970388553,-0.1472726459000519,1.3937853810405394,-0.0005920512936852591,0.0003441886313978314,-0.004346344292206909,0.9999903201035224,3105236.0,0.04,0.15,-0.99,-0.12,-0.06,0.0,-55.36,-0.6,-52.51,3411961.0,0.15,0.11,0.99,0.0,0.0,-0.06,-4.5,34.51,16.65,132300,1603198002.9600587,body_FLU,-0.024713917271825755,0.002255891480352444,-0.5864154701340341,0.8096301807826769,-0.00012870787759311497,0.007512194570153952,0.002409451175481081,0.2381647534444928,-0.3911449466049671,9.864514943361282,12239,1603198002.9517841,rc,0.0,0.0,0.0,0.0,0.0,-10000.0
,,124643.007318,1.602416753768921,183490,1603198784.1594992,/world,vicon/testobj/testobj,-0.025646794282475963,-0.14728080780321565,1.393787799193126,-0.0005540662334803852,0.00041807532899443067,-0.004346541061368036,0.9999903128552946,3105246.0,0.03,0.15,-0.99,0.0,0.06,0.0,-55.81,0.6,-52.96,3411970.0,0.15,0.12,1.0,0.0,-0.06,0.0,-6.6,35.26,15.3,132301,1603198002.9878385,body_FLU,-0.024720788016516487,0.0022443327813328113,-0.5864153628802191,0.8096300808321476,-0.0015811354387551546,0.005375804379582405,0.003675457090139389,0.26699337649717925,-0.4376536038145423,9.925410400629044,12239,1603198002.9517841,rc,0.0,0.0,0.0,0.0,0.0,-10000.0
,,124643.032505,1.6275389194488525,183493,1603198784.189218,/world,vicon/testobj/testobj,-0.02564449616679992,-0.14727223166668094,1.3937981352608817,-0.000583189068412624,0.0003644701315881099,-0.004335236734152446,0.9999903663408426,3105256.0,0.03,0.15,-0.99,-0.06,-0.06,-0.06,-57.91,0.3,-54.01,3411979.0,0.15,0.12,0.99,0.0,0.0,0.18,-6.6,35.26,15.3,132304,1603198003.2662327,body_FLU,-0.024706481451254803,0.0022519270849219886,-0.5864137847254501,0.8096316395019877,-0.0022214697673916817,0.0058925095945596695,0.0005193743854761124,0.2153262186013162,-0.23571031790412963,9.826012470245361,12239,1603198002.9517841,rc,0.0,0.0,0.0,0.0,0.0,-10000.0
,,124643.057522,1.652620553970337,183495,1603198784.2093508,/world,vicon/testobj/testobj,-0.025646148050957142,-0.14727746269746833,1.3938131392330815,-0.0005533704321735825,0.00041723837286386517,-0.004354477012616659,0.9999902790643775,3105266.0,0.04,0.15,-1.0,-0.06,-0.06,0.0,-57.31,0.3,-53.71,3411988.0,0.16,0.13,1.0,-0.18,-0.06,0.0,-5.85,34.21,17.1,132306,1603198003.4609818,body_FLU,-0.02470038959041465,0.002247836296964706,-0.5864099097089245,0.8096346433924593,0.0033344316761940718,0.0024661091156303883,0.0018072479870170355,0.25330066138878465,-0.40988356071710585,9.909689978957177,12239,1603198002.9517841,rc,0.0,0.0,0.0,0.0,0.0,-10000.0
,,124643.079637,1.6746704578399658,183497,1603198784.2294512,/world,vicon/testobj/testobj,-0.02564512887208682,-0.14726932626210834,1.3937744093561264,-0.0006310290235896952,0.0003572421223865788,-0.004357178045777043,0.999990244542373,3105276.0,0.03,0.16,-0.99,0.0,-0.06,0.06,-56.41,-0.3,-53.11,3411997.0,0.14,0.12,1.0,0.12,-0.06,-0.06,-5.85,36.01,16.65,132307,1603198003.5993564,body_FLU,-0.02468903935619328,0.002263812626868777,-0.5864144087717861,0.8096316864308704,-0.0015663780504837632,0.0076719471253454685,0.000533796614035964,0.1956123987045139,-0.4761821096800268,9.941323603391648,12239,1603198002.9517841,rc,0.0,0.0,0.0,0.0,0.0,-10000.0
,,124643.1032,1.6982252597808838,183500,1603198784.25922,/world,vicon/testobj/testobj,-0.025648510031952967,-0.14727060088047578,1.393803511554523,-0.0005366085689117228,0.0004294987804955216,-0.004352878667997094,0.9999902899675291,3105287.0,0.04,0.15,-0.99,0.0,0.0,0.0,-56.41,0.15,-54.16,3412006.0,0.14,0.12,0.99,-0.18,-0.12,-0.06,-4.65,34.81,17.85,132308,1603198003.876811,body_FLU,-0.02469569145886103,0.0022700621670716827,-0.5864147969609093,0.8096311848900226,0.0015829387120902538,0.004120861180126667,0.0019926526583731174,0.11246333107631654,-0.3525702901147306,9.847156466603279,12239,1603198002.9517841,rc,0.0,0.0,0.0,0.0,0.0,-10000.0
,,124643.126241,1.721299409866333,183502,1603198784.279036,/world,vicon/testobj/testobj,-0.02563990938797814,-0.14727262323654705,1.3937851179587109,-0.0005799869548994857,0.0003833242860407652,-0.004325463810985622,0.9999904034741752,3105297.0,0.04,0.15,-0.99,0.0,0.0,0.0,-55.96,1.2,-52.51,3412015.0,0.15,0.12,1.0,-0.06,-0.12,0.18,-5.85,35.26,16.35,132309,1603198003.1070666,body_FLU,-0.024681312787963157,0.002285325910588379,-0.5864191694530252,0.8096284133987451,-0.0028737615793943405,0.004814686253666878,0.0018578451126813889,0.03245471488125622,-0.3542084912471473,9.847503472566604,12239,1603198002.9517841,rc,0.0,0.0,0.0,0.0,0.0,-10000.0
,,124643.149968,1.7449979782104492,183504,1603198784.2993436,/world,vicon/testobj/testobj,-0.0256468269851119,-0.1472733885577679,1.393797298360146,-0.0006063023474100782,0.0003777583926479813,-0.0043386137358267605,0.9999903330167306,3105306.0,0.04,0.16,-0.98,-0.06,-0.18,0.06,-55.81,0.3,-53.26,3412024.0,0.14,0.12,0.98,0.0,0.0,-0.06,-5.85,35.26,16.65,132310,1603198003.1375608,body_FLU,-0.024656112230601917,0.0022952817218084426,-0.586426128262946,0.8096241127227006,-0.0013081084471195936,0.006693521048873663,0.0010329647921025753,0.17428405542857944,-0.554479090847075,9.831104227781296,12239,1603198002.9517841,rc,0.0,0.0,0.0,0.0,0.0,-10000.0
,,124643.174964,1.769986867904663,183507,1603198784.3294237,/world,vicon/testobj/testobj,-0.025651448737810084,-0.1472770595434687,1.393794730571096,-0.0005411565183697679,0.00036484477734683763,-0.00434600640020836,0.9999903430865122,3105317.0,0.03,0.15,-1.01,0.0,-0.06,-0.12,-56.26,1.35,-54.01,3412033.0,0.14,0.13,0.99,-0.12,-0.12,0.12,-6.45,34.36,18.15,132311,1603198003.159781,body_FLU,-0.024649232700293535,0.002295283004011948,-0.5864341588609226,0.8096185054235732,0.0022302400320768356,0.006782976910471916,-0.0003373075451236218,0.1584370116312057,-0.3381707110069692,10.031485566973686,12240,1603198003.1514812,rc,0.0,0.0,0.0,0.0,0.0,-10000.0
,,124643.19752,1.792555570602417,183509,1603198784.3492165,/world,vicon/testobj/testobj,-0.025642658419142917,-0.14728176324824568,1.3937789866687582,-0.0004768578699674194,0.000436311906222315,-0.004356757531183507,0.9999903004041123,3105326.0,0.04,0.16,-0.99,-0.06,-0.06,0.0,-54.46,0.3,-53.26,3412042.0,0.13,0.12,1.01,-0.06,-0.06,0.0,-5.7,35.41,15.9,132312,1603198003.1874888,body_FLU,-0.024623731017180798,0.0023099225517910524,-0.5864265251104527,0.8096247691217691,-0.003718398977071047,0.00593063049018383,-0.0017542565474286675,0.20505984052084386,-0.32886135594919325,9.903899536013604,12240,1603198003.1514812,rc,0.0,0.0,0.0,0.0,0.0,-10000.0
,,124643.221621,1.8166475296020508,183512,1603198784.379173,/world,vicon/testobj/testobj,-0.02564239500530027,-0.14728576667599422,1.3937924227049834,-0.0005933455852111186,0.00037443581159277893,-0.004341366382453954,0.9999903300916329,3105336.0,0.04,0.15,-0.99,0.0,0.0,-0.12,-55.81,-0.45,-54.61,3412051.0,0.14,0.12,1.0,-0.12,-0.12,0.0,-6.0,34.06,16.5,132314,1603198003.2179775,body_FLU,-0.02459945764498077,0.0022984639314643893,-0.586442807577296,0.8096137456762865,0.0029309350065886974,0.0014594828244298697,-0.0024554128758609295,0.3108814887776971,-0.4233007595166564,9.967849113106729,12240,1603198003.1514812,rc,0.0,0.0,0.0,0.0,0.0,-10000.0
,,124643.245752,1.8407843112945557,183514,1603198784.3994684,/world,vicon/testobj/testobj,-0.025646641631025886,-0.1472820497413669,1.3937802359099103,-0.0004936123135104285,0.0003843581037894078,-0.004346142826031578,0.9999903597826669,3105347.0,0.04,0.15,-0.99,-0.06,-0.06,0.0,-54.91,-0.6,-54.16,3412060.0,0.14,0.12,0.99,-0.12,-0.06,0.0,-6.6,34.51,16.35,132316,1603198003.2402139,body_FLU,-0.02459269868386391,0.0023084419826406503,-0.586435577365109,0.8096191597705112,-0.0009313144255429506,0.006617062259465456,0.0020443040411919355,0.09066400680039079,-0.4274189725443721,9.951345883369447,12240,1603198003.1514812,rc,0.0,0.0,0.0,0.0,0.0,-10000.0
,,124643.268343,1.8633971214294434,183516,1603198784.4194436,/world,vicon/testobj/testobj,-0.025641290296113516,-0.14727198869630678,1.3937850108478043,-0.0005891680773518533,0.0003696796145916018,-0.004350179474729676,0.9999902960311648,3105356.0,0.04,0.15,-0.99,0.0,0.0,-0.06,-55.81,0.6,-52.66,3412069.0,0.14,0.12,0.98,-0.18,-0.24,-0.06,-6.75,34.81,16.8,132317,1603198003.2596252,body_FLU,-0.024582509413556768,0.00227521180431577,-0.5864426199725924,0.8096144620261297,-0.0006816922686994076,0.00453067384660244,0.0017592298099771142,0.18473426926508546,-0.36172370425611733,9.80173957836628,12240,1603198003.1514812,rc,0.0,0.0,0.0,0.0,0.0,-10000.0
,,124643.292103,1.887134075164795,183519,1603198784.449203,/world,vicon/testobj/testobj,-0.025646653985912586,-0.1472725417788698,1.3937924486284146,-0.0005677679805613001,0.0003815804883270434,-0.00434163501881349,0.9999903410739599,3105367.0,0.04,0.15,-0.99,-0.06,-0.06,0.0,-55.81,-0.45,-54.31,3412079.0,0.14,0.12,1.0,-0.12,-0.12,0.0,-6.75,34.81,16.8,132318,1603198003.2873344,body_FLU,-0.024582932620235955,0.002269051818406615,-0.5864460544504317,0.809611978695446,0.0030386613216251135,0.0008726191008463502,-0.0012525308411568403,0.2486204075049609,-0.33919763543084264,9.830634542942047,12241,1603198003.2735083,rc,0.0,0.0,0.0,0.0,0.0,-10000.0
,,124643.315917,1.9109454154968262,183521,1603198784.4690952,/world,vicon/testobj/testobj,-0.025645554430715416,-0.14727086940054235,1.3937814971698321,-0.000495732252968504,0.0004342812825506295,-0.004360999129213536,0.9999902736206467,3105377.0,0.04,0.16,-0.99,0.06,0.0,-0.06,-54.91,-0.6,-53.41,3412123.0,0.14,0.12,1.0,-0.06,-0.12,0.0,-4.8,34.96,18.45,132320,1603198003.3067482,body_FLU,-0.02456913466549853,0.0022695235674486725,-0.5864374108702415,0.8096186571567955,-0.0013889202382415533,0.006587949115782976,0.0028215008787810802,0.2545609677694738,-0.33282932386547326,9.824623278021813,12241,1603198003.2735083,rc,0.0,0.0,0.0,0.0,0.0,-10000.0
,,124643.339426,1.9345011711120605,183523,1603198784.4892309,/world,vicon/testobj/testobj,-0.025650044880882617,-0.1472805825906515,1.393782109425804,-0.000540876416049342,0.0003696870113066375,-0.0043364461385964614,0.9999903829633079,3105386.0,0.04,0.15,-0.98,-0.12,-0.06,0.12,-56.26,-0.45,-53.26,3412132.0,0.14,0.13,1.0,0.0,-0.12,0.0,-4.95,35.86,17.55,132322,1603198003.3261998,body_FLU,-0.02457114920006813,0.0022641193733244397,-0.5864445192635356,0.8096134622251608,0.0017230594530701637,0.00563297001644969,-0.001090334146283567,0.2005354180186987,-0.45598628228902816,9.809324638009072,12241,1603198003.2735083,rc,0.0,0.0,0.0,0.0,0.0,-10000.0
,,124643.363673,1.9587061405181885,183526,1603198784.5191395,/world,vicon/testobj/testobj,-0.025656089417264303,-0.14728007643174829,1.393792587701047,-0.0006284369547799342,0.00029467974772997093,-0.0043509307389469,0.999990293769167,3105396.0,0.04,0.15,-0.99,-0.06,-0.06,-0.12,-55.96,-0.9,-51.76,3412141.0,0.14,0.12,0.99,0.0,0.0,0.0,-5.55,34.21,16.35,132324,1603198003.3594494,body_FLU,-0.024570108286216013,0.002245719602856303,-0.586424257832737,0.8096282210666772,-0.0003663287789095193,-0.0011167783522978425,-0.0005525918677449226,0.18762689841538668,-0.5526803483404219,9.893498704075814,12241,1603198003.2735083,rc,0.0,0.0,0.0,0.0,0.0,-10000.0
,,124643.386613,1.981637716293335,183528,1603198784.5391767,/world,vicon/testobj/testobj,-0.025645982014197415,-0.1472760556287427,1.3937982405799618,-0.0006025376428540173,0.0003429238960749777,-0.004339825101295186,0.9999903425882075,3105406.0,0.04,0.15,-1.01,-0.06,-0.06,0.0,-56.86,-0.45,-52.96,3412150.0,0.14,0.12,1.0,-0.06,-0.12,-0.06,-5.85,33.91,16.65,132324,1603198003.3594494,body_FLU,-0.024570108286216013,0.002245719602856303,-0.586424257832737,0.8096282210666772,-0.0003663287789095193,-0.0011167783522978425,-0.0005525918677449226,0.18762689841538668,-0.5526803483404219,9.893498704075814,12242,1603198003.3733308,rc,0.0,0.0,0.0,0.0,0.0,-10000.0
,,124643.409761,2.0047848224639893,183530,1603198784.559398,/world,vicon/testobj/testobj,-0.025643006842280047,-0.14727639317053928,1.3937892073049571,-0.0006098571180058369,0.00036829329021078125,-0.004342811358708829,0.999990316165037,3105416.0,0.04,0.15,-0.99,0.0,0.0,0.06,-57.61,-0.75,-53.71,3412159.0,0.14,0.12,0.99,0.0,-0.06,0.06,-5.85,33.91,16.65,132326,1603198003.4066083,body_FLU,-0.024533403471991178,0.0022412467524128175,-0.5864293111536978,0.8096256863186065,0.002229927573353052,0.0077736531384289265,-0.001785464584827423,0.33944916363805533,-0.40955386123806237,9.805424618124961,12242,1603198003.3733308,rc,0.0,0.0,0.0,0.0,0.0,-10000.0
,,124643.433916,2.0289430618286133,183533,1603198784.5891604,/world,vicon/testobj/testobj,-0.025648866485920727,-0.14726783523007872,1.3937914609539432,-0.0005490151686247209,0.0003808109910677332,-0.004330934288321847,0.999990398240665,3105427.0,0.04,0.15,-0.99,0.06,0.0,-0.06,-55.36,0.75,-52.51,3412168.0,0.15,0.12,1.0,0.06,0.06,0.0,-6.6,34.96,16.35,132328,1603198003.4260411,body_FLU,-0.024519732532877404,0.0022402510737442533,-0.5864404274638638,0.8096180513227478,-0.004723893478512764,0.0014417546335607767,-0.00033431535121053457,0.21720178145170213,-0.4194180461168289,9.825366361498833,12242,1603198003.3733308,rc,0.0,0.0,0.0,0.0,0.0,-10000.0
,,124643.457286,2.0523130893707275,183535,1603198784.609186,/world,vicon/testobj/testobj,-0.025650578731223478,-0.1472807949261637,1.3938082293205407,-0.000662827441302856,0.0002635829040584998,-0.004358642068346616,0.9999902466640141,3105436.0,0.04,0.15,-0.98,-0.06,-0.06,0.0,-55.66,0.75,-53.41,3412177.0,0.14,0.13,0.99,-0.06,-0.06,0.06,-5.1,33.16,16.05,132329,1603198003.4398763,body_FLU,-0.024502828326205303,0.002259077479763867,-0.5864401475999337,0.8096187135040327,0.0011800884967669845,0.008886448107659817,-0.002115475945174694,0.18194931273534895,-0.38680711648240684,9.862125626206398,12242,1603198003.3733308,rc,0.0,0.0,0.0,0.0,0.0,-10000.0
,,124643.479804,2.0748307704925537,183537,1603198784.6290965,/world,vicon/testobj/testobj,-0.025637727353668358,-0.14727873994748114,1.3937853467515948,-0.000610355528911605,0.0003430252675663128,-0.00435629107904334,0.9999902662165412,3105447.0,0.04,0.15,-0.99,-0.06,-0.12,-0.12,-56.26,0.3,-52.96,3412186.0,0.15,0.12,1.0,-0.06,0.0,0.0,-7.5,34.81,17.85,132330,1603198003.4593143,body_FLU,-0.024481970621142043,0.0022605502020633045,-0.5864233767396189,0.8096314879255824,-8.300127228721976e-05,0.000959317316301167,0.004703671205788851,0.2551754209846258,-0.43295489333197473,9.90688822710514,12243,1603198003.4731371,rc,0.0,0.0,0.0,0.0,0.0,-10000.0
,,124643.504695,2.099719524383545,183540,1603198784.6591222,/world,vicon/testobj/testobj,-0.025650733888245677,-0.14728213306160987,1.393801241880412,-0.00057019314456223,0.0003412853773695863,-0.004362555592022066,0.9999902632089852,3105457.0,0.03,0.15,-0.99,-0.06,-0.06,-0.06,-56.56,1.35,-54.61,3412195.0,0.14,0.12,1.0,-0.18,-0.12,0.0,-6.75,34.81,16.8,132331,1603198003.487075,body_FLU,-0.024470513140387458,0.002273091390050434,-0.5864060514788573,0.8096443477423617,0.0011257831938564777,0.003504535648971796,0.003355269320309162,0.30774598466232417,-0.40107759067788723,9.884922866463661,12243,1603198003.4731371,rc,0.0,0.0,0.0,0.0,0.0,-10000.0
