name,date,time,time_since_start,vicon_sequence,vicon_time_stamp,vicon_frame_id,vicon_child_frame_id,vicon_translation_x,vicon_translation_y,vicon_translation_z,vicon_rotation_x,vicon_rotation_y,vicon_rotation_z,vicon_rotation_w,int_imu_time_stamp,int_imu_acc_x,int_imu_acc_y,int_imu_acc_z,int_imu_gyro_x,int_imu_gyro_y,int_imu_gyro_z,int_imu_mag_x,int_imu_mag_y,int_imu_mag_z,ext_imu_time_stamp,ext_imu_acc_x,ext_imu_acc_y,ext_imu_acc_z,ext_imu_gyro_x,ext_imu_gyro_y,ext_imu_gyro_z,ext_imu_mag_x,ext_imu_mag_y,ext_imu_mag_z,dji_imu_sequence,dji_imu_time_stamp,dji_imu_frame_id,dji_imu_orientation_x,dji_imu_orientation_y,dji_imu_orientation_z,dji_imu_orientation_w,dji_imu_ang_vel_x,dji_imu_ang_vel_y,dji_imu_ang_vel_z,dji_imu_lin_acc_x,dji_imu_lin_acc_y,dji_imu_lin_acc_z,rc_sequence,rc_time_stamp,rc_frame_id,rc_roll,rc_pitch,rc_yaw,rc_throttle,rc_mode,rc_landing_gear
/root/Desktop/transfer/20102020/Test2.csv,20201020,123847.156155,0.0002732276916503906,135905,1603198308.3145444,/world,vicon/testobj/testobj,-0.012013136526476247,-0.21330241228410293,1.3941879496209513,-0.0006884500892731373,-0.0010627312166040805,0.00034459882060645556,0.9999991389448736,2902744.0,0.04,0.15,-0.99,-0.18,-0.06,0.0,-55.51,0.6,-54.31,2905704.0,0.13,0.12,1.0,-0.06,-0.06,0.12,-5.4,35.11,16.5,100591,1603197527.1521971,body_FLU,-0.023873695445835376,0.0024325987746503493,-0.5834357020447183,0.8118047244926255,-0.0006843588780611753,0.0060468073934316635,0.0019293768564239144,0.25576639726012945,-0.33716795724257825,9.812967616438867,9286,1603197526.8553927,rc,0.0,0.0,0.0,0.0,0.0,-10000.0
,,123847.184308,0.028433561325073242,135908,1603198308.3448284,/world,vicon/testobj/testobj,-0.012022543485370452,-0.21329792452858745,1.394183139207019,-0.0006304821470625725,-0.0010891022712637601,0.00032754020020561155,0.9999991545326037,2902754.0,0.04,0.15,-1.0,0.0,0.0,-0.12,-56.26,0.0,-52.96,2905713.0,0.13,0.12,1.01,-0.12,-0.06,0.0,-5.85,34.51,17.1,100593,1603197527.1798599,body_FLU,-0.023864705404222492,0.00241320744827431,-0.5834340161893994,0.8118062583023666,-0.0018453975208103657,0.005644614342600107,0.003284334670752287,0.2024670808967203,-0.4773430680781603,9.862606994748116,9286,1603197526.8553927,rc,0.0,0.0,0.0,0.0,0.0,-10000.0
,,123847.206896,0.05101609230041504,135910,1603198308.3649108,/world,vicon/testobj/testobj,-0.01201503479892919,-0.21331392425090562,1.394194512229508,-0.0006489243034226116,-0.0010747762232468483,0.000327257269837268,0.9999991583276446,2902764.0,0.04,0.16,-0.99,0.0,0.0,-0.06,-55.06,-1.5,-53.26,2905722.0,0.14,0.12,0.98,-0.06,-0.06,0.06,-6.45,34.81,16.8,100593,1603197527.1798599,body_FLU,-0.023864705404222492,0.00241320744827431,-0.5834340161893994,0.8118062583023666,-0.0018453975208103657,0.005644614342600107,0.003284334670752287,0.2024670808967203,-0.4773430680781603,9.862606994748116,9287,1603197527.1937318,rc,0.0,0.0,0.0,0.0,0.0,-10000.0
,,123847.228251,0.07236838340759277,135912,1603198308.3845952,/world,vicon/testobj/testobj,-0.012019357301514945,-0.2133007667210234,1.394191126209639,-0.0006817400327690949,-0.0010916878971699501,0.0003288135971300094,0.9999991176644514,2902774.0,0.04,0.15,-0.99,-0.06,-0.06,-0.06,-54.91,-0.3,-52.81,2905731.0,0.13,0.11,1.01,0.0,-0.06,-0.12,-5.1,33.46,17.1,100594,1603197527.210403,body_FLU,-0.02386704603698095,0.0024023504346938375,-0.5834189515652777,0.8118170482198127,0.0014810626162216067,0.004895568825304508,0.0037095490843057632,0.3163091162480414,-0.40770046091079715,9.800775088727475,9287,1603197527.1937318,rc,0.0,0.0,0.0,0.0,0.0,-10000.0
,,123847.252464,0.09658360481262207,135915,1603198308.4147887,/world,vicon/testobj/testobj,-0.01201811471167638,-0.21329592067882977,1.3941842296778462,-0.0006427243110636013,-0.0010050364120715277,0.00033090360149181644,0.9999992336547449,2902784.0,0.04,0.15,-0.99,-0.06,-0.06,0.0,-56.56,0.0,-53.26,2905740.0,0.15,0.13,1.0,-0.06,-0.06,-0.06,-4.35,33.01,16.5,100597,1603197527.2492065,body_FLU,-0.023863225000738487,0.002396746929824755,-0.5834170987245761,0.8118185086658942,0.002954200841486454,0.006437364034354687,0.0036248471587896347,0.2569621876962483,-0.43843389258161186,9.941556109070778,9287,1603197527.1937318,rc,0.0,0.0,0.0,0.0,0.0,-10000.0
,,123847.278008,0.12212395668029785,135917,1603198308.4349012,/world,vicon/testobj/testobj,-0.012018645512049033,-0.21329789118314452,1.3941954647348989,-0.0006427001800048906,-0.0010587312222491408,0.00032228680280515127,0.9999991810776119,2902794.0,0.03,0.15,-0.99,0.0,0.0,0.06,-55.81,0.0,-53.26,2905749.0,0.14,0.11,0.99,-0.12,-0.12,-0.06,-6.75,35.11,17.55,100599,1603197527.2686138,body_FLU,-0.023864527281553288,0.0023962604316867093,-0.5834256633963983,0.8118123167112237,-0.0011681506875902414,0.003147123148664832,-0.0029452319722622633,0.17656199403852224,-0.38645025239512326,9.883817588210107,9287,1603197527.1937318,rc,0.0,0.0,0.0,0.0,0.0,-10000.0
,,123847.300331,0.14445185661315918,135919,1603198308.454991,/world,vicon/testobj/testobj,-0.0120143875789006,-0.21329466976605688,1.3941935700228665,-0.000631965058593372,-0.0010516596955534381,0.00031766656642297556,0.9999991968596785,2902804.0,0.04,0.16,-0.99,0.0,0.0,-0.06,-55.81,0.6,-52.21,2905758.0,0.14,0.11,0.99,0.06,0.0,0.06,-6.6,33.91,17.1,100600,1603197527.2825382,body_FLU,-0.023865451872766338,0.0023921293153758095,-0.583427975781293,0.8118106398662129,0.0031703468412160873,0.005541585851460695,-0.0023650829680263996,0.12553878157865256,-0.38191832676529885,9.827260289669036,9287,1603197527.1937318,rc,0.0,0.0,0.0,0.0,0.0,-10000.0
,,123847.324376,0.16849541664123535,135922,1603198308.4850445,/world,vicon/testobj/testobj,-0.012017050612804704,-0.21329769777184682,1.3941811903922023,-0.000655660096643121,-0.0010435270004400634,0.0003323018204812399,0.9999991853680368,2902814.0,0.04,0.15,-0.99,0.0,0.0,0.06,-55.06,0.0,-51.91,2905767.0,0.14,0.12,1.0,-0.06,0.06,0.06,-6.15,35.26,18.0,100601,1603197527.3102393,body_FLU,-0.023879351633309974,0.0023671414238314275,-0.5834074307995121,0.811825069146651,-2.6649562641978264e-05,0.0017722940538078547,0.00023548633907921612,0.20477879270911217,-0.5284202720224858,9.766276036262513,9287,1603197527.1937318,rc,0.0,0.0,0.0,0.0,0.0,-10000.0
,,123847.347308,0.1914207935333252,135924,1603198308.5050592,/world,vicon/testobj/testobj,-0.012022225089426216,-0.21330002203770593,1.3941978299384794,-0.0006715431474596097,-0.0010743621701595838,0.0003179060079909803,0.9999991468553854,2902824.0,0.04,0.15,-0.99,-0.12,-0.12,0.0,-55.96,-1.65,-53.11,2905776.0,0.14,0.11,0.99,-0.12,-0.06,-0.06,-6.15,35.26,18.0,100603,1603197527.3407135,body_FLU,-0.023879853654335037,0.0023489860965285234,-0.5834065774749959,0.8118257203443837,-0.0025390558876097202,0.001985412323847413,-0.0009323738049715757,0.21084135638549925,-0.5411210407912731,9.782278619349002,9287,1603197527.1937318,rc,0.0,0.0,0.0,0.0,0.0,-10000.0
,,123847.371468,0.2156364917755127,135926,1603198308.524883,/world,vicon/testobj/testobj,-0.012020535070180593,-0.21330008066516318,1.394188998556234,-0.0006798015329622476,-0.001069007004943555,0.00031994527081518703,0.999999146364097,2902834.0,0.05,0.16,-0.98,-0.06,-0.06,-0.06,-57.46,0.15,-54.91,2905785.0,0.14,0.12,0.99,-0.06,-0.18,0.0,-5.4,34.36,17.25,100606,1603197527.36849,body_FLU,-0.023854358650423287,0.002333365281119173,-0.5834061526651729,0.8118268202099895,0.0018900756258517504,0.001544671948067844,-0.0005402201786637306,0.27402546840906145,-0.19656690242886543,9.769690014123917,9287,1603197527.1937318,rc,0.0,0.0,0.0,0.0,0.0,-10000.0
,,123847.397024,0.24114084243774414,135929,1603198308.5548825,/world,vicon/testobj/testobj,-0.012021668491569345,-0.2132985145012323,1.3941956701093643,-0.0006345019799782182,-0.0010820999432174338,0.00031910863307273017,0.9999991623179645,2902844.0,0.03,0.15,-0.98,-0.06,-0.18,-0.06,-56.56,0.3,-52.96,2905793.0,0.16,0.12,0.99,-0.12,-0.24,0.0,-5.85,33.91,16.65,100607,1603197527.382359,body_FLU,-0.023858503946369285,0.002334619784695913,-0.5834092445540817,0.8118244728441844,-0.0018630067352205515,0.006093867588788271,-0.0004565423587337136,0.2817899093963206,-0.253399279139936,9.671292792856693,9287,1603197527.1937318,rc,0.0,0.0,0.0,0.0,0.0,-10000.0
,,123847.4199,0.26401829719543457,135931,1603198308.5747697,/world,vicon/testobj/testobj,-0.012012920794297267,-0.21329602836860126,1.3941921125634609,-0.0006349031490885255,-0.0010384397149652807,0.0003235739390801736,0.9999992069201133,2902854.0,0.04,0.15,-0.99,-0.06,-0.18,0.0,-56.56,1.05,-53.26,2905802.0,0.15,0.12,1.0,-0.06,-0.12,-0.06,-4.8,33.91,18.45,100608,1603197527.4100852,body_FLU,-0.023857369053654646,0.0023293897959735287,-0.583412732976245,0.8118220142902044,0.005115962121635675,0.0022892283741384745,-0.0019350280053913593,0.26634843612089754,-0.4563165294416249,9.804904693365097,9287,1603197527.1937318,rc,0.0,0.0,0.0,0.0,0.0,-10000.0
,,123847.444386,0.28850317001342773,135934,1603198308.604729,/world,vicon/testobj/testobj,-0.01203127147613708,-0.21329013981699224,1.3941909897849372,-0.0006147695225037734,-0.0011047078687901534,0.00037885492421475125,0.9999991290735734,2902864.0,0.04,0.15,-1.01,0.12,0.0,-0.06,-56.26,0.0,-52.66,2905845.0,0.15,0.12,1.0,-0.06,-0.06,-0.06,-3.75,34.21,17.7,100610,1603197527.4405813,body_FLU,-0.023853716300435333,0.0023159586716577055,-0.5834131796391238,0.8118218390616607,0.004863840062171221,6.440264405682683e-05,0.0009428780758753419,0.19188151866942643,-0.4445761245042086,9.874225268483162,9287,1603197527.1937318,rc,0.0,0.0,0.0,0.0,0.0,-10000.0
,,123847.467267,0.3113863468170166,135936,1603198308.6249192,/world,vicon/testobj/testobj,-0.012019029816927105,-0.21330076854356755,1.3941909023768675,-0.0007336799209554304,-0.0011659517236385635,0.00031660331988024734,0.9999990010158458,2902874.0,0.03,0.15,-0.99,-0.06,-0.12,-0.06,-54.76,0.3,-52.66,2905854.0,0.16,0.12,0.99,-0.06,-0.12,0.0,-4.8,35.26,18.45,100612,1603197527.462728,body_FLU,-0.02384542830113121,0.0023141774156076587,-0.5834185170550688,0.8118182518823343,-0.0018428275361657143,0.006023598834872246,0.0005611060769297183,0.1867797204516828,-0.42048834628611803,9.833424611091614,9287,1603197527.1937318,rc,0.0,0.0,0.0,0.0,0.0,-10000.0
,,123847.491269,0.3353879451751709,135938,1603198308.6447482,/world,vicon/testobj/testobj,-0.012020444064069272,-0.2133038705826981,1.394197771981285,-0.0006778317688117305,-0.0010619656525362568,0.0003194557269981806,0.9999991553601856,2902884.0,0.04,0.15,-1.0,-0.06,-0.06,0.0,-57.76,-0.6,-53.41,2905863.0,0.15,0.12,1.0,0.0,0.0,-0.12,-7.2,34.51,17.1,100614,1603197527.482212,body_FLU,-0.023852966489837157,0.0023121114173256722,-0.5834135811056833,0.811821583546453,0.0028189769946038723,0.004860498942434788,-0.0015911496011540294,0.09569600402377546,-0.382597441971302,9.906097240447998,9287,1603197527.1937318,rc,0.0,0.0,0.0,0.0,0.0,-10000.0
,,123847.515732,0.3598606586456299,135941,1603198308.6747267,/world,vicon/testobj/testobj,-0.012020893468106057,-0.21329339724796983,1.3941816987353002,-0.000671156494438499,-0.0011169329833931767,0.0003413461051113841,0.999999092745842,2902894.0,0.04,0.15,-0.99,-0.06,-0.06,0.0,-56.41,0.45,-53.86,2905872.0,0.15,0.13,0.99,-0.06,-0.12,0.12,-5.55,34.51,17.4,100615,1603197527.509919,body_FLU,-0.02385554398543256,0.002312178584263253,-0.5834174363819457,0.8118187370200766,0.00016427584341727197,0.0018423744477331638,-0.0012387479655444622,0.3380814037062228,-0.397037841014564,9.977318753957748,9287,1603197527.1937318,rc,0.0,0.0,0.0,0.0,0.0,-10000.0
,,123847.538598,0.3827173709869385,135943,1603198308.6947892,/world,vicon/testobj/testobj,-0.01202311896702707,-0.2133022955222471,1.3942094911598513,-0.0006857542350754959,-0.001098720403391417,0.00031937821138372535,0.9999991102756853,2902904.0,0.04,0.15,-0.97,0.0,0.0,-0.12,-56.26,0.3,-53.26,2905881.0,0.15,0.12,1.0,-0.06,-0.06,-0.06,-6.15,33.46,17.4,100616,1603197527.529306,body_FLU,-0.023843501709738018,0.00231412272256923,-0.5834059592985511,0.8118273331917201,0.004485842306166887,0.008598148822784424,0.005183766596019268,0.2978838444314897,-0.44793745268136265,9.932475535511971,9287,1603197527.1937318,rc,0.0,0.0,0.0,0.0,0.0,-10000.0
,,123847.561595,0.4057128429412842,135945,1603198308.7147043,/world,vicon/testobj/testobj,-0.012016599970767858,-0.2132999067318281,1.3941942123821087,-0.0007194809535722785,-0.001130213239207398,0.00032297185372620634,0.9999990503267356,2902914.0,0.03,0.15,-0.99,0.0,0.0,-0.12,-55.36,0.15,-52.51,2905890.0,0.14,0.13,0.98,0.06,0.0,-0.06,-5.7,35.11,16.2,100618,1603197527.5487473,body_FLU,-0.023850338906498753,0.002308156922429479,-0.5834170007944454,0.8118192144373528,-0.00010507670231163502,0.003883899189531803,-0.0011697859736159444,0.14661587048415095,-0.3626068826280534,9.75498081690073,9287,1603197527.1937318,rc,0.0,0.0,0.0,0.0,0.0,-10000.0
,,123847.587051,0.431168794631958,135948,1603198308.7447371,/world,vicon/testobj/testobj,-0.01201816973919218,-0.21329468024834572,1.3941821255822076,-0.0006439403690683694,-0.0010382315332246887,0.00032561306798148246,0.9999992006957877,2902924.0,0.04,0.15,-0.99,-0.06,-0.06,0.0,-55.51,0.6,-52.96,2905899.0,0.15,0.12,0.99,-0.06,-0.06,0.12,-5.85,35.26,16.35,100620,1603197527.582074,body_FLU,-0.023844158385061685,0.0022999803627553324,-0.5834140218719294,0.8118215600022328,-0.0013440585462376475,0.0038334857672452927,0.0029712996911257505,0.21027871308848262,-0.32279616343975065,9.664445559024811,9287,1603197527.1937318,rc,0.0,0.0,0.0,0.0,0.0,-10000.0
,,123847.609869,0.45400547981262207,135950,1603198308.764716,/world,vicon/testobj/testobj,-0.012029791254686176,-0.21330657043490986,1.3941902265542552,-0.0005974604422882925,-0.0009985248188159517,0.0003377889692335821,0.9999992659436397,2902934.0,0.03,0.15,-1.0,-0.06,-0.12,-0.06,-55.06,0.6,-53.71,2905909.0,0.16,0.12,1.0,-0.06,-0.12,0.06,-5.55,34.51,16.05,100620,1603197527.582074,body_FLU,-0.023844158385061685,0.0022999803627553324,-0.5834140218719294,0.8118215600022328,-0.0013440585462376475,0.0038334857672452927,0.0029712996911257505,0.21027871308848262,-0.32279616343975065,9.664445559024811,9288,1603197527.5958943,rc,0.0,0.0,0.0,0.0,0.0,-10000.0
,,123847.634339,0.4784579277038574,135953,1603198308.7947197,/world,vicon/testobj/testobj,-0.012018932979017674,-0.213296920236191,1.3941840429256074,-0.0006607584535557067,-0.001101362622866492,0.0003334925746016594,0.9999991195902833,2902944.0,0.04,0.14,-0.99,0.0,-0.06,-0.06,-56.41,-0.3,-53.11,2905918.0,0.15,0.12,1.0,0.0,0.0,-0.18,-4.8,33.46,16.65,100621,1603197527.6097753,body_FLU,-0.023856305113885333,0.002302625851038191,-0.5834095729522175,0.811824392838879,0.003197351237758994,0.0015315976925194263,0.0033869529142975807,0.3274451816752553,-0.46520067075267435,9.84847789335251,9288,1603197527.5958943,rc,0.0,0.0,0.0,0.0,0.0,-10000.0
,,123847.657903,0.5020201206207275,135955,1603198308.8147476,/world,vicon/testobj/testobj,-0.012020244497102768,-0.21330291222355593,1.3941891475228236,-0.0006596373289784578,-0.001026736880557377,0.00031967566388310117,0.9999992042484045,2902954.0,0.03,0.15,-0.99,0.06,0.0,-0.12,-55.81,1.35,-52.96,2905927.0,0.14,0.11,1.0,0.0,-0.06,-0.12,-4.8,33.46,16.65,100622,1603197527.640255,body_FLU,-0.023866200304130853,0.0023167715049996845,-0.5833993188888854,0.8118314306386648,0.0013305003521963954,0.00621913792565465,0.004681806080043316,0.20874237923696637,-0.40231748709082604,9.900836069226266,9289,1603197527.6541054,rc,0.0,0.0,0.0,0.0,0.0,-10000.0
,,123847.679468,0.523615837097168,135957,1603198308.8348083,/world,vicon/testobj/testobj,-0.012021714268227728,-0.21330321757963844,1.3942041513287975,-0.000687836893140558,-0.0011019489183326464,0.0003049428706696123,0.9999991097990215,2902964.0,0.04,0.15,-0.98,0.0,-0.12,0.0,-56.56,0.0,-52.96,2905936.0,0.15,0.12,0.98,-0.06,-0.12,0.06,-6.15,34.96,16.35,100623,1603197527.6624517,body_FLU,-0.02385720371381259,0.0022976616490376937,-0.5834016255792673,0.8118300917392582,-0.00010935717727988958,0.006807655096054077,-0.0001810829562600702,0.2532643141206354,-0.3271727688498795,9.844928384542465,9289,1603197527.6541054,rc,0.0,0.0,0.0,0.0,0.0,-10000.0
,,123847.701768,0.5459022521972656,135959,1603198308.8548057,/world,vicon/testobj/testobj,-0.012018527081966646,-0.21329865724433056,1.3941972526853676,-0.0006949079394455453,-0.001044737820446152,0.00033861717648322705,0.9999991554817684,2902974.0,0.03,0.15,-0.99,-0.06,-0.12,0.0,-56.56,0.0,-53.71,2905945.0,0.14,0.12,1.0,-0.12,-0.12,-0.12,-6.15,35.56,16.65,100624,1603197527.6818914,body_FLU,-0.02386737103114472,0.002303008503418334,-0.5833844525274766,0.8118421184572228,0.0007025934173725545,0.0037416298873722553,0.0036258534528315067,0.11114013351593167,-0.39528126937150954,9.888811202645302,9290,1603197527.6957293,rc,0.0,0.0,0.0,0.0,0.0,-10000.0
,,123847.726071,0.5702245235443115,135962,1603198308.8849642,/world,vicon/testobj/testobj,-0.01202277955965284,-0.2132970091845804,1.3941875780285002,-0.0005915341402420854,-0.0009890834501834877,0.00033037748628836686,0.9999992813257448,2902984.0,0.04,0.14,-0.99,0.0,-0.12,-0.06,-55.81,0.6,-52.66,2905954.0,0.13,0.13,1.0,-0.12,-0.12,0.06,-6.6,34.51,17.4,100625,1603197527.7096148,body_FLU,-0.02386708215621589,0.002308972113208283,-0.5833775292912649,0.8118470849582132,-0.003430006094276905,0.0026690782979130745,0.004613702185451984,0.1933180663995445,-0.47562282544747,9.88919092297554,9290,1603197527.6957293,rc,0.0,0.0,0.0,0.0,0.0,-10000.0
,,123847.74964,0.5937583446502686,135964,1603198308.905029,/world,vicon/testobj/testobj,-0.012018861797105538,-0.21330540356032412,1.3941956913894824,-0.0007199720718326239,-0.0011302852488956003,0.0003209644771378029,0.9999990505381874,2902993.0,0.04,0.14,-1.0,-0.06,-0.12,0.0,-57.46,-0.3,-53.41,2905963.0,0.14,0.11,1.0,-0.12,-0.06,-0.06,-6.75,34.81,16.8,100628,1603197527.7484093,body_FLU,-0.023876613539427268,0.0023139440861374753,-0.5833704075002955,0.8118519080728913,-0.0020855176262557507,0.0019232934573665261,0.003011188004165888,0.05439979334548116,-0.45035262002795934,9.80050986868143,9290,1603197527.6957293,rc,0.0,0.0,0.0,0.0,0.0,-10000.0
,,123847.773225,0.617408275604248,135967,1603198308.9349759,/world,vicon/testobj/testobj,-0.012019675433997486,-0.21330425271771242,1.3941968470820543,-0.0006353923604652355,-0.0010507773853715156,0.0003097454855618411,0.9999991981002628,2903004.0,0.04,0.15,-0.98,0.0,-0.06,-0.06,-55.96,0.75,-52.51,2905972.0,0.13,0.12,1.0,0.06,-0.12,-0.06,-4.95,35.11,16.2,100629,1603197527.762284,body_FLU,-0.02388261402852492,0.0023165875950166763,-0.5833775899982301,0.81184656287807,1.9257451640442014e-05,0.005267717409878969,-0.002302072709426284,0.00025429395865648986,-0.4828368180021644,9.850640546679497,9290,1603197527.6957293,rc,0.0,0.0,0.0,0.0,0.0,-10000.0
,,123847.796829,0.6409449577331543,135969,1603198308.954762,/world,vicon/testobj/testobj,-0.012040290972511322,-0.21332315541972613,1.394139946519061,-0.0003836613121430442,-0.0009168360303049115,0.0003342218846052342,0.9999994502555604,2903014.0,0.04,0.15,-0.98,-0.06,-0.12,0.0,-56.41,-0.3,-52.81,2906016.0,0.14,0.11,1.0,-0.06,-0.12,0.06,-4.65,33.76,18.15,100630,1603197527.7817087,body_FLU,-0.02387225538951693,0.0023106184460931945,-0.5833690401040679,0.8118530282711723,0.0005624155746772885,0.0017868120921775699,0.005450759083032608,0.05180381157528609,-0.404946101076901,9.840679021954537,9291,1603197527.7955987,rc,0.0,0.0,0.0,0.0,0.0,-10000.0
,,123847.820445,0.6645667552947998,135971,1603198308.9748778,/world,vicon/testobj/testobj,-0.012023280750059111,-0.21330040443223955,1.3942031043841265,-0.0006475404090213444,-0.0010739876081269565,0.000315028023120759,0.999999163999341,2903024.0,0.04,0.16,-1.01,0.0,0.0,-0.06,-55.66,-0.9,-53.11,2906025.0,0.14,0.12,1.0,-0.12,-0.06,-0.06,-5.7,35.11,17.85,100632,1603197527.8177595,body_FLU,-0.023866167648492986,0.0023170683431432905,-0.5833729038447674,0.8118504125119301,0.00018577193259261549,0.005345176439732313,-5.19928835274186e-05,0.16476408337801696,-0.35332199032232164,9.908771639943122,9291,1603197527.7955987,rc,0.0,0.0,0.0,0.0,0.0,-10000.0
,,123847.844637,0.688758134841919,135974,1603198309.5027418,/world,vicon/testobj/testobj,-0.012020491471577377,-0.21329072115838998,1.3941800759088014,-0.0005950968487169074,-0.0010084524201041183,0.00031348493687813437,0.9999992653050558,2903034.0,0.03,0.15,-1.0,0.0,0.0,-0.06,-56.26,0.3,-52.96,2906034.0,0.14,0.13,0.99,-0.12,-0.06,-0.06,-5.4,35.11,17.25,100634,1603197527.8399622,body_FLU,-0.023859930194865264,0.0023297196041857644,-0.583365413516884,0.8118559419317796,0.0011528095928952098,0.00779882725328207,0.00338365463539958,0.17023609066195786,-0.3062220282331109,9.871414169669151,9291,1603197527.7955987,rc,0.0,0.0,0.0,0.0,0.0,-10000.0
,,123847.867956,0.7120819091796875,135976,1603198309.248962,/world,vicon/testobj/testobj,-0.012019821173267877,-0.2133035612154133,1.394195195363709,-0.0007314719684535113,-0.0011410193659805166,0.00031598704976097355,0.9999990315874061,2903044.0,0.04,0.15,-0.99,-0.12,-0.06,0.06,-57.31,-0.45,-52.96,2906044.0,0.14,0.12,1.0,-0.06,-0.12,-0.06,-6.45,34.36,17.25,100635,1603197527.8621013,body_FLU,-0.02384836023736394,0.0023059877654353286,-0.5833687334411619,0.8118539640709215,0.0014480327954515815,0.0054826559498906136,0.0018914120737463236,0.24400185817480088,-0.40534170394018293,9.789994536459446,9292,1603197527.853814,rc,0.0,0.0,0.0,0.0,0.0,-10000.0
,,123847.889662,0.7337830066680908,135978,1603198309.4487462,/world,vicon/testobj/testobj,-0.012020448332294577,-0.21329596799849268,1.3941906528076093,-0.000635926461465026,-0.0010358221601439578,0.0003360915988889013,0.9999992048558966,2903054.0,0.04,0.16,-1.0,0.0,0.06,0.0,-55.66,1.2,-53.86,2906053.0,0.15,0.12,1.0,-0.06,-0.06,0.0,-5.85,34.21,17.1,100636,1603197527.8815465,body_FLU,-0.023851589416467003,0.002324626454956378,-0.5833663597435962,0.8118555216993096,0.0007463835645467043,0.004343116190284491,0.0006506557110697031,0.20853442758880555,-0.46010453182831407,9.707204989135265,9292,1603197527.853814,rc,0.0,0.0,0.0,0.0,0.0,-10000.0
,,123847.91182,0.7559409141540527,135980,1603198309.6492445,/world,vicon/testobj/testobj,-0.012018949821921698,-0.2133014011936059,1.394191986549345,-0.0006389469577337708,-0.0010753036408755814,0.0003417510376325627,0.9999991593371933,2903064.0,0.04,0.16,-1.0,0.06,-0.06,0.0,-56.26,1.05,-54.61,2906062.0,0.14,0.12,1.0,-0.06,-0.12,0.12,-6.0,35.11,16.8,100636,1603197527.8815465,body_FLU,-0.023851589416467003,0.002324626454956378,-0.5833663597435962,0.8118555216993096,0.0007463835645467043,0.004343116190284491,0.0006506557110697031,0.20853442758880555,-0.46010453182831407,9.707204989135265,9293,1603197527.8954115,rc,0.0,0.0,0.0,0.0,0.0,-10000.0
,,123847.937917,0.7820355892181396,135983,1603198309.9478574,/world,vicon/testobj/testobj,-0.012014286814070687,-0.213305751725878,1.3941986709554537,-0.0007273263245615459,-0.0011394869960965038,0.00031646393868834364,0.999999036207725,2903074.0,0.04,0.15,-0.99,-0.12,0.0,0.0,-55.96,0.75,-53.11,2906071.0,0.14,0.11,1.0,-0.06,-0.12,-0.12,-5.7,36.16,17.25,100639,1603197527.9314723,body_FLU,-0.02383740198023826,0.0023358782409987405,-0.5833656697197936,0.811856401916036,0.0033366521820425987,0.006925405003130436,0.0015452950028702617,0.24611135065555573,-0.5628768250197173,9.95663626384735,9293,1603197527.8954115,rc,0.0,0.0,0.0,0.0,0.0,-10000.0
,,123847.961063,0.8051755428314209,135985,1603198309.1147366,/world,vicon/testobj/testobj,-0.01202109854404853,-0.2132942772356155,1.3941898745094417,-0.0007190012162705717,-0.0011234670981006797,0.0003232024936600781,0.9999990581990957,2903084.0,0.04,0.15,-1.0,0.0,0.0,-0.06,-56.26,0.6,-53.26,2906080.0,0.15,0.12,1.0,-0.06,-0.12,0.0,-5.85,35.26,17.1,100642,1603197527.9591894,body_FLU,-0.023857035811331823,0.002344638921256758,-0.5833628511255203,0.8118578252608827,-0.0007393226260319352,0.0030243690125644207,0.001007093582302332,0.3470693474113941,-0.30665786684677004,9.91334814620018,9293,1603197527.8954115,rc,0.0,0.0,0.0,0.0,0.0,-10000.0
,,123847.986221,0.8303403854370117,135988,1603198309.1448538,/world,vicon/testobj/testobj,-0.012009907296427024,-0.21329900746554464,1.394191860873339,-0.0006749468252130449,-0.0010455799545684519,0.00033166997509888134,0.9999991706018407,2903094.0,0.04,0.15,-1.01,-0.06,-0.06,-0.06,-55.36,-1.35,-53.11,2906089.0,0.15,0.12,1.0,-0.06,-0.18,-0.06,-5.7,35.11,17.25,100644,1603197527.9786308,body_FLU,-0.02385048161167955,0.0023392625284046134,-0.5833659294519271,0.8118558213946633,-0.0015300731174647808,0.0030644312500953674,-0.0007780103478580713,0.21405145363882183,-0.24311296574212612,9.922321229696275,9293,1603197527.8954115,rc,0.0,0.0,0.0,0.0,0.0,-10000.0
,,123848.008525,0.8526449203491211,135990,1603198309.164904,/world,vicon/testobj/testobj,-0.012022843218439936,-0.2132965193520523,1.3941760785961006,-0.0006208333780051612,-0.0009931729717981477,0.00032609068041153144,0.9999992609188434,2903104.0,0.04,0.15,-0.99,-0.06,-0.06,-0.06,-54.46,0.6,-53.26,2906098.0,0.15,0.12,0.99,-0.12,-0.12,0.0,-7.5,35.86,16.8,100645,1603197527.9924948,body_FLU,-0.02385935464505091,0.0023453622069839228,-0.5833686232766033,0.8118536074000041,-0.002573952544480562,0.004197846632450819,0.0013591099996119738,0.14275690786074846,-0.275541501827538,9.984159561753273,9293,1603197527.8954115,rc,0.0,0.0,0.0,0.0,0.0,-10000.0
,,123848.033226,0.8773453235626221,135993,1603198309.1946974,/world,vicon/testobj/testobj,-0.012021931174157294,-0.213299033631426,1.3941970040774845,-0.0007207517747721752,-0.0010481726452557013,0.0003082363643849182,0.9999991434202975,2903114.0,0.04,0.14,-0.99,-0.06,-0.12,0.0,-55.06,0.0,-54.31,2906107.0,0.15,0.13,0.99,-0.12,-0.06,0.0,-5.55,34.21,17.4,100646,1603197528.202097,body_FLU,-0.023846529871460204,0.0023489617840294673,-0.5833717564284836,0.8118517224180613,0.0056109679862856865,0.0018429525662213564,0.00159997190348804,0.14869635452236982,-0.4480997466109693,9.898475961327552,9293,1603197527.8954115,rc,0.0,0.0,0.0,0.0,0.0,-10000.0
,,123848.057795,0.9019157886505127,135995,1603198309.2147324,/world,vicon/testobj/testobj,-0.012025510484685848,-0.2132975676684798,1.3941958874265725,-0.0006895215332519784,-0.001123355763536082,0.0003910367395197028,0.9999990548606293,2903124.0,0.04,0.15,-1.0,-0.06,-0.06,0.06,-55.06,1.35,-53.71,2906116.0,0.15,0.12,0.99,-0.12,-0.18,-0.06,-5.55,34.21,17.4,100647,1603197528.424432,body_FLU,-0.02382708785939759,0.002377072830818947,-0.5833823915380388,0.8118445692694235,0.0007657757960259914,0.009328874759376049,-0.00017181935254484415,0.19779602792859077,-0.4416822174489498,9.751832643270493,9294,1603197528.3406508,rc,0.0,0.0,0.0,0.0,0.0,-10000.0
,,123848.080532,0.9246504306793213,135997,1603198309.2347496,/world,vicon/testobj/testobj,-0.012020975530314542,-0.21330307008142632,1.3942024194207765,-0.0006840815741161781,-0.0010864122496297903,0.0003137934174759966,0.9999991266368761,2903134.0,0.03,0.16,-1.0,0.0,0.06,-0.06,-55.51,-0.45,-52.96,2906125.0,0.15,0.12,0.99,-0.06,-0.18,0.0,-4.5,34.51,17.1,100648,1603197528.6182873,body_FLU,-0.02380807756890735,0.0023759710771879823,-0.5833857716703682,0.8118427012768435,0.00126339728012681,0.006562540307641029,9.561562910676003e-05,0.2749739294685423,-0.40233355218172073,9.734054721593857,9295,1603197528.7570436,rc,0.0,0.0,0.0,0.0,0.0,-10000.0
,,123848.104956,0.9490737915039062,136000,1603198309.2648933,/world,vicon/testobj/testobj,-0.012019322878777597,-0.21330524947357327,1.3941917560762245,-0.0006848856712824373,-0.0010562174409190284,0.0003039587640120533,0.9999991614723507,2903144.0,0.03,0.15,-0.99,0.06,0.0,-0.06,-56.56,1.35,-52.96,2906134.0,0.15,0.11,0.99,-0.18,-0.06,-0.12,-5.55,32.86,16.05,100649,1603197528.8955166,body_FLU,-0.02380946100317291,0.0023960088573417057,-0.5833623773850978,0.8118594123121939,0.0005350508727133274,0.002062114654108882,0.0034327933099120855,0.37101604492217305,-0.3835863213390112,9.87093046438694,9295,1603197528.7570436,rc,0.0,0.0,0.0,0.0,0.0,-10000.0
,,123848.12929,0.9734091758728027,136002,1603198309.2846909,/world,vicon/testobj/testobj,-0.012029447043483361,-0.21331176289052484,1.394131324406333,-0.00021508274473795296,-0.0007284050016271743,0.0003262092301799551,0.999999658376494,2903154.0,0.04,0.15,-1.0,0.0,0.0,0.0,-56.41,0.15,-53.41,2906184.0,0.15,0.11,1.0,-0.06,-0.18,0.0,-4.95,34.36,17.25,100651,1603197528.1172745,body_FLU,-0.023795368756049273,0.0024016333477779074,-0.5833681705976284,0.8118556461074857,0.00017376872710883617,-9.000605496112257e-05,0.001334748463705182,0.29580567887797954,-0.546080370862037,9.90808230149746,9295,1603197528.7570436,rc,0.0,0.0,0.0,0.0,0.0,-10000.0
,,123848.153858,0.9979734420776367,136005,1603198309.3148959,/world,vicon/testobj/testobj,-0.012026609848559876,-0.2133030387851311,1.3941933524902026,-0.0006462361220595825,-0.0010593029454637063,0.00032577084894988854,0.9999991770644105,2903164.0,0.04,0.15,-1.0,0.0,0.12,0.0,-55.36,-0.6,-53.41,2906193.0,0.16,0.12,1.0,-0.06,-0.12,0.0,-5.4,34.06,17.55,100654,1603197528.150539,body_FLU,-0.023780265749687862,0.002408700985873134,-0.5833699532954306,0.8118547867152855,-9.69545217230916e-05,0.0019236262887716293,-0.0016656843945384026,0.29549131425842645,-0.564273976765573,9.97549726474285,9295,1603197528.7570436,rc,0.0,0.0,0.0,0.0,0.0,-10000.0
,,123848.177751,1.0218679904937744,136007,1603198309.3347285,/world,vicon/testobj/testobj,-0.012018588876479223,-0.21330308583482835,1.3942021509060245,-0.0006292244211923296,-0.0010925442489966926,0.0003142105246503041,0.9999991558473627,2903173.0,0.04,0.15,-0.99,-0.12,-0.06,-0.12,-54.76,1.35,-53.71,2906202.0,0.15,0.12,1.0,-0.06,-0.06,-0.06,-4.8,35.26,17.1,100656,1603197528.1727343,body_FLU,-0.023769265147734697,0.0024272730958228954,-0.583363581673187,0.8118596319297358,0.0029580877162516117,0.007956084795296192,0.0020029896404594183,0.29962566540017727,-0.43482592874765397,9.906357787013054,9295,1603197528.7570436,rc,0.0,0.0,0.0,0.0,0.0,-10000.0
,,123848.201912,1.0460410118103027,136009,1603198309.354886,/world,vicon/testobj/testobj,-0.012016407154381206,-0.21330871156482045,1.3941925406501767,-0.0006396930590125921,-0.0010800525455151803,0.0003327289789007354,0.9999991567850024,2903183.0,0.04,0.15,-0.99,0.0,-0.12,0.0,-55.66,0.45,-53.11,2906212.0,0.15,0.12,1.0,-0.06,-0.12,0.0,-5.85,34.96,16.35,100659,1603197528.2004597,body_FLU,-0.02376044037511119,0.0024288866361349753,-0.5833617000720981,0.8118612374487901,-0.0010460377670824528,0.005008540581911802,0.0049871644005179405,0.30534936519339684,-0.3818678677752614,9.76760739415884,9295,1603197528.7570436,rc,0.0,0.0,0.0,0.0,0.0,-10000.0
,,123848.225847,1.0699656009674072,136012,1603198309.38483,/world,vicon/testobj/testobj,-0.01202651811936169,-0.21329825802034982,1.3941974111178228,-0.0007048136382550105,-0.0011582252972864814,0.00036991857442009407,0.9999990124555845,2903194.0,0.04,0.15,-1.0,0.06,0.0,-0.06,-54.61,0.75,-54.16,2906221.0,0.15,0.12,0.98,0.0,0.0,-0.06,-4.65,34.36,17.55,100661,1603197528.2226655,body_FLU,-0.023731430451589743,0.0024292803394683066,-0.5833668586126902,0.8118583780919644,0.0016014926368370652,0.0016542028170078993,-0.001013363478705287,0.3090268105454743,-0.35567651195079086,9.771550643742085,9295,1603197528.7570436,rc,0.0,0.0,0.0,0.0,0.0,-10000.0
,,123848.248922,1.0930395126342773,136014,1603198309.4049933,/world,vicon/testobj/testobj,-0.012028894404390159,-0.21330843378503872,1.394133890980456,-0.00027410920922490593,-0.0007476107029566458,0.00033452750862957893,0.9999996270167926,2903204.0,0.04,0.16,-0.99,0.0,0.0,-0.18,-54.76,-0.45,-53.71,2906229.0,0.15,0.12,1.0,0.12,-0.06,-0.06,-5.85,34.96,15.6,100662,1603197528.2421243,body_FLU,-0.023724707831447832,0.002450843244758998,-0.5833655641564254,0.8118594399045672,-0.0009465113980695605,0.007666024379432201,0.0023323879577219486,0.2096224906370044,-0.33164605689793825,9.739262731969356,9295,1603197528.7570436,rc,0.0,0.0,0.0,0.0,0.0,-10000.0
,,123848.271631,1.1157732009887695,136016,1603198309.4247677,/world,vicon/testobj/testobj,-0.012023201105874213,-0.2132999206623735,1.3942003125962428,-0.0007160240665577801,-0.001138102327138167,0.0003195840432792442,0.9999990449488781,2903214.0,0.04,0.15,-0.99,-0.06,-0.06,0.06,-56.26,1.05,-53.71,2906239.0,0.15,0.13,0.99,-0.12,-0.06,0.0,-6.45,34.81,17.55,100663,1603197528.2697976,body_FLU,-0.02370927826699072,0.002452476312764224,-0.5833715198914198,0.8118556061662496,-0.00041446409886702895,0.004321149084717035,0.002849323209375143,0.13990777311846614,-0.4411426859758794,9.81650544154644,9296,1603197528.2559533,rc,0.0,0.0,0.0,0.0,0.0,-10000.0
,,123848.296522,1.140641212463379,136019,1603198309.4549375,/world,vicon/testobj/testobj,-0.012013849105193451,-0.2132994839540029,1.3941917045747523,-0.000657553358275878,-0.0011021354713567093,0.0003336240022123182,0.999999120807618,2903224.0,0.03,0.15,-0.98,0.0,-0.12,-0.06,-55.81,0.3,-54.31,2906248.0,0.14,0.12,1.0,0.06,0.0,-0.06,-4.95,35.41,17.85,100665,1603197528.2892497,body_FLU,-0.023702375602175158,0.002461600535672828,-0.5833827625843236,0.8118477013782196,0.0023853506427258253,0.0033134487457573414,-0.001920436741784215,0.21292870459891855,-0.4030686396248639,9.9068847219944,9296,1603197528.2559533,rc,0.0,0.0,0.0,0.0,0.0,-10000.0
,,123848.319882,1.1640040874481201,136021,1603198309.4748702,/world,vicon/testobj/testobj,-0.012013446527734327,-0.21329868245977776,1.394190289454758,-0.0006624030593672545,-0.0010602169104238887,0.0003402075472036914,0.9999991607102051,2903234.0,0.04,0.15,-0.99,-0.06,-0.24,-0.06,-55.96,0.15,-52.06,2906257.0,0.14,0.12,0.99,-0.06,-0.12,0.12,-4.95,35.41,17.85,100667,1603197528.3169713,body_FLU,-0.023692837006715022,0.002478999256938181,-0.5833729260029127,0.8118549952079235,-0.00010099314386025071,0.006450776010751724,-0.0028204787522554398,0.32609943822026255,-0.4024624745361507,9.781281999528408,9296,1603197528.2559533,rc,0.0,0.0,0.0,0.0,0.0,-10000.0
,,123848.343844,1.1879708766937256,136024,1603198309.5048854,/world,vicon/testobj/testobj,-0.012012045438517277,-0.21329623373021228,1.3941874758510937,-0.0005688677054607483,-0.0010054546697819456,0.00032411552773413545,0.9999992801995237,2903244.0,0.04,0.15,-0.99,-0.12,-0.06,0.0,-55.66,0.45,-54.91,2906266.0,0.14,0.12,1.0,0.0,-0.06,0.06,-6.6,33.16,17.1,100669,1603197528.3391583,body_FLU,-0.02367791723862767,0.0024717512011828524,-0.5833749640761191,0.811853988085559,0.004089186433702707,0.0075504472479224205,3.2568350434303284e-06,0.21968635729327798,-0.3912225702032447,9.82047673201561,9296,1603197528.2559533,rc,0.0,0.0,0.0,0.0,0.0,-10000.0
,,123848.36593,1.210054874420166,136026,1603198309.5247762,/world,vicon/testobj/testobj,-0.012021124900725287,-0.21329761779362189,1.3941929324816567,-0.0007086520916528639,-0.0011134205404242682,0.0003153405307126847,0.9999990793332076,2903254.0,0.05,0.15,-0.99,-0.06,-0.12,0.06,-54.76,0.3,-54.31,2906275.0,0.14,0.12,0.99,-0.06,-0.12,0.0,-6.45,34.81,16.2,100670,1603197528.350246,body_FLU,-0.02366982180890318,0.0024825730685872275,-0.583370360950723,0.8118574987833252,-0.001858590403571725,0.006487427279353142,0.002798674162477255,0.2419769995138049,-0.4122361107207835,9.88207437980175,9296,1603197528.2559533,rc,0.0,0.0,0.0,0.0,0.0,-10000.0
,,123848.38745,1.2316179275512695,136028,1603198309.544754,/world,vicon/testobj/testobj,-0.012021139231309284,-0.2132997759318694,1.3941949167333176,-0.0006251723522809647,-0.0010640431477765304,0.0003326882849425432,0.9999991831447737,2903264.0,0.04,0.15,-0.99,-0.06,-0.06,0.06,-56.56,0.3,-52.21,2906284.0,0.13,0.12,1.0,0.0,0.0,0.0,-5.85,35.26,17.1,100671,1603197528.3696423,body_FLU,-0.023653249468482643,0.0024858999588614405,-0.5833637364977314,0.8118627316427215,0.004623904824256897,0.0037776397075504065,0.0037582635413855314,0.25787716764584184,-0.506323907867074,9.899047294378281,9296,1603197528.2559533,rc,0.0,0.0,0.0,0.0,0.0,-10000.0
,,123848.409133,1.2532517910003662,136030,1603198309.564906,/world,vicon/testobj/testobj,-0.012040379507816848,-0.21332173042179303,1.3941466542806737,-0.00038515401149113597,-0.0008576396108584988,0.0003148986784000113,0.999999508474633,2903274.0,0.03,0.15,-0.98,-0.06,-0.12,-0.12,-57.01,0.45,-53.11,2906293.0,0.14,0.12,1.0,-0.12,-0.12,-0.06,-7.05,34.06,16.5,100672,1603197528.389075,body_FLU,-0.023647836037259267,0.0025019054813277958,-0.5833686540743774,0.811859306630876,0.0007360545569099486,0.0037578712217509747,0.00012811541091650724,0.19669936640560629,-0.5410255265235902,9.888524951934814,9296,1603197528.2559533,rc,0.0,0.0,0.0,0.0,0.0,-10000.0
,,123848.431206,1.2753446102142334,136032,1603198309.5845916,/world,vicon/testobj/testobj,-0.012029413662634965,-0.21330042431160356,1.3941925076902748,-0.0006562803506857546,-0.0010945938760783447,0.0003446073184185128,0.9999991262026902,2903284.0,0.04,0.15,-1.0,0.06,0.0,0.0,-54.91,-0.6,-53.11,2906302.0,0.14,0.12,1.0,-0.12,-0.18,-0.12,-6.45,33.76,16.5,100674,1603197528.4168112,body_FLU,-0.023625417502688015,0.0024904696092439885,-0.5833777000749469,0.8118534943351627,0.001940218498930335,0.00803605280816555,-0.00014275667490437627,0.2559934079479426,-0.4230259004160762,9.832732935905456,9296,1603197528.2559533,rc,0.0,0.0,0.0,0.0,0.0,-10000.0
,,123848.455763,1.2998957633972168,136035,1603198309.61492,/world,vicon/testobj/testobj,-0.01201985225129801,-0.21330122322459003,1.3941997686206866,-0.0007050870586938639,-0.0011700536812986656,0.0003182101903762617,0.9999990162839648,2903294.0,0.04,0.15,-0.99,-0.06,-0.06,-0.06,-54.46,1.05,-54.01,2906311.0,0.15,0.12,1.0,-0.06,-0.18,-0.06,-6.6,34.21,18.45,100677,1603197528.4501019,body_FLU,-0.023614293073445907,0.002481804588530193,-0.5833760710310699,0.8118550151085954,0.0019747207406908274,0.00853484682738781,0.004108152352273464,0.2010248556174338,-0.4127003553360701,9.784833260893821,9296,1603197528.2559533,rc,0.0,0.0,0.0,0.0,0.0,-10000.0
,,123848.478315,1.322434663772583,136037,1603198309.634866,/world,vicon/testobj/testobj,-0.012016153470353433,-0.21331016959989937,1.394185627567437,-0.0006370355769152572,-0.0010791483886326027,0.00031498200440042143,0.9999991652050345,2903304.0,0.04,0.15,-1.0,-0.06,-0.06,0.0,-54.61,-0.9,-53.86,2906353.0,0.13,0.12,0.99,-0.06,-0.12,0.06,-4.65,35.41,17.55,100678,1603197528.469492,body_FLU,-0.02362255563676226,0.0024918407165625705,-0.5833786525352097,0.8118528889898925,-0.0013386246282607317,0.00403568334877491,-0.003528058063238859,0.3328362975753844,-0.40217848754301666,9.907680382132531,9296,1603197528.2559533,rc,0.0,0.0,0.0,0.0,0.0,-10000.0
,,123848.500581,1.3447010517120361,136039,1603198309.6547818,/world,vicon/testobj/testobj,-0.012019593881254205,-0.2132941361628965,1.3941841044654053,-0.0006557607912736571,-0.0011232561920693992,0.0003261828624579236,0.9999991009386218,2903314.0,0.03,0.15,-0.99,0.0,0.06,0.0,-55.36,0.15,-53.11,2906362.0,0.14,0.12,0.99,-0.06,-0.18,0.06,-4.65,35.41,17.25,100680,1603197528.4888997,body_FLU,-0.02361467629214752,0.0024982055636140134,-0.5833668548745516,0.8118615760499771,0.003597922855988145,0.0059179579839110374,0.0028121252544224262,0.24302429739385845,-0.38023985337093474,9.946951642870903,9296,1603197528.2559533,rc,0.0,0.0,0.0,0.0,0.0,-10000.0
,,123848.524554,1.3686716556549072,136042,1603198309.6847143,/world,vicon/testobj/testobj,-0.012024023163818972,-0.21330032192381876,1.394184690972763,-0.0005871806752095541,-0.0010034084579239057,0.00030145737724246777,0.9999992787566253,2903324.0,0.03,0.15,-0.99,0.0,0.0,0.0,-54.91,-0.3,-53.11,2906372.0,0.14,0.12,1.0,-0.06,-0.06,-0.12,-6.9,34.51,17.1,100682,1603197528.5166721,body_FLU,-0.023624204183445796,0.002505398782419874,-0.5833603075785033,0.8118659812404716,0.002076580189168453,0.007210979238152504,0.0030870975460857153,0.22244246968254447,-0.5156311817653477,9.830728012561798,9296,1603197528.2559533,rc,0.0,0.0,0.0,0.0,0.0,-10000.0
,,123848.547747,1.3918709754943848,136044,1603198309.705022,/world,vicon/testobj/testobj,-0.012032719626817477,-0.21331755387409396,1.3941391828487446,-0.000349770500077898,-0.0008061910245905847,0.0003223968055799209,0.9999995618883685,2903334.0,0.04,0.15,-1.0,0.06,0.0,-0.06,-57.76,-0.9,-54.91,2906381.0,0.13,0.11,1.0,-0.06,-0.12,0.06,-5.55,33.91,17.7,100684,1603197528.5388103,body_FLU,-0.023623985008016178,0.0024938986333066138,-0.583372164338792,0.8118575033074593,-0.002067004796117544,0.0034424643963575363,-0.0011476202635094523,0.2888940751478076,-0.4906276568546891,9.760468067765236,9296,1603197528.2559533,rc,0.0,0.0,0.0,0.0,0.0,-10000.0
,,123848.569882,1.41402268409729,136046,1603198309.725033,/world,vicon/testobj/testobj,-0.01201638691172013,-0.21330078195892155,1.3941841909003598,-0.0007068219817240852,-0.0011611118093351452,0.0003443604433155839,0.9999990168184855,2903344.0,0.04,0.15,-1.0,0.0,0.0,0.12,-56.26,0.6,-54.01,2906390.0,0.14,0.11,0.98,-0.06,-0.06,-0.06,-6.0,35.86,17.85,100685,1603197528.5499218,body_FLU,-0.023621253023142098,0.002503674030904344,-0.58336323128644,0.8118639716140921,0.00027644747751764953,0.00849919579923153,0.0004740316071547568,0.2875137369800359,-0.4561535052806139,9.766876578569413,9296,1603197528.2559533,rc,0.0,0.0,0.0,0.0,0.0,-10000.0
,,123848.59598,1.4400982856750488,136049,1603198309.7550056,/world,vicon/testobj/testobj,-0.012015203389319528,-0.21330126049433598,1.3941905155883034,-0.0006519329467536586,-0.0010714237845707878,0.00032601347612115563,0.9999991603745076,2903354.0,0.04,0.15,-0.99,-0.12,-0.06,0.0,-55.36,-0.6,-54.16,2906399.0,0.14,0.12,1.0,-0.12,-0.12,0.0,-3.9,35.41,18.15,100688,1603197528.5887458,body_FLU,-0.02363248084747787,0.0025073717898060205,-0.5833501204882521,0.8118730540312586,-0.00020649639191105962,0.007213654927909374,0.00417547719553113,0.2701121583133936,-0.4869675910100341,10.012475014686585,9296,1603197528.2559533,rc,0.0,0.0,0.0,0.0,0.0,-10000.0
,,123848.619298,1.4634859561920166,136051,1603198309.7748458,/world,vicon/testobj/testobj,-0.01202400598118911,-0.21329448005071933,1.3941984236679101,-0.0007056136456210236,-0.0011287685090703875,0.0003047583607247378,0.9999990675562541,2903364.0,0.04,0.15,-0.99,-0.06,-0.06,0.0,-55.66,0.45,-53.86,2906408.0,0.15,0.11,1.0,-0.06,-0.12,-0.06,-6.15,34.51,17.7,100689,1603197528.602646,body_FLU,-0.023644750561627167,0.0025062920257896363,-0.5833578596814308,0.8118671392654465,0.0013422807678580284,-0.0007583581609651446,0.0012763052945956588,0.16540553689934315,-0.4735042415857315,9.958579263567925,9296,1603197528.2559533,rc,0.0,0.0,0.0,0.0,0.0,-10000.0
,,123848.643748,1.4878668785095215,136054,1603198309.8049872,/world,vicon/testobj/testobj,-0.012013381394001665,-0.2132955000890781,1.3941799383334297,-0.0006159470779115517,-0.0011091782390823103,0.0003273559983305118,0.9999991415850723,2903374.0,0.04,0.15,-1.0,-0.12,-0.06,0.06,-56.86,-0.75,-52.21,2906417.0,0.14,0.12,1.0,-0.06,-0.18,-0.06,-5.4,34.36,17.55,100690,1603197528.622041,body_FLU,-0.02363925148533024,0.0025072902152368983,-0.5833584747901702,0.8118668543397224,-0.0021517807617783546,0.007171980571001768,-0.0006232818122953176,0.1627008145451546,-0.33992907171696424,9.884144731879234,9297,1603197528.6358848,rc,0.0,0.0,0.0,0.0,0.0,-10000.0
,,123848.666703,1.5108239650726318,136056,1603198309.8248289,/world,vicon/testobj/testobj,-0.012024870679392998,-0.2132915893580785,1.394185805574576,-0.0006838706820874041,-0.0011356454591375507,0.0003345615868904079,0.9999990653489762,2903384.0,0.04,0.15,-0.99,0.0,0.06,-0.06,-56.86,0.6,-54.61,2906426.0,0.15,0.12,0.99,0.06,0.0,0.06,-5.4,34.36,17.55,100691,1603197528.6498117,body_FLU,-0.023646605585007408,0.002497495836444584,-0.5833555392233087,0.811868779678303,0.005833616480231285,0.005373002029955387,-0.00036908683250658214,0.2050364183485508,-0.4525067661590874,9.937427088618279,9297,1603197528.6358848,rc,0.0,0.0,0.0,0.0,0.0,-10000.0
,,123848.690324,1.53444242477417,136058,1603198309.8446891,/world,vicon/testobj/testobj,-0.012024158307510828,-0.21330231958422666,1.3941777829151063,-0.0006256192802011573,-0.0010608854384335279,0.00033283472843130524,0.999999186171492,2903394.0,0.03,0.15,-1.0,0.0,-0.06,0.0,-56.26,-0.45,-52.96,2906435.0,0.15,0.11,0.99,-0.06,-0.12,-0.06,-6.0,34.36,17.25,100694,1603197528.6886327,body_FLU,-0.023659302540883987,0.0024982161680485323,-0.5833458499487763,0.8118753695406683,0.0036972009111195803,0.006958904676139355,0.0018259610515087843,0.15508053949289025,-0.5355847183763981,9.789948970019818,9297,1603197528.6358848,rc,0.0,0.0,0.0,0.0,0.0,-10000.0
,,123848.714849,1.558966875076294,136061,1603198309.8748426,/world,vicon/testobj/testobj,-0.012019950029629207,-0.2133004417563811,1.394194437549666,-0.0007052842241424627,-0.0011328696654160657,0.0003083554081136314,0.9999990620482734,2903404.0,0.04,0.15,-0.99,-0.06,-0.12,-0.12,-56.56,-1.2,-52.66,2906444.0,0.15,0.11,0.99,0.0,-0.06,0.06,-5.4,34.81,16.8,100695,1603197528.7107584,body_FLU,-0.023658965361005674,0.002493017478549618,-0.583349673784571,0.8118726478440649,0.0006241572555154562,0.006268130149692297,-0.0003326848382130265,0.12887117433641107,-0.41242067670822147,9.853313777804376,9297,1603197528.6358848,rc,0.0,0.0,0.0,0.0,0.0,-10000.0
,,123848.738389,1.5825200080871582,136063,1603198309.8947165,/world,vicon/testobj/testobj,-0.012021883099176059,-0.21329456486552179,1.3941875054179447,-0.0006419819296377357,-0.001117509619868724,0.0003219939680769518,0.9999991176752787,2903414.0,0.04,0.15,-1.0,0.12,0.0,-0.06,-55.36,0.75,-53.86,2937484.0,0.13,0.12,1.01,-0.18,-0.06,-0.06,-5.85,35.26,17.4,100697,1603197528.7302122,body_FLU,-0.023651327570195405,0.0024892797196881516,-0.5833317519034332,0.8118857588429025,0.0033023920841515064,0.004260888323187828,0.005342553369700909,0.21176064470037817,-0.2906091331355274,9.874509182453156,9297,1603197528.6358848,rc,0.0,0.0,0.0,0.0,0.0,-10000.0
,,123848.762357,1.6064786911010742,136066,1603198309.9247162,/world,vicon/testobj/testobj,-0.012016686133437334,-0.21329579439294788,1.3941929271786369,-0.0006827675756091808,-0.0010909297505469935,0.0003249260716289245,0.9999991190614945,2903424.0,0.03,0.16,-1.0,-0.06,-0.06,0.0,-55.66,-0.3,-52.06,2937493.0,0.14,0.12,1.0,-0.06,-0.18,-0.12,-7.2,36.01,16.65,100698,1603197528.7496097,body_FLU,-0.02364705148282818,0.00247536590630024,-0.583341467681644,0.8118789451653639,-0.0008084523724392056,0.0048367734998464584,-0.002108844928443432,0.195912852415815,-0.2518350504487753,9.763924106955528,9297,1603197528.6358848,rc,0.0,0.0,0.0,0.0,0.0,-10000.0
,,123848.787686,1.631812572479248,136068,1603198309.9446402,/world,vicon/testobj/testobj,-0.01202328526235801,-0.21328971442397623,1.3941829210750525,-0.0006275799937208983,-0.001096476193140731,0.000317366192398917,0.9999991515806448,2903434.0,0.04,0.15,-1.0,-0.12,-0.18,-0.06,-56.56,-0.45,-53.26,2937503.0,0.14,0.12,1.0,0.18,0.0,0.0,-6.6,34.21,18.0,100701,1603197528.7829025,body_FLU,-0.02365513153179182,0.0024716676277419954,-0.5833370886247322,0.8118818674204842,-0.001288275932893157,0.00636440422385931,0.0015730047598481178,0.317568655885756,-0.4853254466280341,9.781725396037102,9297,1603197528.6358848,rc,0.0,0.0,0.0,0.0,0.0,-10000.0
,,123848.810446,1.654566764831543,136070,1603198309.96464,/world,vicon/testobj/testobj,-0.012030400777510176,-0.21327775047926795,1.3941932843857918,-0.0006088854888699442,-0.0010628317396440417,0.0003870660316298253,0.9999991749131806,2903444.0,0.04,0.15,-0.99,0.06,0.0,0.0,-55.81,0.0,-53.26,2937511.0,0.14,0.12,0.99,-0.06,-0.06,0.06,-4.95,34.81,16.5,100703,1603197528.8023193,body_FLU,-0.023657552253295265,0.002470937223921186,-0.5833350787770599,0.8118832431814191,0.004949446301907301,0.0013084649108350277,0.0029755535069853067,0.29712447679415344,-0.48628504371643066,9.843077686071396,9297,1603197528.6358848,rc,0.0,0.0,0.0,0.0,0.0,-10000.0
,,123848.833798,1.677915334701538,136073,1603198309.994659,/world,vicon/testobj/testobj,-0.012031432242968071,-0.21330435539044024,1.3941241417813355,-0.00035560576611090816,-0.0008552590244342718,0.00033858675708712686,0.9999995137176558,2903454.0,0.04,0.15,-0.99,0.0,-0.06,-0.12,-56.26,0.0,-53.26,2937521.0,0.14,0.12,0.99,-0.12,-0.12,-0.12,-6.45,34.06,17.55,100704,1603197528.821726,body_FLU,-0.023649660731438968,0.0024874983502614235,-0.5833396318182561,0.8118801511611101,-0.00031484049395658076,0.008044511079788208,-0.0025031142868101597,0.28040871320664884,-0.32449899005144833,9.873406240940094,9297,1603197528.6358848,rc,0.0,0.0,0.0,0.0,0.0,-10000.0
,,123848.85662,1.7007436752319336,136075,1603198310.1480544,/world,vicon/testobj/testobj,-0.012011975394355428,-0.21329641893967238,1.3941911608848907,-0.0007003206176288407,-0.0011364511700677543,0.00033200619020006504,0.9999990539003826,2903464.0,0.04,0.15,-1.0,-0.12,-0.12,-0.12,-56.56,-0.45,-54.01,2937530.0,0.15,0.12,1.0,0.06,0.06,-0.06,-6.0,35.41,17.25,100705,1603197528.841174,body_FLU,-0.023662097451525452,0.002487701713336901,-0.5833283909374349,0.8118878646775817,0.004060640931129456,0.00467824749648571,0.004347419831901789,0.2391403060890734,-0.3835394769944251,9.825019355535508,9297,1603197528.6358848,rc,0.0,0.0,0.0,0.0,0.0,-10000.0
,,123848.878317,1.7224373817443848,136077,1603198310.3466904,/world,vicon/testobj/testobj,-0.012021835020936315,-0.21329425163494647,1.394197715897767,-0.0006145690872601806,-0.0010416077784454949,0.00033554310893313356,0.9999992123841372,2903474.0,0.04,0.14,-1.0,0.0,0.0,-0.06,-55.96,-0.6,-54.46,2937539.0,0.14,0.11,1.0,-0.24,-0.12,0.06,-5.7,34.81,16.8,100706,1603197528.8605785,body_FLU,-0.023667868033307872,0.0024946817391613414,-0.5833194085154162,0.8118941287107594,-0.0009940884774550796,0.0058090644888579845,0.0011786442482843995,0.3018198282122612,-0.4267456626780331,9.822849691987038,9297,1603197528.6358848,rc,0.0,0.0,0.0,0.0,0.0,-10000.0
,,123848.900943,1.7450592517852783,136079,1603198310.548505,/world,vicon/testobj/testobj,-0.01201940991756206,-0.2132882854621368,1.394188434838554,-0.0006060275728147437,-0.0010562559953892186,0.0003313883702722564,0.9999992036174835,2903484.0,0.04,0.15,-0.99,0.0,0.0,-0.06,-58.21,1.5,-54.46,2937548.0,0.15,0.12,0.99,-0.18,-0.06,-0.06,-5.7,34.81,16.8,100707,1603197528.8799956,body_FLU,-0.023688624234389652,0.0024940377033084464,-0.5833245868705171,0.8118898048443255,0.0014618327841162682,0.007535648066550493,-0.0011432215105742216,0.22227515541203322,-0.45646129781752826,10.017898589372635,9298,1603197528.8938541,rc,0.0,0.0,0.0,0.0,0.0,-10000.0
,,123848.927075,1.7711925506591797,136082,1603198310.8464231,/world,vicon/testobj/testobj,-0.012011607457126814,-0.21329585373995733,1.394199567127168,-0.000727775347840639,-0.0011295847914361418,0.0003184857273543925,0.9999990464735872,2903494.0,0.04,0.15,-0.99,0.06,0.0,0.06,-56.26,-0.75,-53.26,2937557.0,0.16,0.12,1.0,-0.12,-0.06,0.12,-4.95,35.11,17.85,100709,1603197528.918763,body_FLU,-0.023699830511138553,0.002476694326269315,-0.5833286554116343,0.8118866077197064,0.003971310332417488,0.0066041722893714905,-0.0023023351095616817,0.2521445225179195,-0.4147531818598509,9.949377179503442,9298,1603197528.8938541,rc,0.0,0.0,0.0,0.0,0.0,-10000.0
,,123848.948483,1.792604684829712,136084,1603198310.1049895,/world,vicon/testobj/testobj,-0.012009882916387389,-0.21328859877550504,1.3942020063081182,-0.0006753895828283486,-0.0011158800882397908,0.00033297219926383716,0.9999990938946167,2903504.0,0.04,0.14,-1.0,0.0,0.06,-0.06,-56.56,1.35,-53.26,2937566.0,0.15,0.13,1.0,-0.12,-0.18,0.0,-6.15,33.91,16.65,100710,1603197528.9298866,body_FLU,-0.023697910975044468,0.002479016297956642,-0.5833196859779055,0.8118931009955999,0.00019695243099704385,0.008311690762639046,-0.0002225728239864111,0.29750907141901556,-0.5150056655444205,9.94864928483963,9298,1603197528.8938541,rc,0.0,0.0,0.0,0.0,0.0,-10000.0
,,123848.973334,1.8174512386322021,136087,1603198310.134608,/world,vicon/testobj/testobj,-0.011998226020809761,-0.2132953710668529,1.3941957426293559,-0.0005691900582698908,-0.0009487106624192872,0.00032576069878192243,0.9999993349251407,2903514.0,0.04,0.15,-0.99,0.0,0.0,-0.06,-55.06,0.6,-53.71,2937575.0,0.14,0.11,0.99,0.0,-0.12,0.0,-6.45,35.86,16.2,100713,1603197528.9687214,body_FLU,-0.023730407687041304,0.0024868167067961565,-0.5833197478695731,0.8118920834932751,0.0013089999556541443,0.0028513604775071144,0.002776478184387088,0.2109156026635319,-0.45443103544414043,9.947733282566071,9298,1603197528.8938541,rc,0.0,0.0,0.0,0.0,0.0,-10000.0
,,123848.996772,1.8408963680267334,136089,1603198310.1549716,/world,vicon/testobj/testobj,-0.012011801659135922,-0.21330376675689894,1.394204932617585,-0.0006743936333580637,-0.0010952874370177938,0.00032731714226851016,0.9999991192006851,2903524.0,0.04,0.15,-1.0,0.0,0.0,-0.06,-55.36,-1.65,-52.06,2937617.0,0.15,0.12,0.99,-0.06,-0.06,-0.06,-4.05,33.46,18.45,100714,1603197528.9825964,body_FLU,-0.023746561261433836,0.0024821595634547766,-0.5833155527281182,0.8118946395054277,-0.001116989878937602,0.005375102628022432,0.0047984980046749115,0.13879178784694524,-0.38183197690173987,9.874527876377106,9298,1603197528.8938541,rc,0.0,0.0,0.0,0.0,0.0,-10000.0
,,123849.01919,1.8633112907409668,136091,1603198310.1746473,/world,vicon/testobj/testobj,-0.01202998652493762,-0.21333176911364005,1.3941592738858486,-0.00035734419314175725,-0.0008413279123411516,0.000325186629278492,0.9999995293629531,2903533.0,0.04,0.15,-0.99,-0.06,-0.06,0.12,-56.41,-1.35,-53.41,2937627.0,0.15,0.11,0.99,-0.06,-0.06,0.0,-4.65,33.76,16.8,100715,1603197529.1031568,body_FLU,-0.02374988578006333,0.0024716846370283966,-0.583314650401289,0.8118952225057806,0.002423927653580904,0.0005069971666671336,0.004182293079793453,0.21567638281546533,-0.30569354151003064,9.850804118514061,9298,1603197528.8938541,rc,0.0,0.0,0.0,0.0,0.0,-10000.0
,,123849.041077,1.8852365016937256,136093,1603198310.1945999,/world,vicon/testobj/testobj,-0.012010602863404841,-0.21328574717104035,1.3942153294797723,-0.000731247235439918,-0.0011279229984945238,0.00032201443336531723,0.999999044686491,2903544.0,0.03,0.15,-0.99,0.06,0.0,0.0,-56.41,1.5,-52.81,2937636.0,0.15,0.12,0.98,-0.18,-0.06,0.12,-5.7,33.76,17.55,100716,1603197529.296876,body_FLU,-0.02374776144235841,0.002489209973596435,-0.5833304909337771,0.8118838500716361,0.002156758215278387,0.006979459896683693,-0.0015336810611188412,0.31262498927861454,-0.4617455443516374,9.817664464831353,9298,1603197528.8938541,rc,0.0,0.0,0.0,0.0,0.0,-10000.0
,,123849.065563,1.9096851348876953,136096,1603198310.2246525,/world,vicon/testobj/testobj,-0.012008430532867894,-0.21329558339571905,1.3942096600292428,-0.0006622231023819726,-0.0010576969749059263,0.00034020316335626495,0.99999916349939,2903554.0,0.04,0.15,-0.99,-0.12,-0.24,-0.06,-55.06,0.0,-53.71,2937645.0,0.15,0.12,0.99,-0.18,-0.06,0.06,-6.9,34.51,17.1,100719,1603197529.6298056,body_FLU,-0.023758066695248395,0.002484695480864466,-0.5833099149329646,0.8118983456666045,-0.0032581943087279797,0.006472673267126083,0.0015321652172133327,0.19702158101275563,-0.3212196668609977,9.758223044335843,9298,1603197528.8938541,rc,0.0,0.0,0.0,0.0,0.0,-10000.0
,,123849.088877,1.9330012798309326,136098,1603198310.2447224,/world,vicon/testobj/testobj,-0.012019428716590928,-0.21331168202186335,1.3941716095190793,-0.00040332506535749985,-0.0009030195405374031,0.0003347431275877856,0.9999994549156712,2903564.0,0.04,0.15,-0.99,-0.06,-0.06,-0.06,-55.96,1.2,-53.86,2937654.0,0.15,0.13,1.0,-0.06,-0.06,-0.12,-5.55,34.96,17.1,100721,1603197529.8239715,body_FLU,-0.023754208306590377,0.002473012520317412,-0.583311139228953,0.8118976146339035,0.0037002949975430965,5.2392337238416076e-05,0.0008296080050058663,0.12034056543186307,-0.34728381637483835,9.79337463158369,9298,1603197528.8938541,rc,0.0,0.0,0.0,0.0,0.0,-10000.0
,,123849.111835,1.9559650421142578,136100,1603198310.2650049,/world,vicon/testobj/testobj,-0.012017521105079327,-0.2133002691900004,1.3942198292064338,-0.0006758923715709596,-0.0011192881870198538,0.000398701941109632,0.9999990656996729,2903574.0,0.02,0.15,-1.01,-0.06,-0.18,0.0,-57.01,-0.3,-54.46,2937663.0,0.16,0.12,1.0,0.0,0.24,0.06,-4.35,35.11,17.55,100722,1603197529.1101627,body_FLU,-0.02378006293326433,0.0025062721213753546,-0.5832913596374004,0.8119109661651925,-0.0019898395985364914,0.004239490255713463,0.001839309697970748,0.09708188282232731,-0.5648782797642052,9.855281313300132,9298,1603197528.8938541,rc,0.0,0.0,0.0,0.0,0.0,-10000.0
,,123849.135659,1.9797909259796143,136103,1603198310.2947118,/world,vicon/testobj/testobj,-0.012014399044880067,-0.2132987249469233,1.3942111155103056,-0.0006878601899313819,-0.001118063084175104,0.00032586205916913916,0.9999990852981903,2903584.0,0.03,0.14,-0.99,-0.06,-0.12,-0.12,-56.71,0.75,-53.41,2937672.0,0.14,0.12,0.99,0.0,0.0,-0.12,-5.4,35.86,15.9,100723,1603197529.1296175,body_FLU,-0.023784479391035365,0.0025063855570582935,-0.5833065184590591,0.8118999458644569,0.0010645509464666247,0.006279321387410164,-0.0020355763845145702,0.145031067523174,-0.32926685344800355,9.824719084382057,9298,1603197528.8938541,rc,0.0,0.0,0.0,0.0,0.0,-10000.0
,,123849.15856,2.0026795864105225,136105,1603198310.3148866,/world,vicon/testobj/testobj,-0.012026558613960077,-0.21331822503057327,1.3941621503460968,-0.0003716902379701808,-0.000886006333528634,0.00034956889678298064,0.9999994773202286,2903594.0,0.04,0.16,-1.0,0.0,0.0,-0.06,-55.36,0.15,-53.41,2937681.0,0.14,0.12,0.99,-0.18,-0.12,0.12,-7.5,34.81,16.5,100725,1603197529.1490536,body_FLU,-0.023800749844302214,0.002503589875307795,-0.5832866088857432,0.8119137812841675,-0.0002430702152196318,0.00047968479339033365,0.00577031634747982,0.250835454935208,-0.4493761180825532,9.924973430156708,9298,1603197528.8938541,rc,0.0,0.0,0.0,0.0,0.0,-10000.0
,,123849.181111,2.0252273082733154,136107,1603198310.3348637,/world,vicon/testobj/testobj,-0.01200928545669905,-0.21329854297604298,1.3942135905748572,-0.0006454286819898519,-0.0010443143904081934,0.0003237662412532955,0.9999991940020209,2903604.0,0.04,0.15,-1.0,-0.06,-0.06,-0.06,-57.91,1.65,-53.26,2937690.0,0.14,0.12,1.0,-0.06,0.0,-0.12,-6.15,35.26,18.0,100727,1603197529.1684654,body_FLU,-0.023797840515663457,0.002496424785857289,-0.583292564418635,0.8119096100823121,-9.337929805042222e-05,0.005867782048881054,0.000993527239188552,0.26893334575742484,-0.5008690792769194,9.978332899332047,9298,1603197528.8938541,rc,0.0,0.0,0.0,0.0,0.0,-10000.0
,,123849.205742,2.0498597621917725,136110,1603198310.3646588,/world,vicon/testobj/testobj,-0.012016493906615518,-0.2133002357653172,1.3942204180387028,-0.0006781959325125392,-0.0010503436063360489,0.00032163677952277145,0.9999991666888367,2903614.0,0.05,0.15,-1.0,-0.06,-0.12,-0.06,-54.76,0.0,-53.26,2937699.0,0.14,0.12,0.99,-0.06,-0.06,0.06,-5.7,33.76,17.85,100728,1603197529.1829617,body_FLU,-0.023816547129661983,0.0025103386518440496,-0.5832976332329707,0.8119053770898975,-0.0021760263480246067,0.0017034446354955435,-0.001483110710978508,0.2031404820419848,-0.4325312860943377,10.008313279867172,9298,1603197528.8938541,rc,0.0,0.0,0.0,0.0,0.0,-10000.0
,,123849.227821,2.0719423294067383,136112,1603198310.3847423,/world,vicon/testobj/testobj,-0.01200795202681112,-0.21330136822694734,1.3942094895635722,-0.0006979340508159515,-0.0011150425140911788,0.0003183266064210229,0.9999990841177927,2903624.0,0.03,0.15,-0.98,0.0,0.0,-0.12,-56.86,0.3,-54.01,2937708.0,0.13,0.12,1.0,-0.06,-0.06,0.0,-5.7,33.76,17.85,100729,1603197529.210088,body_FLU,-0.02381672116716224,0.002520973575686722,-0.5832910578310532,0.8119100629622762,0.000883145781699568,0.003931912127882242,0.0016906213713809848,0.2152633091658354,-0.4752890731841326,9.927556696772575,9298,1603197528.8938541,rc,0.0,0.0,0.0,0.0,0.0,-10000.0
,,123849.250813,2.094926118850708,136114,1603198310.4047852,/world,vicon/testobj/testobj,-0.012016263555110348,-0.2132858559014007,1.3942023654635594,-0.0006177380389274508,-0.0010386330094216125,0.00031485383231322087,0.9999992202538216,2903634.0,0.04,0.16,-1.01,-0.12,-0.18,-0.06,-54.16,-0.3,-52.81,2937717.0,0.14,0.11,0.99,0.0,0.0,0.0,-5.7,35.11,16.5,100732,1603197529.248895,body_FLU,-0.02383168541047873,0.0024969991391390247,-0.5832954016695294,0.8119065772347072,-0.0006474149995483458,0.0005156112019903958,-5.612260429188609e-05,0.3487309524603188,-0.43584843527153133,9.852348703980446,9298,1603197528.8938541,rc,0.0,0.0,0.0,0.0,0.0,-10000.0
