name,date,time,time_since_start,vicon_sequence,vicon_time_stamp,vicon_frame_id,vicon_child_frame_id,vicon_translation_x,vicon_translation_y,vicon_translation_z,vicon_rotation_x,vicon_rotation_y,vicon_rotation_z,vicon_rotation_w,int_imu_time_stamp,int_imu_acc_x,int_imu_acc_y,int_imu_acc_z,int_imu_gyro_x,int_imu_gyro_y,int_imu_gyro_z,int_imu_mag_x,int_imu_mag_y,int_imu_mag_z,ext_imu_time_stamp,ext_imu_acc_x,ext_imu_acc_y,ext_imu_acc_z,ext_imu_gyro_x,ext_imu_gyro_y,ext_imu_gyro_z,ext_imu_mag_x,ext_imu_mag_y,ext_imu_mag_z,dji_imu_sequence,dji_imu_time_stamp,dji_imu_frame_id,dji_imu_orientation_x,dji_imu_orientation_y,dji_imu_orientation_z,dji_imu_orientation_w,dji_imu_ang_vel_x,dji_imu_ang_vel_y,dji_imu_ang_vel_z,dji_imu_lin_acc_x,dji_imu_lin_acc_y,dji_imu_lin_acc_z,rc_sequence,rc_time_stamp,rc_frame_id,rc_roll,rc_pitch,rc_yaw,rc_throttle,rc_mode,rc_landing_gear
/root/Desktop/transfer/20102020/Test4.csv,20201020,124805.126003,0.00028705596923828125,191702,1603198866.2781556,/world,vicon/testobj/testobj,-0.025644306407485953,-0.14727456838214872,1.3937403858595743,-0.0005562258241584165,0.000403020199719166,-0.0043311601580047375,0.9999903845733902,3134298.0,0.03,0.16,-0.99,0.0,0.06,0.0,-56.86,0.3,-52.96,3479969.0,0.14,0.11,0.99,-0.12,-0.06,0.12,-6.9,35.56,18.0,137691,1603198085.1163983,body_FLU,-0.02518797428552211,0.001436321105121178,-0.5850538059306379,0.8106019658865565,-0.00383780081756413,0.00600769929587841,0.003307897597551346,0.37958647882193325,-0.19568819672428073,9.821743245363235,12707,1603198085.553967,rc,0.0,0.0,0.0,0.0,0.0,-10000.0
,,124805.153777,0.028045654296875,191705,1603198866.3084,/world,vicon/testobj/testobj,-0.02564014079955593,-0.14726961357213114,1.3937378775259828,-0.0005806076223492715,0.00034869435688342015,-0.004325102382466013,0.9999904173522942,3134308.0,0.04,0.14,-1.0,-0.06,-0.06,0.06,-55.66,1.2,-53.11,3479978.0,0.13,0.11,1.0,0.0,0.0,0.0,-5.4,35.86,17.55,137694,1603198085.1496527,body_FLU,-0.025177137787863228,0.0014353939035796127,-0.5850663248718901,0.8105932684633228,-8.831522427499294e-05,0.007574975024908781,-0.0016152795869857073,0.16103581392019986,-0.35848147682100534,9.990640511512757,12707,1603198085.553967,rc,0.0,0.0,0.0,0.0,0.0,-10000.0
,,124805.176333,0.050598859786987305,191707,1603198866.3286111,/world,vicon/testobj/testobj,-0.02564772005311648,-0.14727377856759427,1.3937414249816593,-0.0005935788616466081,0.00031538908331397997,-0.004346967474128156,0.9999903259870268,3134318.0,0.04,0.15,-1.0,0.0,0.0,0.0,-55.96,0.45,-53.41,3479987.0,0.14,0.12,1.01,-0.06,-0.12,0.06,-6.6,34.51,15.6,137695,1603198085.1691122,body_FLU,-0.025183272982899293,0.0014405516352894495,-0.5850749589554618,0.8105868367893223,-0.0007367751677520573,0.00031506671803072095,-0.001393072190694511,0.442456335760653,-0.47606782846525314,9.94959566473961,12707,1603198085.553967,rc,0.0,0.0,0.0,0.0,0.0,-10000.0
,,124805.200622,0.07491803169250488,191709,1603198866.3484218,/world,vicon/testobj/testobj,-0.025640355144709852,-0.14728063249249157,1.393726874652469,-0.0005483702105293152,0.00039954846289508755,-0.004357011103972257,0.9999902780054303,3134328.0,0.05,0.16,-0.99,-0.06,-0.06,-0.12,-56.71,-0.3,-52.81,3479996.0,0.15,0.12,1.0,-0.06,-0.18,-0.12,-7.05,33.76,18.15,137697,1603198085.1968014,body_FLU,-0.025167383842156547,0.0014342610805881222,-0.5850708462281425,0.8105903099467568,0.0008948423201218247,0.0030564572662115097,0.0007810870301909745,0.3024711763691157,-0.34487317646294835,9.828738278031349,12707,1603198085.553967,rc,0.0,0.0,0.0,0.0,0.0,-10000.0
,,124805.227194,0.10148859024047852,191712,1603198866.3783498,/world,vicon/testobj/testobj,-0.025645487107146737,-0.14728152526364616,1.3937443135247334,-0.0006621695666406753,0.0002777090517062257,-0.004356383446379148,0.999990253118707,3134338.0,0.04,0.15,-0.99,-0.06,-0.06,-0.06,-55.81,1.35,-54.01,3480005.0,0.14,0.11,0.98,-0.12,-0.06,0.12,-5.4,34.36,16.8,137699,1603198085.2162135,body_FLU,-0.025177585272805326,0.0014375776185943344,-0.585074504337377,0.8105873468940862,0.002797757275402546,0.005253167357295752,-0.0017755269072949886,0.21020945063978433,-0.35835029074922203,9.815299683451652,12707,1603198085.553967,rc,0.0,0.0,0.0,0.0,0.0,-10000.0
,,124805.252488,0.12674880027770996,191715,1603198866.4083805,/world,vicon/testobj/testobj,-0.025641767551991122,-0.14729047195695866,1.3937301926825003,-0.0005216598877553515,0.0003696023905111551,-0.004332859415671761,0.9999904087511633,3134348.0,0.04,0.15,-0.99,0.0,0.0,-0.12,-55.96,-0.6,-52.51,3480014.0,0.13,0.12,1.0,0.0,-0.06,-0.18,-5.55,35.26,16.65,137702,1603198085.2494786,body_FLU,-0.025186547611673254,0.001434972315773846,-0.5850675617014098,0.8105920841697289,-0.0007085810066200793,0.005194052588194609,-0.001119503634981811,0.1812794167008251,-0.45104831148684027,9.775544133245946,12707,1603198085.553967,rc,0.0,0.0,0.0,0.0,0.0,-10000.0
,,124805.276292,0.15056133270263672,191717,1603198866.4286008,/world,vicon/testobj/testobj,-0.02564748724742646,-0.14727883069664083,1.3937352234493188,-0.0005575578153182222,0.00039433966828665974,-0.004364511929171873,0.9999902422829579,3134358.0,0.04,0.16,-0.99,-0.06,-0.24,-0.12,-55.51,1.05,-53.26,3480023.0,0.15,0.12,0.99,-0.06,-0.24,-0.12,-6.6,34.51,17.1,137704,1603198085.2689183,body_FLU,-0.025174952827612642,0.0014394662726809962,-0.5850582884634443,0.8105991295253175,0.0014387909322977066,-0.0004273017984814942,0.006186272483319044,0.2667218582052738,-0.43511845944821836,9.812587896108628,12707,1603198085.553967,rc,0.0,0.0,0.0,0.0,0.0,-10000.0
,,124805.299288,0.17355728149414062,191719,1603198866.4485445,/world,vicon/testobj/testobj,-0.025649338124335702,-0.14727374851580002,1.3937365811202949,-0.000591436693830626,0.0002872870583006929,-0.004354194461702183,0.999990304282683,3134368.0,0.05,0.16,-1.0,-0.12,-0.06,0.06,-55.51,0.3,-53.71,3480032.0,0.15,0.12,1.0,-0.06,-0.18,-0.06,-6.6,34.51,17.1,137704,1603198085.2689183,body_FLU,-0.025174952827612642,0.0014394662726809962,-0.5850582884634443,0.8105991295253175,0.0014387909322977066,-0.0004273017984814942,0.006186272483319044,0.2667218582052738,-0.43511845944821836,9.812587896108628,12707,1603198085.553967,rc,0.0,0.0,0.0,0.0,0.0,-10000.0
,,124805.32536,0.19962286949157715,191722,1603198866.4785383,/world,vicon/testobj/testobj,-0.02564668925930653,-0.14728097971033713,1.393743024818662,-0.0006339681710376303,0.00031961124729072514,-0.004334529835743013,0.9999903538455318,3134378.0,0.04,0.16,-0.99,0.0,-0.12,0.0,-54.76,0.3,-53.71,3480041.0,0.15,0.12,0.99,0.0,-0.06,0.06,-6.0,34.06,16.2,137706,1603198085.3188198,body_FLU,-0.025180753894597212,0.0014560326526397909,-0.5850649196272583,0.8105941335981677,-0.002966560423374176,0.008039386942982674,-0.0001355738495476544,0.3803161990642548,-0.45944962379336357,9.889369683623315,12708,1603198085.3133087,rc,0.0,0.0,0.0,0.0,0.0,-10000.0
,,124805.347833,0.22210049629211426,191724,1603198866.4983842,/world,vicon/testobj/testobj,-0.0256402910156687,-0.14727829552515181,1.3937215897373094,-0.0005694492416156218,0.00036565772040981234,-0.004350347246698126,0.9999903082034475,3134388.0,0.04,0.15,-0.98,-0.06,-0.06,0.0,-55.96,-0.9,-53.86,3480050.0,0.15,0.12,0.99,-0.06,-0.12,0.12,-6.15,34.51,17.1,137707,1603198085.3382564,body_FLU,-0.025178641817848374,0.0014637745327334912,-0.5850602958818412,0.8105975225369112,0.0025985382962971926,0.0024849465116858482,0.0014278953894972801,0.33287821285799146,-0.29291465623676777,9.865433282375335,12708,1603198085.3133087,rc,0.0,0.0,0.0,0.0,0.0,-10000.0
,,124805.371391,0.24570822715759277,191727,1603198866.5286567,/world,vicon/testobj/testobj,-0.02564482366804793,-0.14728107649291317,1.3937228946641385,-0.0005394863767449372,0.0003553222720988733,-0.004325344606862033,0.9999904370015567,3134398.0,0.05,0.14,-0.99,-0.12,-0.18,-0.12,-54.91,-1.35,-53.86,3480091.0,0.15,0.12,1.0,-0.06,-0.06,-0.06,-4.35,33.76,17.25,137708,1603198085.3687537,body_FLU,-0.025186558878906827,0.001473785574460367,-0.5850604252592004,0.8105971650600828,-0.0036289908457547426,0.00393130537122488,0.00043436390114948153,0.2750030839573592,-0.4405204923078418,9.861124332904815,12709,1603198085.3548837,rc,0.0,0.0,0.0,0.0,0.0,-10000.0
,,124805.396332,0.2706122398376465,191729,1603198866.5486255,/world,vicon/testobj/testobj,-0.02564129846418171,-0.14728284468992667,1.3937435522939778,-0.0006542931794674162,0.00028437964617548077,-0.004346525501214278,0.9999902993253081,3134408.0,0.03,0.16,-0.98,-0.06,-0.06,-0.06,-56.86,1.05,-52.96,3480100.0,0.15,0.12,1.0,-0.06,-0.06,-0.06,-4.8,34.96,18.0,137709,1603198085.3881836,body_FLU,-0.025187654769085792,0.001454454741244143,-0.5850691819276723,0.8105908455979031,0.002887152833864093,0.004692477639764547,0.0005823359242640436,0.1946058842483908,-0.4823255829960108,9.896242037415504,12709,1603198085.3548837,rc,0.0,0.0,0.0,0.0,0.0,-10000.0
,,124805.42174,0.29600977897644043,191732,1603198866.5784328,/world,vicon/testobj/testobj,-0.025642382175197813,-0.14727987006296847,1.3937402153669676,-0.0005463362327216667,0.00040528861855244853,-0.0043266657012018825,0.9999904085648855,3134418.0,0.04,0.15,-1.0,-0.06,-0.12,-0.06,-56.71,0.15,-52.81,3480109.0,0.15,0.13,0.99,-0.12,-0.18,0.0,-5.7,35.41,17.25,137712,1603198085.4158933,body_FLU,-0.025195931827248157,0.0014531810674436468,-0.5850784135180593,0.810583927375403,-4.525249823927879e-05,0.003325020195916295,0.0008687928202562034,0.3317929064333439,-0.4028351846449077,9.905939510464668,12709,1603198085.3548837,rc,0.0,0.0,0.0,0.0,0.0,-10000.0
,,124805.445741,0.3200063705444336,191734,1603198866.5983553,/world,vicon/testobj/testobj,-0.025643065483248437,-0.14727026743888957,1.3937480644912155,-0.0005285383851661827,0.0004395321685300155,-0.004342366193651695,0.999990335610544,3134428.0,0.04,0.15,-0.98,-0.12,-0.06,-0.06,-56.71,0.15,-53.41,3480118.0,0.16,0.12,1.0,-0.06,-0.12,-0.06,-6.15,34.21,15.3,137713,1603198085.4298,body_FLU,-0.02518439145447599,0.001440393524318339,-0.58509002303833,0.810575928975546,0.002862517489120364,0.004879423417150974,-0.002861740766093135,0.3442643460296094,-0.360284053042531,9.935664017915727,12709,1603198085.3548837,rc,0.0,0.0,0.0,0.0,0.0,-10000.0
,,124805.468899,0.34316325187683105,191736,1603198866.6184256,/world,vicon/testobj/testobj,-0.02564527882701722,-0.14728194786085685,1.3937587755697258,-0.0005898550157245242,0.0003295836215980607,-0.00434322052289905,0.9999903398939343,3134438.0,0.04,0.15,-0.99,0.06,0.0,-0.06,-56.26,-0.45,-53.71,3480128.0,0.14,0.12,0.99,-0.06,-0.12,0.0,-6.15,33.91,17.1,137715,1603198085.4658287,body_FLU,-0.025178181885770833,0.0014191238830201106,-0.5850741454303577,0.8105876199358515,0.00414617732167244,0.00595548190176487,0.0006508680526167154,0.2968970097117126,-0.3991651876531541,9.869448970913886,12709,1603198085.3548837,rc,0.0,0.0,0.0,0.0,0.0,-10000.0
,,124805.493007,0.36726951599121094,191739,1603198866.6485934,/world,vicon/testobj/testobj,-0.025646359942551065,-0.14727639626222994,1.3937352950323643,-0.0005185349477461104,0.0004075436081316619,-0.004349611080413156,0.9999903229097593,3134448.0,0.05,0.15,-0.99,-0.12,-0.12,0.0,-55.66,0.15,-52.81,3480137.0,0.15,0.12,0.99,0.0,0.0,0.0,-6.75,34.36,15.9,137716,1603198085.488022,body_FLU,-0.025195225330998376,0.001404091890358756,-0.5850584856474963,0.8105984193904785,2.7684494853019714e-05,-8.395442273467779e-05,0.0023832612205296755,0.24017489794269203,-0.6165830080658198,9.812820401787757,12709,1603198085.3548837,rc,0.0,0.0,0.0,0.0,0.0,-10000.0
,,124805.517197,0.39148998260498047,191741,1603198866.668401,/world,vicon/testobj/testobj,-0.025641301977434958,-0.147277143809942,1.393731713538096,-0.0005279020282164907,0.00042632646305417946,-0.00434164272988727,0.9999903448051893,3134458.0,0.04,0.15,-0.98,0.0,0.0,-0.12,-56.26,0.6,-54.61,3480145.0,0.15,0.12,1.0,-0.24,-0.12,0.0,-5.85,36.01,17.4,137719,1603198085.5157733,body_FLU,-0.025168525620442188,0.0013979081021863273,-0.5850598110884566,0.8105983028727425,-0.00024128190125338733,0.004346050322055817,0.0020036448258906603,0.2800530905127525,-0.3553417008519173,9.663481653571129,12709,1603198085.3548837,rc,0.0,0.0,0.0,0.0,0.0,-10000.0
,,124805.54002,0.41428256034851074,191743,1603198866.6884048,/world,vicon/testobj/testobj,-0.025638496568667523,-0.14728357783878285,1.3937444946015232,-0.0006420979775289448,0.00028078969349891843,-0.004353170111289908,0.999990279341413,3134468.0,0.04,0.15,-1.0,0.0,-0.06,0.0,-56.26,0.3,-53.71,3480154.0,0.15,0.12,1.0,-0.06,-0.06,0.0,-5.1,35.56,16.35,137720,1603198085.5296292,body_FLU,-0.025185048923276124,0.0013849085304753163,-0.585062527828526,0.8105958511305061,-0.002860033418983221,0.0015433983644470572,-0.0010632893536239862,0.3042631459794939,-0.34530379392206667,9.816394446372986,12709,1603198085.3548837,rc,0.0,0.0,0.0,0.0,0.0,-10000.0
,,124805.564544,0.4388129711151123,191746,1603198866.7184248,/world,vicon/testobj/testobj,-0.025640160772345884,-0.1472700493182606,1.3937335215334128,-0.0006325420457456375,0.00028464649260235056,-0.00434107570795067,0.9999903369176286,3134478.0,0.04,0.15,-0.98,0.0,-0.06,-0.12,-55.96,-0.9,-52.51,3480163.0,0.14,0.12,0.99,-0.06,-0.12,-0.06,-6.9,34.96,16.65,137722,1603198085.560113,body_FLU,-0.025155249948562122,0.001364455464506952,-0.5850533541565119,0.8106034322969066,0.0006504920893348753,-4.347549838712439e-05,0.0014064684510231018,0.2828850009217858,-0.36943425416573883,9.88045618700981,12709,1603198085.3548837,rc,0.0,0.0,0.0,0.0,0.0,-10000.0
,,124805.587388,0.46169447898864746,191748,1603198866.7383692,/world,vicon/testobj/testobj,-0.025653722680829105,-0.14727302965072006,1.393732545688484,-0.0005892085741358038,0.0003573778000047734,-0.004322023871891652,0.9999904225661439,3134488.0,0.04,0.15,-1.0,0.0,-0.06,-0.06,-55.36,0.45,-52.06,3480173.0,0.14,0.12,0.99,-0.12,-0.06,0.0,-5.4,35.11,16.8,137723,1603198085.5684724,body_FLU,-0.025162218253085736,0.0013711818154701163,-0.5850574222533229,0.8106002685043413,-0.0030390857718884945,0.004637745674699545,-0.0017019282095134258,0.3005735787861049,-0.3976506146974862,9.806575462818145,12709,1603198085.3548837,rc,0.0,0.0,0.0,0.0,0.0,-10000.0
,,124805.610138,0.4844367504119873,191750,1603198866.7582862,/world,vicon/testobj/testobj,-0.025648738561496583,-0.14727612764662373,1.3937484543589156,-0.0005763010996694753,0.0003667981713645622,-0.004357240713395568,0.9999902738474558,3134498.0,0.04,0.15,-1.0,0.0,0.0,0.0,-55.36,0.15,-54.16,3480182.0,0.13,0.11,1.0,-0.06,-0.06,0.0,-5.4,35.11,16.8,137725,1603198085.596188,body_FLU,-0.025152243638748514,0.0013604962564418772,-0.5850540646111373,0.8106030194687536,-0.0006477060960605741,0.0024573281407356262,-0.0011989494087174535,0.33588851879909637,-0.46121525030583144,9.841224650859832,12709,1603198085.3548837,rc,0.0,0.0,0.0,0.0,0.0,-10000.0
,,124805.634635,0.5088984966278076,191753,1603198866.7883644,/world,vicon/testobj/testobj,-0.025647243289359488,-0.14728082620918506,1.3937401029143195,-0.0005764224801076959,0.00038063263478157534,-0.004319256407534103,0.9999904333942439,3134508.0,0.04,0.15,-0.98,0.0,0.0,-0.06,-56.56,1.35,-53.26,3480191.0,0.14,0.12,1.0,-0.12,-0.12,-0.06,-6.45,35.11,16.2,137728,1603198085.629432,body_FLU,-0.025145114657903225,0.0013405607502706446,-0.5850496394320664,0.810606467717921,0.0017953645437955856,5.23725466337055e-05,0.00046350667253136635,0.3554294016435742,-0.35220835091918706,9.762878415584565,12709,1603198085.3548837,rc,0.0,0.0,0.0,0.0,0.0,-10000.0
,,124805.658108,0.5323677062988281,191755,1603198866.808609,/world,vicon/testobj/testobj,-0.025648536325037448,-0.1472705426887057,1.3937463069917857,-0.0005569467405562792,0.0004242488485489437,-0.004325439273508058,0.9999904001530884,3134518.0,0.03,0.15,-0.99,-0.06,-0.06,-0.06,-55.06,0.3,-52.66,3480200.0,0.13,0.12,0.98,-0.12,-0.12,0.0,-5.7,34.06,15.9,137729,1603198085.6488643,body_FLU,-0.02514223868920117,0.001343027757717134,-0.5850463744317398,0.810608909323364,-0.0010374374687671661,0.005959626287221909,0.0018366335425525904,0.2960207502823323,-0.33806113978475333,9.92905221068859,12709,1603198085.3548837,rc,0.0,0.0,0.0,0.0,0.0,-10000.0
,,124805.682352,0.5566143989562988,191758,1603198866.8383365,/world,vicon/testobj/testobj,-0.02564774605255688,-0.1472788170651138,1.393742270102381,-0.0006209781679318404,0.0003419512832303752,-0.004343472132583138,0.9999903158057424,3134528.0,0.04,0.16,-1.0,-0.06,-0.12,0.06,-56.41,-0.3,-54.46,3480209.0,0.14,0.12,1.0,-0.06,-0.06,0.06,-5.7,34.06,16.2,137730,1603198085.665523,body_FLU,-0.02512693978282121,0.0013151304474388512,-0.5850494719341325,0.8106071938483209,0.0030691521242260933,0.0015878299018368125,-0.00029884919058531523,0.35384337554499506,-0.3916129884235561,9.970601793408393,12709,1603198085.3548837,rc,0.0,0.0,0.0,0.0,0.0,-10000.0
,,124805.705826,0.5800940990447998,191760,1603198866.8583484,/world,vicon/testobj/testobj,-0.025645811048403293,-0.14727573827833113,1.3937318348704721,-0.0006310042081837764,0.0003124738670316803,-0.004326308584502608,0.99999039357776,3134538.0,0.04,0.16,-0.99,-0.12,-0.12,-0.06,-56.26,0.0,-54.31,3480218.0,0.14,0.13,1.0,-0.12,-0.12,0.0,-5.7,35.41,16.5,137732,1603198085.6960032,body_FLU,-0.025127077632611156,0.001314644418354263,-0.5850454576330164,0.8106100876393486,-0.0017286957008764148,0.003547866363078356,-0.0026877608615905046,0.24542203046567737,-0.4171222350932658,9.914108755230904,12709,1603198085.3548837,rc,0.0,0.0,0.0,0.0,0.0,-10000.0
,,124805.729553,0.6038773059844971,191762,1603198866.8786154,/world,vicon/testobj/testobj,-0.025637002883657525,-0.14728187082300737,1.3937277172559273,-0.0005567894557943235,0.00035356071898100667,-0.004351694122883163,0.9999903138223794,3134548.0,0.05,0.15,-1.0,-0.06,-0.06,-0.06,-55.96,0.15,-53.11,3480260.0,-1.42,0.08,1.56,-49.94,591.16,300.91,-5.4,33.31,17.25,137734,1603198085.7154694,body_FLU,-0.025124130873526145,0.001295237090664275,-0.585038872685635,0.8106149627631176,-0.0034172646701335907,0.005876523442566395,0.0020470640156418085,0.24361541971564293,-0.3325425619930029,9.803377633452415,12709,1603198085.3548837,rc,0.0,0.0,0.0,0.0,0.0,-10000.0
,,124805.755321,0.62961745262146,191765,1603198866.908727,/world,vicon/testobj/testobj,-0.02564718351533134,-0.14727778420627488,1.3937507387155081,-0.0006276064407639963,0.0003008363409135685,-0.004352238958884819,0.9999902867646747,3134558.0,0.04,0.15,-1.0,-0.06,-0.18,-0.06,-55.36,-0.3,-53.86,3480333.0,0.15,0.12,0.98,-0.18,-0.18,-0.12,-5.55,34.21,16.35,137736,1603198085.7459457,body_FLU,-0.025118185453242677,0.001270639134034497,-0.5850459303971844,0.8106100921907032,0.0045640310272574425,0.006558884400874376,-0.0005890057072974741,0.3180651767291129,-0.35885966366529465,9.834154842495918,12709,1603198085.3548837,rc,0.0,0.0,0.0,0.0,0.0,-10000.0
,,124805.777723,0.651986837387085,191767,1603198866.9287105,/world,vicon/testobj/testobj,-0.025636779678327858,-0.14726969278932342,1.3937536281947092,-0.0005929345889591996,0.00035387339408743753,-0.004350040545202107,0.9999903001276809,3134568.0,0.04,0.16,-1.0,0.0,0.0,-0.06,-55.81,-0.75,-53.26,3480343.0,0.16,0.11,0.99,-0.12,-0.24,0.0,-5.4,34.36,16.5,137738,1603198085.7681034,body_FLU,-0.025118238368486433,0.0012673609778858176,-0.5850410774364566,0.8106135982139737,-0.0006849373457953334,-0.001126288203522563,0.0024341903626918793,0.2688690306264907,-0.3437793993540108,9.939156276583672,12709,1603198085.3548837,rc,0.0,0.0,0.0,0.0,0.0,-10000.0
,,124805.802247,0.676506757736206,191770,1603198866.958412,/world,vicon/testobj/testobj,-0.025644549669510422,-0.1472825451829252,1.3937211642001548,-0.0006116152621062851,0.0003400187723387265,-0.004321568700851838,0.999990417133069,3134578.0,0.04,0.15,-1.0,-0.12,-0.06,-0.06,-55.36,0.75,-54.16,3480353.0,0.15,0.13,0.99,0.0,0.0,-0.06,-6.6,35.56,17.1,137740,1603198085.7958477,body_FLU,-0.025108378686419373,0.0012620517282833207,-0.5850345466709316,0.8106186253391371,-0.002049562055617571,0.008135547861456871,0.004216211382299662,0.32174262208119037,-0.42736701657995585,9.879611455321312,12709,1603198085.3548837,rc,0.0,0.0,0.0,0.0,0.0,-10000.0
,,124805.826343,0.700659990310669,191772,1603198866.9784262,/world,vicon/testobj/testobj,-0.02564562031363087,-0.14727777095271583,1.3937479843564313,-0.0005525474029416296,0.00036305981591440645,-0.004337754747766051,0.9999903733350065,3134588.0,0.03,0.15,-1.0,-0.06,-0.06,-0.12,-56.26,0.3,-53.71,3480363.0,0.15,0.13,0.99,-0.06,-0.18,0.0,-6.6,33.91,16.35,137741,1603198085.809733,body_FLU,-0.025118645821264864,0.0012556033480818605,-0.5850363047690939,0.8106170484232749,-0.0038153822533786297,0.0018395786173641682,0.0022169388830661774,0.22058076297305523,-0.27999295595660806,9.82167781662941,12709,1603198085.3548837,rc,0.0,0.0,0.0,0.0,0.0,-10000.0
,,124805.849218,0.7234804630279541,191774,1603198866.9985135,/world,vicon/testobj/testobj,-0.025649101796347624,-0.1472803367704903,1.393730274779326,-0.00056427458387426,0.00034683230331315735,-0.004333722022147326,0.9999903900313153,3134598.0,0.04,0.16,-1.0,0.06,0.06,0.06,-55.96,1.2,-53.11,3480372.0,0.15,0.13,1.0,-0.06,-0.18,0.06,-5.85,34.96,16.35,137742,1603198085.8263674,body_FLU,-0.025114687520411415,0.0012578345403813631,-0.5850263572756621,0.8106243467943647,0.002908768132328987,0.007541355676949024,0.0017542599234730005,0.2125849664211273,-0.35071163212135437,9.844374577045441,12709,1603198085.3548837,rc,0.0,0.0,0.0,0.0,0.0,-10000.0
,,124805.872907,0.7471661567687988,191777,1603198867.2866366,/world,vicon/testobj/testobj,-0.025637411623081162,-0.1472799319365284,1.3937368813306834,-0.0005129280164739282,0.00041033542712216886,-0.004328219157153768,0.999990417478395,3134608.0,0.03,0.15,-0.99,-0.06,-0.06,-0.06,-55.51,0.0,-52.96,3480383.0,0.15,0.12,0.99,-0.18,-0.06,-0.06,-6.15,34.51,16.65,137743,1603198085.8596628,body_FLU,-0.025116581782679323,0.0012416157897238533,-0.5850238897251786,0.8106260939302452,0.000535308092366904,0.007181958295404911,0.0023668163921684027,0.2605103273224086,-0.4317678656727076,9.915402141094209,12709,1603198085.3548837,rc,0.0,0.0,0.0,0.0,0.0,-10000.0
,,124805.896197,0.770496129989624,191779,1603198867.4856107,/world,vicon/testobj/testobj,-0.025642306512125814,-0.1472778110493311,1.3937370876150468,-0.000557984040368449,0.0003935507667206906,-0.00434443315036639,0.9999903297893469,3134618.0,0.03,0.15,-0.99,0.0,0.0,0.0,-55.66,-0.9,-54.91,3480393.0,0.16,0.13,1.0,-0.06,-0.18,0.0,-5.85,34.96,16.65,137744,1603198085.8901222,body_FLU,-0.025111990104968937,0.0012188288831130165,-0.5850337545765992,0.810619151275819,-0.002086315071210265,0.006186178885400295,0.0003945898206438869,0.2738637951761484,-0.4605068528205156,9.770319765686988,12710,1603198085.8735104,rc,0.0,0.0,0.0,0.0,0.0,-10000.0
,,124805.919478,0.7937667369842529,191781,1603198867.6838906,/world,vicon/testobj/testobj,-0.02564575286119347,-0.1472783217557543,1.3937315712678788,-0.0005340124789111674,0.00040448979261131876,-0.004325281169024106,0.9999904215348709,3134628.0,0.04,0.16,-0.99,0.0,0.0,-0.06,-57.31,0.0,-54.31,3480403.0,0.15,0.12,0.99,-0.06,-0.06,0.06,-6.75,35.11,17.55,137746,1603198085.909594,body_FLU,-0.02511037797059651,0.0012237706001536326,-0.5850302665184322,0.8106217111335374,0.0026656491681933403,0.004146260675042868,0.0036595624405890703,0.23022551331482827,-0.5271998362764716,9.801322470188142,12710,1603198085.8735104,rc,0.0,0.0,0.0,0.0,0.0,-10000.0
,,124805.943928,0.8183431625366211,191784,1603198867.986311,/world,vicon/testobj/testobj,-0.025646725296033172,-0.14727878169489494,1.3937342427921906,-0.0005813183625235005,0.00036259333097576717,-0.004323942428438706,0.9999904170125399,3134638.0,0.04,0.15,-1.0,-0.06,-0.06,-0.06,-56.26,0.3,-54.01,3480413.0,0.15,0.12,1.0,-0.18,-0.12,0.06,-7.05,35.11,16.8,137747,1603198085.9290073,body_FLU,-0.025103237590000427,0.0012062217485488478,-0.5850322783699603,0.8106205066224558,0.00011173979146406054,0.008322973735630512,-0.0020912957843393087,0.20120204626768828,-0.38389170411229134,9.817044060230256,12710,1603198085.8735104,rc,0.0,0.0,0.0,0.0,0.0,-10000.0
,,124805.968021,0.8423223495483398,191786,1603198867.118474,/world,vicon/testobj/testobj,-0.02563633022324738,-0.14728900284054766,1.3937429429065746,-0.0005237172773491581,0.00039554941846578674,-0.004361207161831489,0.9999902745191888,3134648.0,0.03,0.15,-0.98,0.0,0.0,0.0,-57.91,0.3,-53.26,3480423.0,0.15,0.12,1.0,-0.12,-0.12,-0.06,-6.6,34.51,17.7,137749,1603198085.959521,body_FLU,-0.025092971869673117,0.001186155819315592,-0.5850258547591405,0.810625490014012,0.001263206242583692,0.004762690514326096,0.0006251145387068391,0.24824636472389103,-0.2927326825708151,9.786272108852863,12710,1603198085.8735104,rc,0.0,0.0,0.0,0.0,0.0,-10000.0
,,124805.993256,0.8675177097320557,191789,1603198867.1486762,/world,vicon/testobj/testobj,-0.025632320359208597,-0.14727253115936614,1.393730678813823,-0.0005589258895131499,0.0003812203037013417,-0.004351136546670402,0.9999903048948436,3134658.0,0.03,0.15,-0.99,-0.06,-0.06,0.06,-57.46,1.5,-52.81,3480433.0,0.16,0.11,0.99,-0.12,-0.06,0.06,-5.7,34.81,17.85,137751,1603198085.987203,body_FLU,-0.025104610401002807,0.0011740794034453082,-0.5850187920967307,0.8106302442962824,0.0007989772129803896,0.0014753862051293254,-0.0030046929605305195,0.19955088352784514,-0.27740965282917024,9.891222718834877,12710,1603198085.8735104,rc,0.0,0.0,0.0,0.0,0.0,-10000.0
,,124806.015936,0.8902056217193604,191791,1603198867.1683512,/world,vicon/testobj/testobj,-0.025641076762217545,-0.14727894094559738,1.3937430164622295,-0.0005952840986158637,0.00033487237060403314,-0.004348842102020208,0.9999903104879112,3134668.0,0.04,0.15,-0.99,0.0,0.0,-0.06,-55.06,0.0,-52.96,3480443.0,0.15,0.12,0.99,0.0,-0.06,-0.06,-3.6,33.76,17.55,137753,1603198086.9391594,body_FLU,-0.02509814843736156,0.0011693076364965248,-0.5849994698092514,0.8106443955197384,-0.004126439802348614,0.005164343863725662,0.004585461691021919,0.122679259294644,-0.3785637897402048,9.88844082927704,12710,1603198085.8735104,rc,0.0,0.0,0.0,0.0,0.0,-10000.0
,,124806.038034,0.912299394607544,191793,1603198867.1886084,/world,vicon/testobj/testobj,-0.025637162771005126,-0.1472786166193498,1.3937496817531585,-0.0005917523573918936,0.0003419461308474478,-0.004345336381405117,0.9999903254300632,3134678.0,0.04,0.15,-0.99,-0.18,-0.12,0.0,-56.41,0.45,-53.11,3480453.0,0.14,0.12,1.0,-0.18,-0.12,0.0,-5.1,33.46,16.05,137754,1603198086.2608922,body_FLU,-0.025112863046377092,0.001151720612056455,-0.5850052345828801,0.8106398048207817,0.0022354875691235065,0.004019320011138916,-0.0014700011815875769,0.1590507528707385,-0.4721312970109284,9.801494220614433,12710,1603198085.8735104,rc,0.0,0.0,0.0,0.0,0.0,-10000.0
,,124806.0622,0.9364650249481201,191796,1603198867.2184865,/world,vicon/testobj/testobj,-0.025640860936780367,-0.14726791983029744,1.39374247730979,-0.0005288863328498179,0.00042468539857604067,-0.004322352218174112,0.9999904285506243,3134688.0,0.03,0.15,-0.99,-0.06,-0.06,0.0,-55.96,-0.6,-52.81,3480493.0,0.14,0.11,1.0,0.0,-0.18,-0.06,-5.4,35.11,16.8,137757,1603198086.5936425,body_FLU,-0.025117016611644734,0.0011328505938515607,-0.5849922102499963,0.8106491016912846,-0.0029363399371504784,0.005462219938635826,0.001028259634040296,0.3576535769663751,-0.3471371493972838,9.841096130132675,12710,1603198085.8735104,rc,0.0,0.0,0.0,0.0,0.0,-10000.0
,,124806.084635,0.9589002132415771,191798,1603198867.2382908,/world,vicon/testobj/testobj,-0.02564061252624054,-0.1472879340214285,1.3937484093320835,-0.0005654209337181146,0.00038818910379747446,-0.004325623854894784,0.9999904092473354,3134698.0,0.04,0.16,-0.99,-0.12,-0.06,0.0,-56.86,0.3,-53.71,3480502.0,0.15,0.12,0.99,-0.06,-0.24,0.0,-5.4,35.11,16.8,137757,1603198086.5936425,body_FLU,-0.025117016611644734,0.0011328505938515607,-0.5849922102499963,0.8106491016912846,-0.0029363399371504784,0.005462219938635826,0.001028259634040296,0.3576535769663751,-0.3471371493972838,9.841096130132675,12710,1603198085.8735104,rc,0.0,0.0,0.0,0.0,0.0,-10000.0
,,124806.106372,0.9806473255157471,191800,1603198867.2585032,/world,vicon/testobj/testobj,-0.025639995327584476,-0.14727913731501374,1.3937444526505394,-0.000576417895290522,0.0003411174613900977,-0.004334747372347396,0.9999903806269865,3134708.0,0.05,0.14,-1.0,-0.06,-0.18,0.06,-55.51,0.3,-53.26,3480510.0,0.14,0.13,0.99,-0.12,-0.24,0.06,-5.55,34.51,18.45,137758,1603198086.8709116,body_FLU,-0.02510832669599478,0.001110091307335004,-0.5849836072835419,0.8106556105013715,0.00025047955568879843,0.00022196484496816993,-0.00032271124655380845,0.3122239461913705,-0.4307907430306077,9.706226479053498,12710,1603198085.8735104,rc,0.0,0.0,0.0,0.0,0.0,-10000.0
,,124806.12837,1.0026347637176514,191802,1603198867.2785716,/world,vicon/testobj/testobj,-0.025643866964120937,-0.14727822028615656,1.3937354689828834,-0.0005150435621054731,0.0004681701994807298,-0.0043599685813776375,0.99999025306288,3134718.0,0.04,0.16,-0.99,-0.06,-0.12,0.0,-57.01,-1.35,-53.86,3480519.0,0.14,0.13,0.99,-0.06,-0.06,-0.06,-5.1,34.96,16.65,137759,1603198086.1203182,body_FLU,-0.0250975758226077,0.0010866524719169272,-0.5849717647797716,0.8106645208004809,0.00496089830994606,0.0034199687652289867,-0.000728813698515296,0.3135913410075009,-0.37558086747676134,9.786460216462613,12710,1603198085.8735104,rc,0.0,0.0,0.0,0.0,0.0,-10000.0
,,124806.150178,1.0244390964508057,191804,1603198867.2984238,/world,vicon/testobj/testobj,-0.025642631629243434,-0.14728152707959305,1.3937472183888235,-0.0006074376475093128,0.0003221076803287295,-0.004343026739358611,0.999990332645715,3134728.0,0.04,0.15,-1.0,0.0,0.06,-0.06,-56.86,0.6,-53.71,3480528.0,0.13,0.12,1.01,-0.06,-0.12,0.0,-5.55,34.96,17.1,137760,1603198086.1397893,body_FLU,-0.025105831102934757,0.0010877112872594195,-0.5849693904136712,0.8106659770878782,-0.0018740266095846891,0.006110674235969782,0.0005135401152074337,0.26054271308518945,-0.3691399709098041,9.752916890859604,12710,1603198085.8735104,rc,0.0,0.0,0.0,0.0,0.0,-10000.0
,,124806.174402,1.0486652851104736,191807,1603198867.328396,/world,vicon/testobj/testobj,-0.02563738512134328,-0.14727582860713911,1.3937376720345227,-0.0005417824478638772,0.0004055061370530986,-0.004333255290113746,0.9999903824213224,3134738.0,0.03,0.15,-0.99,-0.06,0.0,-0.06,-55.81,-0.45,-53.26,3480537.0,0.14,0.12,0.99,0.0,0.0,-0.06,-6.0,33.76,17.25,137761,1603198086.159157,body_FLU,-0.025103132774429677,0.001062208622603149,-0.5849759303487329,0.8106613752673715,0.0016809123335406184,-0.0014495276845991611,-0.0015143232885748148,0.26956691277958456,-0.40350236056745054,9.836396944999695,12711,1603198086.1730294,rc,0.0,0.0,0.0,0.0,0.0,-10000.0
,,124806.197736,1.0720348358154297,191809,1603198867.348678,/world,vicon/testobj/testobj,-0.025645980526633992,-0.1472802490142123,1.3937492185319869,-0.0006475391377775444,0.0002811616715123632,-0.0043380133160385035,0.9999903415941823,3134748.0,0.04,0.15,-1.01,-0.06,-0.18,-0.06,-56.71,-0.6,-52.51,3480545.0,0.13,0.12,0.99,-0.06,-0.06,0.06,-6.45,34.36,15.9,137762,1603198086.1896842,body_FLU,-0.02511725011647329,0.0010536829721157007,-0.5849713784221595,0.8106642337772523,0.0006333831697702408,0.003751546610146761,-0.001024617813527584,0.30909059625864027,-0.39425675471127036,9.829401912331582,12711,1603198086.1730294,rc,0.0,0.0,0.0,0.0,0.0,-10000.0
,,124806.222558,1.0968186855316162,191812,1603198867.3785326,/world,vicon/testobj/testobj,-0.025640021283674187,-0.14728123097865434,1.3937400363775851,-0.0006020091781097021,0.0003161429950620812,-0.0043293665943902665,0.9999903970656155,3134758.0,0.04,0.15,-1.01,0.0,-0.06,-0.06,-55.51,0.3,-53.26,3480554.0,0.13,0.13,1.0,-0.06,-0.06,0.0,-5.85,34.96,16.35,137764,1603198086.2201984,body_FLU,-0.025112325540277793,0.0010441683774798285,-0.5849598507770046,0.8106727168206063,-0.002648634370416403,0.00644092308357358,0.004222252871841192,0.287994868196547,-0.4507595779895783,9.848350540995598,12711,1603198086.1730294,rc,0.0,0.0,0.0,0.0,0.0,-10000.0
,,124806.246053,1.1203181743621826,191814,1603198867.398509,/world,vicon/testobj/testobj,-0.025642751032860032,-0.14728429227473291,1.3937345967776216,-0.0005904695959444997,0.00034223909289262164,-0.00433908833510882,0.9999903532187097,3134768.0,0.04,0.16,-0.99,0.06,0.0,-0.06,-56.41,-0.6,-53.41,3480562.0,0.14,0.12,1.0,-0.06,-0.24,0.0,-5.85,34.96,16.35,137766,1603198086.2396095,body_FLU,-0.025100711914914114,0.0010161393726638797,-0.5849673435983406,0.8106677054414101,0.0021417629905045033,0.0031478535383939743,-0.0009876348776742816,0.23094776694104077,-0.44480559972301126,9.728798808038235,12711,1603198086.1730294,rc,0.0,0.0,0.0,0.0,0.0,-10000.0
,,124806.267945,1.1422126293182373,191816,1603198867.4183853,/world,vicon/testobj/testobj,-0.02564125355376577,-0.14726958328653117,1.3937412105754199,-0.0006126933684335421,0.00033902171742415,-0.004340456875149746,0.9999903350059071,3134778.0,0.04,0.15,-0.98,0.0,0.0,0.0,-56.71,-0.6,-52.06,3480571.0,0.13,0.12,0.98,-0.12,-0.12,0.06,-6.0,35.86,16.8,137768,1603198086.2590115,body_FLU,-0.025095776253539374,0.0010293959590209599,-0.5849557706709538,0.8106761922721933,-0.0029357902240008116,0.004258281551301479,0.0020909325685352087,0.2486614282540977,-0.44789451507478956,9.763400092899799,12711,1603198086.1730294,rc,0.0,0.0,0.0,0.0,0.0,-10000.0
,,124806.289405,1.1636812686920166,191818,1603198867.438464,/world,vicon/testobj/testobj,-0.025641485129880248,-0.1472766365196389,1.3937438797862383,-0.0005197036495273543,0.0004298537570573173,-0.004358394093139827,0.999990274720106,3134788.0,0.05,0.15,-0.99,0.0,0.06,0.0,-55.36,0.75,-52.81,3480580.0,0.13,0.13,1.0,-0.06,-0.12,0.0,-6.15,34.51,17.1,137768,1603198086.2590115,body_FLU,-0.025095776253539374,0.0010293959590209599,-0.5849557706709538,0.8106761922721933,-0.0029357902240008116,0.004258281551301479,0.0020909325685352087,0.2486614282540977,-0.44789451507478956,9.763400092899799,12711,1603198086.1730294,rc,0.0,0.0,0.0,0.0,0.0,-10000.0
,,124806.314127,1.1884002685546875,191821,1603198867.4686675,/world,vicon/testobj/testobj,-0.02564411005418493,-0.1472722869588518,1.3937471616937964,-0.0006125651578081915,0.00033672977663410216,-0.004345884245333317,0.9999903122866297,3134798.0,0.04,0.16,-0.99,-0.06,-0.12,-0.06,-55.51,0.6,-53.71,3480588.0,0.14,0.12,1.0,-0.06,-0.24,-0.06,-5.4,34.36,16.2,137770,1603198086.306164,body_FLU,-0.02508118017827659,0.0010237455356852407,-0.5849556964925449,0.8106767046652227,-0.00010987510904669762,0.002912860829383135,0.0012360430555418134,0.36202207680791615,-0.3421604033075273,9.817422612190247,12711,1603198086.1730294,rc,0.0,0.0,0.0,0.0,0.0,-10000.0
,,124806.335852,1.210118055343628,191823,1603198867.4884012,/world,vicon/testobj/testobj,-0.0256397632520778,-0.14728608277592015,1.3937520556197136,-0.0006759043372657622,0.00028239806976023974,-0.00433301707958749,0.9999903441372047,3134808.0,0.04,0.15,-0.99,-0.06,-0.12,-0.12,-55.96,0.75,-54.16,3480597.0,0.14,0.12,1.0,-0.06,-0.18,0.06,-6.0,33.76,16.8,137770,1603198086.306164,body_FLU,-0.02508118017827659,0.0010237455356852407,-0.5849556964925449,0.8106767046652227,-0.00010987510904669762,0.002912860829383135,0.0012360430555418134,0.36202207680791615,-0.3421604033075273,9.817422612190247,12711,1603198086.1730294,rc,0.0,0.0,0.0,0.0,0.0,-10000.0
,,124806.358826,1.233102560043335,191825,1603198867.5086572,/world,vicon/testobj/testobj,-0.025645999689038173,-0.14727128005546578,1.3937349165984942,-0.000535662565494294,0.00040433115376965176,-0.004332224657338185,0.9999903906595565,3134818.0,0.04,0.15,-0.99,0.12,0.0,-0.06,-56.71,0.75,-54.46,3480606.0,0.15,0.12,0.99,-0.12,-0.06,0.0,-6.15,36.01,17.1,137771,1603198086.3394616,body_FLU,-0.02505844735571001,0.0010224284521676695,-0.584957733151758,0.8106759397454313,-0.0015325509011745453,0.0022491468116641045,-0.0017065262654796243,0.3258161814585328,-0.3607364679090679,9.78842775195837,12712,1603198086.3533137,rc,0.0,0.0,0.0,0.0,0.0,-10000.0
,,124806.382231,1.2564890384674072,191828,1603198867.538576,/world,vicon/testobj/testobj,-0.025645147357442714,-0.14727535936323183,1.3937436689926173,-0.0006103720874606448,0.0003389958943639674,-0.004354316557685914,0.9999902761802306,3134828.0,0.03,0.15,-0.98,0.0,-0.06,0.0,-57.31,-1.5,-54.01,3480614.0,0.15,0.12,1.0,-0.06,-0.12,-0.12,-6.0,35.41,16.5,137772,1603198086.3588703,body_FLU,-0.025040449855230365,0.0010224759423533118,-0.5849609476011143,0.8106741763468239,0.002820707391947508,0.00540496502071619,0.0015883512096479535,0.2524068398941308,-0.48305661765486,9.859799401044846,12712,1603198086.3533137,rc,0.0,0.0,0.0,0.0,0.0,-10000.0
,,124806.404959,1.2792298793792725,191830,1603198867.5584147,/world,vicon/testobj/testobj,-0.02563673398303522,-0.14727350812618756,1.3937494216657835,-0.0005751060151204724,0.0003938883258218446,-0.004332668310629668,0.9999903709988253,3134838.0,0.04,0.15,-0.99,-0.06,-0.12,-0.06,-54.91,-0.3,-53.41,3480656.0,0.15,0.13,1.0,-0.06,-0.12,0.0,-4.35,34.36,18.15,137773,1603198086.3893743,body_FLU,-0.025032241748378925,0.0010267315105770083,-0.5849675847054078,0.8106696352641917,0.0008446021238341928,0.008525844663381577,0.006104062311351299,0.24708447528071703,-0.39646424424648286,9.878725830674172,12712,1603198086.3533137,rc,0.0,0.0,0.0,0.0,0.0,-10000.0
,,124806.427539,1.3018364906311035,191832,1603198867.5784771,/world,vicon/testobj/testobj,-0.02563550115659237,-0.14728010983074147,1.3937298348356477,-0.0005999720094011157,0.00032257141699642124,-0.004315518992581427,0.9999904560930036,3134848.0,0.04,0.15,-0.99,0.0,0.0,0.06,-56.41,-0.6,-53.86,3480665.0,0.14,0.12,1.0,-0.06,-0.12,0.0,-5.4,35.41,17.85,137775,1603198086.4198644,body_FLU,-0.025025736589999154,0.0010239010839103156,-0.5849798586781904,0.8106609828254612,-0.0005153407109901309,0.006379597820341587,-0.000895170378498733,0.34891683286428454,-0.41739267629384996,9.784558693885803,12712,1603198086.3533137,rc,0.0,0.0,0.0,0.0,0.0,-10000.0
,,124806.451228,1.3254992961883545,191834,1603198867.5985107,/world,vicon/testobj/testobj,-0.025641939056563024,-0.14727112781819193,1.39373794325369,-0.0004776229640136705,0.00042774436466987544,-0.004338924252749944,0.9999903812774359,3134858.0,0.04,0.14,-1.0,0.06,0.0,-0.12,-56.41,-0.9,-53.11,3480674.0,0.15,0.12,0.99,0.06,0.0,0.06,-4.65,34.06,16.2,137777,1603198086.4392712,body_FLU,-0.025023609818956797,0.0010288216879640513,-0.5849715747689601,0.8106670199224127,0.002214873908087611,0.0010847598314285278,0.003275008173659444,0.3416260199658573,-0.3922194821164012,9.754914219796659,12712,1603198086.3533137,rc,0.0,0.0,0.0,0.0,0.0,-10000.0
,,124806.475394,1.3497254848480225,191837,1603198867.6288059,/world,vicon/testobj/testobj,-0.025632481313765693,-0.14727934422699515,1.3937496147826118,-0.0006179859200200595,0.0003925416366478334,-0.004351438944624377,0.9999902644443982,3134868.0,0.03,0.14,-0.98,-0.12,-0.06,0.06,-56.71,-0.3,-52.51,3480682.0,0.15,0.12,0.99,0.0,0.06,0.0,-4.65,34.06,16.2,137778,1603198086.458732,body_FLU,-0.02501133257038448,0.0010377949879090296,-0.5849834446984562,0.8106588219795949,-0.0024488114286214113,0.009005246683955193,-0.0029980470426380634,0.18698604733496904,-0.500250500254333,9.782198585987091,12712,1603198086.3533137,rc,0.0,0.0,0.0,0.0,0.0,-10000.0
,,124806.498794,1.3730542659759521,191839,1603198867.64861,/world,vicon/testobj/testobj,-0.02564717243212675,-0.14727352857451578,1.3937402375094656,-0.0005387595919229099,0.000360567327138366,-0.004344951825098278,0.9999903505149148,3134878.0,0.04,0.15,-1.0,0.0,0.06,0.0,-55.66,0.45,-53.11,3480691.0,0.16,0.12,1.01,-0.06,-0.06,-0.06,-6.15,34.96,17.1,137779,1603198086.4864087,body_FLU,-0.024989124304746233,0.001035272728203352,-0.584969906703724,0.8106692791316918,0.006272458471357822,0.00736938277259469,0.0018638510955497622,0.28551485630124807,-0.4058975195735693,9.727018795967103,12713,1603198086.47534,rc,0.0,0.0,0.0,0.0,0.0,-10000.0
,,124806.524573,1.3988385200500488,191842,1603198867.6784945,/world,vicon/testobj/testobj,-0.025646516594728917,-0.14727861909497067,1.3937440246572343,-0.0005986205235160758,0.00036298808931462765,-0.004358583276859962,0.9999902562749972,3134888.0,0.04,0.15,-0.98,0.0,-0.06,-0.06,-55.96,0.45,-53.41,3480699.0,0.15,0.12,1.0,-0.06,-0.12,0.12,-6.45,34.81,16.8,137782,1603198086.5197198,body_FLU,-0.024977007112187324,0.001042797313313834,-0.5849809806239145,0.8106616519842076,-0.00048812676686793566,0.006035217083990574,-0.0038363581988960505,0.29588096573576333,-0.3656077320724726,9.873581496477128,12713,1603198086.47534,rc,0.0,0.0,0.0,0.0,0.0,-10000.0
,,124806.547702,1.4219679832458496,191844,1603198867.6985645,/world,vicon/testobj/testobj,-0.025644383963211063,-0.14728547257173238,1.393751824286977,-0.0006574554578690946,0.0002861843376721755,-0.0043569929711615015,0.9999902511840278,3134898.0,0.04,0.16,-0.99,-0.06,-0.06,-0.06,-55.66,0.45,-53.41,3480708.0,0.16,0.12,0.99,-0.12,-0.12,0.0,-5.1,32.41,14.7,137784,1603198086.5390954,body_FLU,-0.024957754303849587,0.001042985618659918,-0.5849780615014472,0.8106643511608963,-0.0017878108192235231,0.0027225930243730545,0.0025769025087356567,0.32349324233829974,-0.3406121301725507,9.963766827464104,12713,1603198086.47534,rc,0.0,0.0,0.0,0.0,0.0,-10000.0
,,124806.569558,1.4438257217407227,191846,1603198867.7184072,/world,vicon/testobj/testobj,-0.025637788532284756,-0.14727036830104065,1.3937479578907064,-0.0005381053357186133,0.0004522867926225776,-0.004335568753550998,0.9999903543149244,3134908.0,0.04,0.15,-0.99,0.0,0.0,0.0,-56.71,1.2,-53.41,3480717.0,0.15,0.12,0.99,-0.06,-0.18,0.0,-6.45,34.81,15.15,137785,1603198086.5585155,body_FLU,-0.024963255665037,0.0010444225577121921,-0.584987130812987,0.810657635399379,0.0029629343189299107,0.006414460018277168,-0.001952475868165493,0.2764632729291916,-0.5328824240416289,9.804335697054864,12713,1603198086.47534,rc,0.0,0.0,0.0,0.0,0.0,-10000.0
,,124806.593789,1.4682021141052246,191849,1603198867.7486584,/world,vicon/testobj/testobj,-0.02564287225194163,-0.14728054513700659,1.3937315961204262,-0.0005145088351416406,0.00039583609110205434,-0.004332042505465096,0.9999904059550664,3134918.0,0.03,0.15,-0.99,-0.06,-0.06,-0.06,-56.26,0.0,-53.71,3480725.0,0.15,0.13,1.0,-0.06,-0.18,0.06,-6.45,35.41,16.5,137786,1603198086.5890632,body_FLU,-0.024951326251430324,0.0010284410325192225,-0.5849904365088257,0.8106556376295367,-0.0010827584192156792,0.0015262904344126582,-0.002464462537318468,0.17787575335800648,-0.45365695364400743,9.883908721089364,12714,1603198086.5752025,rc,0.0,0.0,0.0,0.0,0.0,-10000.0
,,124806.616629,1.4909214973449707,191851,1603198867.7683702,/world,vicon/testobj/testobj,-0.025637504920684277,-0.14727248881324878,1.3937557612073377,-0.0005674599336146057,0.0004205778712645782,-0.004340075997171583,0.9999903323751769,3134929.0,0.04,0.17,-0.98,0.0,0.0,0.0,-55.81,0.3,-53.26,3480734.0,0.15,0.12,0.99,-0.12,-0.12,-0.06,-6.45,34.06,16.5,137787,1603198086.605705,body_FLU,-0.024926483141569415,0.0010302204668436899,-0.5849803585486276,0.8106636720590739,0.003570126136764884,0.004268782678991556,0.003486888948827982,0.36482879423350095,-0.5417557579278947,9.928926026701927,12714,1603198086.5752025,rc,0.0,0.0,0.0,0.0,0.0,-10000.0
,,124806.639137,1.513427972793579,191853,1603198867.7885685,/world,vicon/testobj/testobj,-0.025640566796647495,-0.14728173328134275,1.393744809698418,-0.0006403478865290008,0.0003590091749223399,-0.00433131164144821,0.9999903503566728,3134938.0,0.05,0.14,-0.99,0.06,0.0,0.06,-55.51,-0.45,-54.31,3480743.0,0.15,0.11,0.99,-0.24,-0.06,0.0,-7.05,35.86,16.5,137789,1603198086.6278827,body_FLU,-0.024934092801826298,0.0010274927013625185,-0.584976586385123,0.8106661635075855,-0.004056831356137991,0.005175540689378977,-0.00021233095321804285,0.34900234296172855,-0.5795537768080831,9.96094988679886,12714,1603198086.5752025,rc,0.0,0.0,0.0,0.0,0.0,-10000.0
,,124806.663246,1.53751802444458,191856,1603198867.8186443,/world,vicon/testobj/testobj,-0.02564176460920421,-0.14727937646619887,1.393725123068746,-0.0004930793718680988,0.0004096449233997527,-0.004330026234888948,0.9999904199223986,3134948.0,0.04,0.15,-0.99,-0.06,-0.18,0.06,-55.06,1.05,-54.01,3480751.0,0.15,0.13,0.99,0.12,0.0,0.0,-7.05,35.86,16.5,137791,1603198086.6583853,body_FLU,-0.024936284602208512,0.0010068368551486855,-0.5849852085588447,0.810659900178336,-0.001356730004772544,0.0036252266727387905,-0.0013158891815692186,0.34046699668094516,-0.35747791980206967,9.851173323512077,12714,1603198086.5752025,rc,0.0,0.0,0.0,0.0,0.0,-10000.0
,,124806.685775,1.56003999710083,191858,1603198867.8385882,/world,vicon/testobj/testobj,-0.025650676748720035,-0.14727030840341304,1.3937356031192871,-0.0006214739517424651,0.00037848167551159014,-0.004356952475952437,0.9999902436958427,3134958.0,0.04,0.15,-0.99,-0.06,-0.18,0.0,-57.76,-0.3,-56.26,3480760.0,0.16,0.12,0.99,-0.06,-0.06,0.0,-6.0,34.36,16.2,137791,1603198086.6583853,body_FLU,-0.024936284602208512,0.0010068368551486855,-0.5849852085588447,0.810659900178336,-0.001356730004772544,0.0036252266727387905,-0.0013158891815692186,0.34046699668094516,-0.35747791980206967,9.851173323512077,12715,1603198086.6750548,rc,0.0,0.0,0.0,0.0,0.0,-10000.0
,,124806.707974,1.5822508335113525,191860,1603198867.8585293,/world,vicon/testobj/testobj,-0.02563757889675876,-0.1472821403256996,1.3937572489384238,-0.0006792432921119025,0.00024715545880823195,-0.0043497326606832904,0.9999902786370025,3134968.0,0.04,0.15,-1.0,-0.06,-0.18,0.0,-54.76,-0.75,-52.96,3495721.0,0.15,0.13,1.01,-0.06,-0.06,-0.06,-5.4,35.11,17.25,137793,1603198086.6972015,body_FLU,-0.024934559642129858,0.0009931522121968699,-0.5849960201154566,0.810652168215945,0.0001856546150520444,0.004923386499285698,-0.002483304589986801,0.3217544883415103,-0.4377322862483561,9.771808853566647,12715,1603198086.6750548,rc,0.0,0.0,0.0,0.0,0.0,-10000.0
,,124806.730488,1.6047747135162354,191862,1603198867.8785295,/world,vicon/testobj/testobj,-0.025636673978076886,-0.1472699897738337,1.3937389040113248,-0.0006229665443571587,0.0003441695908055923,-0.004348998710615577,0.9999902897879521,3134978.0,0.05,0.15,-0.99,-0.12,-0.06,-0.06,-55.81,-0.45,-52.66,3495764.0,0.15,0.12,0.99,-0.06,-0.06,-0.06,-4.65,34.06,18.9,137795,1603198086.7193959,body_FLU,-0.02494702964223209,0.0010008005924220392,-0.5849940233152479,0.8106532161137974,0.0013587817084044218,0.00190534139983356,0.0005773555603809655,0.24072556544467807,-0.47778515017032624,9.809386561632156,12715,1603198086.6750548,rc,0.0,0.0,0.0,0.0,0.0,-10000.0
,,124806.754336,1.6286036968231201,191865,1603198867.908727,/world,vicon/testobj/testobj,-0.025636054248066885,-0.14726782250223558,1.3937408149595167,-0.0005004378911399744,0.0004626902675935422,-0.004311022698277131,0.9999904752361036,3134988.0,0.04,0.15,-0.99,0.0,0.0,-0.06,-55.96,0.15,-53.41,3495772.0,0.15,0.11,0.99,-0.06,-0.06,-0.06,-4.95,35.41,16.8,137796,1603198086.7387981,body_FLU,-0.02493484200371585,0.0009995848946763289,-0.5850010263541586,0.8106485389173713,-0.0010441101621836424,0.0057813613675534725,-0.0030032750219106674,0.2828892362639308,-0.4464863733462989,9.909123319387437,12716,1603198086.7332954,rc,0.0,0.0,0.0,0.0,0.0,-10000.0
,,124806.776935,1.651195764541626,191867,1603198867.9286754,/world,vicon/testobj/testobj,-0.025648402369735594,-0.14728037373997813,1.3937611418809464,-0.0005493233898083923,0.00028643698801111156,-0.004257469815883874,0.9999907450313889,3134998.0,0.04,0.15,-1.0,0.06,-0.12,0.0,-56.56,-0.45,-54.01,3495781.0,0.16,0.11,1.0,-0.12,-0.12,-0.18,-6.0,34.81,17.55,137797,1603198086.7582495,body_FLU,-0.02494718144815874,0.0009853616369215384,-0.5849922618621106,0.810654501475005,5.319272167980671e-05,-0.0007691532373428345,0.003183023538440466,0.2790072896070778,-0.38657106918096545,9.7617106295228,12717,1603198086.7748427,rc,0.0,0.0,0.0,0.0,0.0,-10000.0
,,124806.799483,1.6737968921661377,191869,1603198867.948729,/world,vicon/testobj/testobj,-0.025639436867220308,-0.14728448767853827,1.3937424028804846,-0.0005609068801952594,0.00037215044148109454,-0.004342032924469351,0.9999903467722093,3135008.0,0.02,0.15,-0.99,-0.06,-0.06,-0.06,-54.61,-0.6,-51.76,3495790.0,0.15,0.13,0.99,-0.06,-0.06,0.12,-6.6,33.91,17.1,137799,1603198086.7970154,body_FLU,-0.024953962522458278,0.0009968111715068782,-0.5850061860109779,0.8106442305048529,-0.002465442754328251,0.003988012671470642,-0.0020081494003534317,0.26432912721857427,-0.35181899153441193,9.832623109102249,12717,1603198086.7748427,rc,0.0,0.0,0.0,0.0,0.0,-10000.0
,,124806.824855,1.6991171836853027,191872,1603198867.9786227,/world,vicon/testobj/testobj,-0.025649655867487946,-0.14728132317885095,1.3937278747729638,-0.0006247755039814009,0.00033716406304901695,-0.004339488171883279,0.9999903323624536,3135018.0,0.03,0.15,-1.01,-0.24,-0.06,-0.12,-56.26,0.0,-54.01,3495799.0,0.15,0.12,1.0,-0.06,-0.06,-0.06,-6.9,34.21,17.1,137800,1603198086.8192568,body_FLU,-0.02494394954459506,0.0009916099160108428,-0.58499500686322,0.8106526124277847,-0.0005973758525215089,0.004238331690430641,0.001372698461636901,0.2836193398777396,-0.42342584815621376,9.795333404302598,12718,1603198086.8136623,rc,0.0,0.0,0.0,0.0,0.0,-10000.0
,,124806.847317,1.721618890762329,191874,1603198867.998373,/world,vicon/testobj/testobj,-0.02564316160741192,-0.1472721262769423,1.3937244609787534,-0.0005171668108738286,0.00044224761293334367,-0.004322483288523903,0.9999904265010536,3135028.0,0.04,0.15,-0.99,0.0,0.0,0.0,-56.71,0.75,-53.86,3495807.0,0.14,0.11,0.98,0.0,-0.06,-0.12,-6.9,34.21,17.1,137801,1603198086.8386514,body_FLU,-0.024957513349001953,0.0009847517986407578,-0.5850014448999912,0.8106475573615527,0.0002626570640131831,0.0068073570728302,-0.0001502129016444087,0.24018937478028238,-0.434161272123456,9.919547518730164,12718,1603198086.8136623,rc,0.0,0.0,0.0,0.0,0.0,-10000.0
,,124806.869157,1.7434461116790771,191876,1603198868.1835923,/world,vicon/testobj/testobj,-0.025643572782117235,-0.14727598179566848,1.393749534591086,-0.0005616254588346982,0.00037417750414930857,-0.004346471157631068,0.9999903263314677,3135038.0,0.03,0.15,-0.99,0.06,-0.06,-0.06,-55.06,-1.8,-53.26,3495816.0,0.15,0.12,0.99,-0.06,-0.06,0.0,-6.6,35.26,17.4,137801,1603198086.8386514,body_FLU,-0.024957513349001953,0.0009847517986407578,-0.5850014448999912,0.8106475573615527,0.0002626570640131831,0.0068073570728302,-0.0001502129016444087,0.24018937478028238,-0.434161272123456,9.919547518730164,12718,1603198086.8136623,rc,0.0,0.0,0.0,0.0,0.0,-10000.0
,,124806.893417,1.7676804065704346,191879,1603198868.4869676,/world,vicon/testobj/testobj,-0.02564331095472564,-0.14728039498775927,1.3937554608414786,-0.0005706353874172926,0.00036525920328992975,-0.004352750255002108,0.9999902972160213,3135048.0,0.04,0.15,-0.99,-0.18,-0.06,0.06,-56.86,-0.75,-53.26,3495825.0,0.14,0.12,1.0,-0.06,-0.12,-0.06,-7.65,34.51,17.4,137803,1603198086.8885703,body_FLU,-0.024958434989488392,0.0010039141648793624,-0.5849930493976538,0.810653564006018,0.003986789844930172,0.002733574016019702,0.0014529775362461805,0.2540777371376753,-0.3271203017234802,9.83393986237049,12718,1603198086.8136623,rc,0.0,0.0,0.0,0.0,0.0,-10000.0
,,124806.917627,1.7918949127197266,191881,1603198868.6844184,/world,vicon/testobj/testobj,-0.025642842191973866,-0.14729109630944334,1.3937346343908708,-0.0005196658988539894,0.00042113612721253387,-0.004354329794117522,0.9999902961547976,3135058.0,0.04,0.16,-1.0,0.0,0.0,0.06,-57.01,-0.3,-53.86,3495833.0,0.14,0.12,1.01,-0.18,-0.18,0.06,-6.45,34.36,15.9,137806,1603198086.916297,body_FLU,-0.024956344011305386,0.001008167014439157,-0.5849823895504566,0.8106613154756418,-0.000693631824105978,0.0067562623880803585,0.001295070513151586,0.22082495235465469,-0.3397128501981497,9.933585487246514,12718,1603198086.8136623,rc,0.0,0.0,0.0,0.0,0.0,-10000.0
,,124806.941269,1.8155341148376465,191884,1603198868.984019,/world,vicon/testobj/testobj,-0.025644030392928056,-0.14728197651594513,1.3937424543935875,-0.0005278719640718445,0.0004139303364942015,-0.004343392292682601,0.9999903424314946,3135068.0,0.03,0.15,-1.0,-0.06,-0.18,0.06,-55.81,0.3,-54.31,3495842.0,0.14,0.12,0.99,-0.06,-0.12,0.0,-6.6,35.26,17.1,137808,1603198086.935702,body_FLU,-0.024952655882566253,0.0009880709652532974,-0.5849887246256837,0.8106568822510483,0.0017530026379972696,0.004845018032938242,-0.0007268496556207538,0.2772129650004208,-0.4587409707270563,9.814190900087358,12718,1603198086.8136623,rc,0.0,0.0,0.0,0.0,0.0,-10000.0
,,124806.965234,1.8395020961761475,191886,1603198868.1183016,/world,vicon/testobj/testobj,-0.02564520761771098,-0.14727998821184388,1.3937419544700977,-0.000583340938635246,0.00038462375304500456,-0.004324321049453108,0.9999904059666669,3135078.0,0.04,0.15,-0.99,-0.06,-0.12,-0.12,-56.41,0.45,-53.41,3495851.0,0.14,0.12,1.0,-0.06,-0.06,0.06,-5.85,34.96,17.4,137810,1603198086.95787,body_FLU,-0.024937016143259598,0.0009985140863807524,-0.5849769622614521,0.8106658385665784,0.0004081224324181676,0.00495532713830471,0.002534680999815464,0.39974805836007,-0.49579174381121993,9.887769016385079,12718,1603198086.8136623,rc,0.0,0.0,0.0,0.0,0.0,-10000.0
,,124806.987538,1.8618392944335938,191888,1603198868.1384323,/world,vicon/testobj/testobj,-0.025638609065608213,-0.1472731980861529,1.393749407446007,-0.0005456234623346372,0.0003922603621862734,-0.00434001874079386,0.999990356285587,3135088.0,0.04,0.16,-1.0,0.0,0.0,0.0,-55.51,-0.75,-54.31,3495859.0,0.14,0.12,1.0,0.06,0.0,-0.12,-5.4,35.41,16.5,137812,1603198086.980076,body_FLU,-0.024938941131040837,0.0009867643646461666,-0.5849812043917939,0.8106627325957926,-8.251157123595476e-05,0.007075456436723471,-0.0006127934902906418,0.3814441144913435,-0.30491159146651625,9.884759294629097,12718,1603198086.8136623,rc,0.0,0.0,0.0,0.0,0.0,-10000.0
,,124807.014166,1.8884413242340088,191891,1603198868.1683583,/world,vicon/testobj/testobj,-0.025643395504819644,-0.14726606610609366,1.3937457235026431,-0.0005365058234384326,0.0004009361436372317,-0.004341688042143245,0.9999903505317713,3135098.0,0.03,0.16,-0.98,-0.06,-0.12,0.06,-56.56,0.6,-54.01,3495868.0,0.14,0.12,1.0,-0.06,-0.12,0.12,-4.8,35.26,16.5,137815,1603198087.7805903,body_FLU,-0.024958077495744135,0.0010004358160295877,-0.5849849320003484,0.8106594370192962,0.0013366580242291093,0.006181207485496998,-0.0020770106930285692,0.18939296306669712,-0.599241399653256,9.849139190912247,12718,1603198086.8136623,rc,0.0,0.0,0.0,0.0,0.0,-10000.0
,,124807.036343,1.9106111526489258,191893,1603198868.1884801,/world,vicon/testobj/testobj,-0.025644326196382197,-0.14728436596717093,1.3937362495283026,-0.0005234398756892856,0.0003889995532687549,-0.004335065652338305,0.9999903909017496,3135108.0,0.04,0.15,-1.0,-0.06,-0.06,0.06,-56.56,-0.45,-53.26,3495877.0,0.13,0.12,1.0,-0.18,-0.18,0.06,-4.8,35.26,18.45,137816,1603198087.1893666,body_FLU,-0.02495691794189811,0.0010066893340354992,-0.5849856364139401,0.8106589566598297,-0.0005275582661852241,0.006590499542653561,-0.0016975582111626863,0.2180194763224572,-0.5649368078112602,9.764123314082623,12718,1603198086.8136623,rc,0.0,0.0,0.0,0.0,0.0,-10000.0
,,124807.058479,1.9327397346496582,191895,1603198868.2086036,/world,vicon/testobj/testobj,-0.025637516260909068,-0.14728174655103332,1.393738219711465,-0.0005262167211394433,0.00037708261114329883,-0.004334792421500709,0.9999903951935385,3135118.0,0.04,0.15,-1.0,0.0,0.0,-0.12,-56.26,0.6,-55.06,3495915.0,0.14,0.12,0.99,-0.12,-0.12,0.06,-4.35,34.36,17.85,137817,1603198087.383395,body_FLU,-0.024988584874583615,0.0010049046849017072,-0.5849782644929016,0.8106633030200718,-0.002545582829043269,0.003873201785609126,0.0029762261547148228,0.28746555996313694,-0.4680926426947117,9.775308706641198,12719,1603198087.5497174,rc,0.0,0.0,0.0,0.0,0.0,-10000.0
,,124807.082475,1.9567854404449463,191898,1603198868.238492,/world,vicon/testobj/testobj,-0.025638675225177685,-0.14728099661853158,1.3937462939791025,-0.000605158974235599,0.00034000123419513923,-0.004317069742042974,0.9999904404996175,3135129.0,0.04,0.15,-1.0,-0.06,-0.12,-0.06,-55.81,0.0,-52.21,3495924.0,0.14,0.12,0.99,-0.12,-0.18,-0.06,-4.05,36.01,17.7,137818,1603198087.6884124,body_FLU,-0.02500110110759043,0.001017750251595861,-0.5849784842655165,0.810662742497922,-0.0019823997281491756,0.002710925880819559,0.004155691713094711,0.36246598447859285,-0.4341590814292431,9.863504303097725,12719,1603198087.5497174,rc,0.0,0.0,0.0,0.0,0.0,-10000.0
,,124807.107334,1.9816436767578125,191900,1603198868.2585511,/world,vicon/testobj/testobj,-0.025641137068122613,-0.14727859616712977,1.3937407533375266,-0.0006010004119446635,0.0003126464129485915,-0.00432959029253945,0.999990397803211,3135138.0,0.04,0.15,-0.99,0.0,0.06,-0.06,-56.26,0.6,-53.26,3495933.0,0.14,0.12,0.99,0.06,0.0,-0.12,-5.4,34.36,16.8,137820,1603198087.9657779,body_FLU,-0.025008653547689642,0.0010335316227012433,-0.5849730848178857,0.8106663858201864,0.002592981792986393,0.00488932803273201,0.002385860774666071,0.29528984341397885,-0.399826266143471,9.87928898513317,12719,1603198087.5497174,rc,0.0,0.0,0.0,0.0,0.0,-10000.0
,,124807.129522,2.0037848949432373,191902,1603198868.2783651,/world,vicon/testobj/testobj,-0.025644144192588567,-0.14728449481316377,1.3937351887078675,-0.0005853076565303132,0.00035823803805571893,-0.004351352746465786,0.9999902973577949,3135148.0,0.04,0.15,-1.0,0.0,0.06,0.0,-55.36,0.45,-52.81,3495941.0,0.14,0.11,0.99,0.0,-0.12,0.0,-5.4,35.11,16.2,137822,1603198087.1159832,body_FLU,-0.02501765767457666,0.0010320314248356127,-0.5849778495249669,0.8106626716956697,0.0004010357952211052,0.00737716443836689,-0.0033136471174657345,0.2623704457785934,-0.3725783019885421,9.822977044343949,12719,1603198087.5497174,rc,0.0,0.0,0.0,0.0,0.0,-10000.0
,,124807.153705,2.027970552444458,191905,1603198868.30873,/world,vicon/testobj/testobj,-0.025643849551564287,-0.14727704141826756,1.3937455749450391,-0.0006012527400047359,0.0003394827388840833,-0.0043411078933861934,0.9999903389677676,3135158.0,0.04,0.15,-1.0,-0.06,-0.12,-0.06,-56.41,-0.6,-54.46,3495950.0,0.14,0.13,1.0,0.0,0.0,-0.06,-4.8,35.56,17.4,137824,1603198087.1493406,body_FLU,-0.025024098796427204,0.001025264244379493,-0.5849892421869228,0.8106542603590174,-0.0009521750034764409,0.007204810157418251,-0.001816312549635768,0.42275272084772586,-0.3605739549100399,9.854007789731027,12719,1603198087.5497174,rc,0.0,0.0,0.0,0.0,0.0,-10000.0
,,124807.176176,2.0504403114318848,191907,1603198868.3286035,/world,vicon/testobj/testobj,-0.025632058801499144,-0.14727878235780287,1.3937454684050326,-0.0005621383744828623,0.00044698700704669844,-0.004359954448300178,0.9999902374524824,3135168.0,0.03,0.15,-0.99,0.12,0.0,-0.12,-55.96,0.75,-53.41,3495958.0,0.14,0.12,0.99,-0.06,-0.06,-0.06,-5.1,33.16,17.4,137825,1603198087.1660328,body_FLU,-0.025040477954405605,0.0010329797452439105,-0.5849750138609326,0.8106640121376196,0.0010327580384910107,0.003847315674647689,0.003691738937050104,0.4132891044057906,-0.43041963943094014,9.750136169672013,12719,1603198087.5497174,rc,0.0,0.0,0.0,0.0,0.0,-10000.0
,,124807.199385,2.0737082958221436,191909,1603198868.3486817,/world,vicon/testobj/testobj,-0.025637611632396095,-0.1472762118426896,1.3937305428381257,-0.0005232952542185257,0.0003960236748641833,-0.004326558203214478,0.9999904250648803,3135178.0,0.04,0.15,-0.99,0.06,0.0,-0.06,-55.36,-0.3,-54.16,3495967.0,0.14,0.12,1.0,0.0,0.0,-0.06,-5.1,33.16,17.4,137827,1603198087.196505,body_FLU,-0.025041758245665464,0.0010326201289600375,-0.5849882296262341,0.81065443638976,-0.002246562158688903,0.005934028886258602,0.0025682856794446707,0.40649148979783056,-0.5195021384395659,9.782934075057506,12719,1603198087.5497174,rc,0.0,0.0,0.0,0.0,0.0,-10000.0
,,124807.224051,2.0983309745788574,191912,1603198868.378532,/world,vicon/testobj/testobj,-0.025639048547429728,-0.14726961198107497,1.3937402814136615,-0.0006215041519580582,0.0003187860640653457,-0.004326366513392896,0.999990397284307,3135188.0,0.04,0.15,-0.99,-0.12,-0.06,0.06,-55.81,-0.45,-54.01,3495976.0,0.15,0.12,1.0,-0.12,-0.06,0.0,-4.8,36.01,18.45,137829,1603198087.215881,body_FLU,-0.025039504156891754,0.0010273346284469177,-0.5849945072033849,0.8106499826417115,0.002384904073551297,0.004016992170363665,-0.0015439566923305392,0.2982534145452082,-0.46251743545755747,9.889429270505905,12719,1603198087.5497174,rc,0.0,0.0,0.0,0.0,0.0,-10000.0
